time,header_stamp_secs,header_stamp_nsecs,header_frame_id,child_frame_id,pose_position_x,pose_position_y,pose_position_z,pose_orientation_x,pose_orientation_y,pose_orientation_z,pose_orientation_w,twist_linear_x,twist_linear_y,twist_linear_z,twist_angular_x,twist_angular_y,twist_angular_z,gps_status
2025/04/09 10:58:24.161519811,1744189104,150149013,piren,vessel_center,-480.03016761148064,-299.9405644789619,2.3596047584270505,-0.0297863497405578,0.00041080753029286296,-0.00043871640173237823,0.9995561075468576,-9.66212151524813e-05,0.06464639843902573,0.028109900240005866,0.0008310738774782646,1.785777218692639e-05,1.0034340948758129e-05,0
2025/04/09 10:58:24.280709873,1744189104,260258931,piren,vessel_center,-480.03015180348166,-299.90950913618633,2.372439372820973,-0.003218332628966656,0.0013666876127385065,-0.0004465177868618652,0.9999937875416649,-3.767828625313981e-05,0.10779446697429107,0.04554461162187243,-0.0008045862073373539,-0.00020787737953599205,2.1069261302664237e-05,0
2025/04/09 10:58:24.437732741,1744189104,415201866,piren,vessel_center,-480.0283861778412,-299.93652910521416,2.362927269120487,0.028222040994676154,0.0011862306566305216,-0.00040568680918295495,0.9996008926952482,0.0034858296282891388,0.021845867454975687,0.013018076410475796,-0.0009949366136019985,-0.0017039311494396238,0.0006663063706667563,0
2025/04/09 10:58:24.688808870,1744189104,684550858,piren,vessel_center,-480.02694290074345,-300.02787072731934,2.324688808860806,-0.0032853639051201107,0.0005709083721491212,-4.5585726784412714e-05,0.9999944391693303,0.004514269331002652,-0.15276002043247075,-0.06182673120764222,-0.000793784866902465,0.0006697190753555836,0.0011476308206130389,0
2025/04/09 10:58:24.760280475,1744189104,756765934,piren,vessel_center,-480.02726408446694,-300.02978669424965,2.3248823045226583,0.0017412874251479932,9.397482647404839e-06,-4.730738697575825e-05,0.9999984827947498,0.002780731988241314,-0.12255309142042364,-0.047444450906498695,0.0006847989803770989,0.0009640431365408803,0.0,0
2025/04/09 10:58:24.897498661,1744189104,895363442,piren,vessel_center,-480.0286151222505,-300.0372713089864,2.3224389754032253,-0.0031002382661392577,1.771610153163292e-05,0.00019292591250622936,0.9999951754825747,-0.0008457243014618138,-0.11173400569523523,-0.042246261376605726,-0.0006634117069361854,0.0016385256691549726,0.008113677609625655,0
2025/04/09 10:58:24.970967666,1744189104,967248058,piren,vessel_center,-480.02945534285914,-300.03243399432176,2.3248181790821887,0.0016300352895604932,-0.0005286467229990113,0.00033114019137492573,0.9999984769307255,-0.0025391897418558067,-0.07799150865139468,-0.028265382822766166,0.0008504230144339249,0.0019739830157037295,0.0012607263303523054,0
2025/04/09 10:58:25.111296107,1744189105,106305768,piren,vessel_center,-480.0310074581027,-300.03792232442316,2.3227808972159276,-0.029814430635605543,0.0005801816772299227,-8.41315601385754e-05,0.9995552791301623,-0.0051299635554642,-0.06379490569852436,-0.02322749726857503,0.001027749370088522,0.001660518331799864,-0.00011914859197673512,0
2025/04/09 10:58:25.252289914,1744189105,244316243,piren,vessel_center,-480.0305235103559,-299.9846406918232,2.3432688893074753,0.02818900337792455,0.0005620555914087453,-0.0002158615464527914,0.9996024297618851,-0.002876106724761484,0.0692819738434528,0.02764428441869568,-0.0007342168453331457,0.0002685897454895343,-0.00043532761100203407,0
2025/04/09 10:58:25.342867212,1744189105,338812845,piren,vessel_center,-480.0302352866283,-300.0391860195285,2.319179388859451,-0.029797078214043933,0.0005154525234429838,-0.00020116235173789945,0.9995558153361475,-0.001585759811359821,-0.06759921581410794,-0.03214093005023557,0.0009557060120483233,-0.0011023029474920153,-0.0004320643767229323,0
2025/04/09 10:58:25.415755602,1744189105,410164349,piren,vessel_center,-480.02998373283594,-299.98589435627866,2.340404249374774,0.028193929598815327,0.0004422234164525443,-0.00024857417793840327,0.9996023434261772,-0.0006692880418995625,0.06608081613344352,0.02227666356394955,-0.0008450831003444725,-0.0021374459885543503,-0.00041638554997217286,0
2025/04/09 10:58:25.549907912,1744189105,547134364,piren,vessel_center,-480.029965529374,-300.0410905847518,2.316847895283216,-0.02980847871103826,0.00037698583644324804,-0.00022671006909667717,0.9995555317645726,-0.000492763619877223,-0.07002895724817876,-0.0346069978836055,0.000826255767629428,-0.0026334193611915187,-0.0004672957899888867,0
2025/04/09 10:58:25.626829085,1744189105,621437676,piren,vessel_center,-480.0299885981672,-299.9879523525564,2.3386904460570888,0.02819792128101932,0.00031468929218597615,-0.000266281659027811,0.9996022745573145,-0.00042960521864188157,0.06433942931862388,0.021977219961879582,-0.0009687578513229833,-0.002501755390586282,-0.0003571412094836865,0
2025/04/09 10:58:25.765319907,1744189105,761980879,piren,vessel_center,-480.03017802491365,-300.04057986465375,2.3166065538955714,0.0016334626967255022,0.00030794322509515576,-0.0002752218419974091,0.9999985806107559,-0.000705424819989275,-0.07453678791944271,-0.03459738931689628,0.0005790748381216871,-0.0013083310235016612,-0.00034393007273898323,0
2025/04/09 10:58:25.908239337,1744189105,902048621,piren,vessel_center,-480.03025615456454,-300.04357834580793,2.3170773284577093,-0.029797890768612514,0.0003183490948526425,-0.0003420386049060096,0.9995558350433399,-0.0006525129050260144,-0.05726195778461347,-0.02243923727664622,0.0007309669852298261,0.0004451389289688017,-0.001444995473982395,0
2025/04/09 10:58:26.43988442,1744189106,40191818,piren,vessel_center,-480.03026989329607,-299.98890834090827,2.339689612613006,0.028201035502107837,0.00035813374349572544,-0.00034526799934036227,0.999602147920281,-0.0005359817285352616,0.07714822070365612,0.03287407772544746,-0.0009681398053585296,0.0014600863624701494,-0.0006216303400576558,0
2025/04/09 10:58:26.115532072,1744189106,111443768,piren,vessel_center,-480.0302708789039,-300.04231573552613,2.3172176550194927,-0.029806753399806245,0.00042551805144248477,-0.0002961013855345158,0.9995555455851969,-0.0004171211285211026,-0.05896905355562099,-0.02449252854255974,0.0008251471302834728,0.002090256356415504,-0.0002852762907582413,0
2025/04/09 10:58:26.254568010,1744189106,251487459,piren,vessel_center,-480.0300625921158,-299.987853630209,2.3396282179983454,0.028203596244948493,0.00046989149234494807,-0.0003130857341206939,0.9996020399829927,0.00014067600814087226,0.07552752065048393,0.030902885577040774,-0.0008505063518323618,0.002219663078063531,-0.0002647993696735594,0
2025/04/09 10:58:26.330877232,1744189106,321972035,piren,vessel_center,-480.02988455964254,-300.0413099026572,2.3170601275423826,-0.029806899410371807,0.0005149252367637288,-0.00029538940389740853,0.9995554993819206,0.0005044008876211594,-0.06043374827354542,-0.026273723442714496,0.0009445285413813032,0.001832766520482035,-0.0002559991618204343,0
2025/04/09 10:58:26.394867748,1744189106,392463193,piren,vessel_center,-480.02964500968517,-299.98466803474776,2.3404346845058974,0.0016030913382385809,0.000531617007168975,-0.000311359982110021,0.9999985252671528,0.0009897788695070633,0.07108864277060914,0.028126395194590682,0.0008205663741667464,0.001474052646012867,0.0,0
2025/04/09 10:58:26.465297831,1744189106,463072828,piren,vessel_center,-480.0294322219925,-299.9953725127754,2.3373666610310084,-0.0032202111025427947,0.000498711030944363,-0.0003142551673930366,0.9999946413713688,0.0012417557472872434,0.03125432646383982,0.014967870232365567,-0.0005920895670589863,0.0005704657725297143,-0.00026530681196091374,0
2025/04/09 10:58:26.604387233,1744189106,600254918,piren,vessel_center,-480.0293842741707,-299.99671906134915,2.3379228000289562,0.0016423387448046296,0.0005207947044684177,-0.00031678782875619747,0.9999984655697202,0.0010701648228859998,0.021260490488156425,0.012851065050910361,0.0008702635740915309,-0.0004386366339735966,0.0,0
2025/04/09 10:58:26.673741428,1744189106,671531544,piren,vessel_center,-480.02930203240436,-300.0064930730888,2.3347434791900943,-0.0032198596157294113,0.0004434564247988281,-0.0003265888642256749,0.9999946645808507,0.0010128985521077997,-0.005234429256189253,0.002901219694852554,-0.0005968308558036848,-0.0012716987629478864,-0.00024130593623208443,0
2025/04/09 10:58:26.812425518,1744189106,809283310,piren,vessel_center,-480.02937970610753,-300.0067487594871,2.335561289849684,0.028194184723182157,0.0003716077231729459,-0.0003629161124844119,0.999602330002982,0.000497295292325362,-0.0040303145308380065,0.0037364828263297028,-0.0008071519207426667,-0.0018817776163307142,-0.00011118793876581669,0
2025/04/09 10:58:26.949966992,1744189106,948009104,piren,vessel_center,-480.0296778950566,-300.0589725853856,2.3126947014741592,-0.029802527255774654,0.0003443609262226619,-0.0003298196361721494,0.9995556922971971,-0.00027869212940458913,-0.11921292581059875,-0.04794801122347778,0.0008728598604181257,-0.0017384590638348356,-0.00019654440406601003,0
2025/04/09 10:58:27.23288890,1744189107,19759537,piren,vessel_center,-480.02988736015254,-300.0026970959534,2.3352503396451234,0.028188739424676895,0.0003122948515583615,-0.00035890265879556045,0.9996025053142148,-0.0006817884129759472,0.032570794264437625,0.012925364770555413,-0.0009227944319531254,-0.0012019665721358667,-0.0001866333186660321,0
2025/04/09 10:58:27.162476888,1744189107,159190641,piren,vessel_center,-480.03019401460364,-300.0534336558836,2.313421528549977,0.0016396402393847329,0.00034374074296020696,-0.00036080993438475606,0.999998531618111,-0.0011486222668281691,-0.0904496483125067,-0.03966015339303681,0.0006097038529637691,6.05890936359126e-07,-0.00017806225201148548,0
2025/04/09 10:58:27.302900600,1744189107,299301707,piren,vessel_center,-480.03025719150395,-300.0508505663718,2.3156110608848026,-0.0034163957354411164,0.0003477259625234226,-0.0003927579633247759,0.9999940265161669,-0.001024758260155067,-0.06384065678703425,-0.02563569897420301,-0.0008152863331406995,0.0008264228218273269,-0.0009177519245210673,0
2025/04/09 10:58:27.373420949,1744189107,370272282,piren,vessel_center,-480.0303427091693,-300.0387474591334,2.321509197327404,0.0016455116044363654,0.0004009454016133229,-0.0004294627212609133,0.9999984735468929,-0.0009843835338415369,-0.022586408777852715,-0.006762741139018688,0.0005836621901171769,0.00135443000672905,-0.00029293385248558624,0
2025/04/09 10:58:27.512664086,1744189107,509860108,piren,vessel_center,-480.030324597536,-300.03736295111963,2.322739446435224,-0.02954945024940431,0.00045692520336101244,-0.0003754148428094273,0.9995631447152363,-0.0006072546399082052,-0.011779787839351206,-0.001714132849920988,0.0007549041486490723,0.00158799178621332,-2.3964785274558947e-05,0
2025/04/09 10:58:27.651722965,1744189107,647533121,piren,vessel_center,-480.030079858478,-299.9818806116532,2.3445195069177456,0.02819073212955157,0.0004695845057794124,-0.00038009787091765844,0.9996023797680758,6.0935213514313135e-05,0.11393808289776552,0.04704195791026933,-0.000917007948419727,0.001280377669949339,-4.243016595436046e-05,0
2025/04/09 10:58:27.744642866,1744189107,742076185,piren,vessel_center,-480.0299203697602,-300.03503549837563,2.321233306870795,-0.029451848172028342,5.9367641005650167e-05,-0.0003692647461142541,0.9995661302576645,0.0004017152856704347,-0.02988021358669446,-0.01531520941383839,0.001016118279291933,0.0010845147863591121,-4.982527931280828e-05,0
2025/04/09 10:58:27.816541668,1744189107,813813556,piren,vessel_center,-480.03041829794444,-299.98165872123076,2.3425870434808322,0.029013459984356664,0.00011152266261830907,-0.0003854631590093087,0.9995789404147053,-0.0007969815423621179,0.09559758747486649,0.03565303136193563,-0.0003849973430675662,0.0007347060155687432,-0.00017146175201001186,0
2025/04/09 10:58:27.955815011,1744189107,953263638,piren,vessel_center,-480.0307568800368,-300.0373758575262,2.3185928733559944,-0.028480075053655893,0.00010924863736808894,-0.0004013135275546586,0.9995942738617134,-0.0013706548532809388,-0.049697173863070015,-0.025679223592679816,0.0018178598624642552,0.0002273744682854507,-0.0003449078068702124,0
2025/04/09 10:58:28.28094528,1744189108,23748143,piren,vessel_center,-480.0309461313605,-299.9861245116055,2.3396629877791746,0.0015938715998136744,0.000150679650134877,-0.00043460177871933116,0.9999986239941835,-0.0014839672301604873,0.07535303167933216,0.026907220358181827,0.001627437759767502,-0.0003899428663019519,-0.0005037581997850911,0
2025/04/09 10:58:28.99757138,1744189108,97312846,piren,vessel_center,-480.0309911032549,-299.9987524086634,2.335924193575888,0.005986924629717683,8.145506617044096e-05,-0.00043505292839922654,0.9999819802513943,-0.0014186567055730842,0.038891011811255344,0.015599756811375156,0.002987657299312599,-0.0006547192882752576,0.0,0
2025/04/09 10:58:28.175481755,1744189108,170173257,piren,vessel_center,-480.03094107162275,-300.0143222748556,2.33050755981299,0.030044552705248716,0.0001082742038831849,-0.000484771940377541,0.9995484371082795,-0.0010022631552146772,-0.00420209797871484,0.0001633355294441679,0.0009668865168752181,-0.0009778848302792315,-0.0007811705517934229,0
2025/04/09 10:58:28.318769714,1744189108,312436828,piren,vessel_center,-480.0304522013665,-300.06720925967,2.307755478567091,0.0033615048188914663,9.761624204110621e-05,-0.0005478281117316981,0.9999941953035437,0.00042684493996603145,-0.1203489390170498,-0.05047628034367931,0.0026482544355799402,-0.0012127254387877958,-0.0004386891194227997,0
2025/04/09 10:58:28.460713364,1744189108,456530416,piren,vessel_center,-480.0290595072289,-300.0682546136226,2.308619864051422,0.010364139726328521,8.618201802037158e-05,-0.0005859010075737162,0.9999461154984314,0.0033835945776900193,-0.08320268166653566,-0.031999633683245245,0.0020406041444941485,-0.0007552979641564072,-0.001049447047418504,0
2025/04/09 10:58:28.602365318,1744189108,599205228,piren,vessel_center,-480.0270050644523,-300.0748158710008,2.3067977990364765,-0.0262062907381464,0.00013425712342157286,-0.0007770651231981502,0.9996562451515856,0.007191837063373896,-0.07914689804401949,-0.028880877670408645,0.0017244033287700012,-0.00025920223325076483,-0.004878616097981369,0
2025/04/09 10:58:28.674499911,1744189108,670711556,piren,vessel_center,-480.02422302104134,-300.01729853704137,2.3304726069772603,0.03572811489591665,0.00021202767822805374,-0.0009554351088079447,0.9993610678798733,0.011774702748198251,0.06675066184552543,0.030342304186818297,0.0004271597878992539,0.0001808785673561348,-0.0013792130835716258,0
2025/04/09 10:58:28.813086568,1744189108,810746619,piren,vessel_center,-480.0192292426253,-300.0723686588664,2.3060555220141787,-0.024580627003162388,0.00017862205565350174,-0.0007769750615615405,0.9996975328468339,0.018892488064739154,-0.07822601239986486,-0.03419007057468973,0.001075937828944957,0.0006557784154046889,-0.0007237790553906428,0
2025/04/09 10:58:28.953234313,1744189108,950554703,piren,vessel_center,-480.01372585269024,-300.01827914229966,2.328857524504396,0.007898685660708286,4.925849166366763e-05,-0.0007815889182080543,0.999968498232418,0.027188054754606127,0.0582925524673092,0.0236135097728181,0.00038864385449866745,0.0009460385533168717,-0.0015450892435008672,0
2025/04/09 10:58:29.25266430,1744189109,22461040,piren,vessel_center,-480.007172696163,-300.0299791621502,2.3252144085276663,-0.0033490849425539065,0.00017905984038314485,-0.0008551728519931041,0.9999940101055678,0.0353773556023043,0.01861795367330981,0.009978746296523235,-0.0007341597576807759,0.000941376204585021,-0.0013875502010668194,0
2025/04/09 10:58:29.167250211,1744189109,163332387,piren,vessel_center,-479.9968721327798,-300.0210844442174,2.3301784524618108,0.0017446986323172895,0.00021433183383555925,-0.0010110439864982645,0.9999979439371887,0.04707560195179212,0.03249447183557006,0.017853345426441868,-0.0023582497510502265,0.0006106862438395399,-0.0011591843145052818,0
2025/04/09 10:58:29.305894483,1744189109,303592566,piren,vessel_center,-479.98372208085885,-300.0228098096911,2.330618856518725,0.03432756533675762,0.0006454865543427708,-0.0010146985866001615,0.9994099118939822,0.060419388609489026,0.01769586647128474,0.012808377121360414,-0.0020114359757160204,-0.0005426282907074004,-0.0007752979452529736,0
2025/04/09 10:58:29.444733010,1744189109,442091416,piren,vessel_center,-479.9713631656234,-300.0800596454567,2.305176452260622,0.016964965979899722,0.000571634739797765,-0.0010094017131102929,0.9998554116827126,0.07416589108242987,-0.11356326777113368,-0.04664736291552521,-5.768042276816698e-05,-0.0014287176911163737,-0.0012456338788852978,0
2025/04/09 10:58:29.516390951,1744189109,513347548,piren,vessel_center,-479.9583964764742,-300.09713048801046,2.2987122726270615,-0.02458715150368504,0.0005950031325993467,-0.0010288447763339053,0.9996969838059097,0.0863537138423453,-0.1260374512972257,-0.050553497727316016,-0.00037465880250285837,-0.0019516231843261331,-0.001253238950328624,0
2025/04/09 10:58:29.656197400,1744189109,653153261,piren,vessel_center,-479.94468247617743,-300.0393859456382,2.3229486910736705,0.004672374772779012,0.0005080960369626866,-0.0010792690843842278,0.999988372897727,0.09747260514582193,0.030567432576389386,0.014650203657196395,-0.0008592691147025014,-0.0019864339971837437,-0.001174697776675288,0
2025/04/09 10:58:29.727933234,1744189109,724557524,piren,vessel_center,-479.930557829337,-300.0421639331711,2.323132815717597,0.00816553903230704,0.0006208468945679374,-0.0011159782764562582,0.9999658459737172,0.10662850672124476,0.017420583733473015,0.011717444631290954,-0.0005027992860782454,-0.0017046918562653713,-0.0010814762681292263,0
2025/04/09 10:58:29.866648668,1744189109,864376002,piren,vessel_center,-479.91048208681804,-300.0506329606175,2.320840036685374,0.004753756656257742,0.0003597239453990844,-0.0012441514699159319,0.9999878621680646,0.1173379602481418,-0.007004169636730673,0.00287157896990288,0.00032297251840317356,-0.0006348854587054432,-0.0009274516386850326,0
2025/04/09 10:58:30.34265760,1744189110,29940770,piren,vessel_center,-479.88822395370835,-300.0529027152532,2.321045449285421,-0.02665331342476366,0.0004918013567889605,-0.0012023464186087813,0.9996438932830013,0.12668158048550138,-0.009653635235873459,0.002346105030371684,0.0008626561281558525,0.0010157670591863007,-0.0005147748009357907,0
2025/04/09 10:58:30.104655931,1744189110,101799869,piren,vessel_center,-479.8783275165542,-300.0008543111665,2.3418540040043965,-0.023153931178038337,0.0005157137318546056,-0.001205106927620542,0.9997310524474282,0.13441681022654844,0.10711450458679703,0.048330567059698105,0.001979907441313957,0.0014476975857451908,0.0,0
2025/04/09 10:58:30.176931041,1744189110,175135772,piren,vessel_center,-479.8615715051326,-299.96623740990646,2.356071249976901,-0.0047265800488956065,0.0005096926976664358,-0.0012214135244246604,0.9999879538291437,0.14135819336215716,0.1599076753172076,0.06903489418740144,0.00035251610577989036,0.0020668873251804168,-0.0009387934902875562,0
2025/04/09 10:58:30.319466113,1744189110,315849521,piren,vessel_center,-479.83766336912777,-299.9676003536372,2.356270575374412,0.004571740379992972,0.0005677930745607522,-0.0012790977128589566,0.9999885702896626,0.14966347326876528,0.10616332614258592,0.047583318843990065,0.0006479572234128125,0.002062674585084986,-0.0004615017861962723,0
2025/04/09 10:58:30.458484537,1744189110,455935643,piren,vessel_center,-479.81122239750204,-299.98831506062197,2.348198494919953,0.0025643197773674007,0.0005939077984793368,-0.0012857713084406456,0.9999957091556687,0.15818256305851716,0.024183198191984973,0.01354295481030627,-0.00031744000666069207,0.0010557730309166068,-0.0007105540950789338,0
2025/04/09 10:58:30.598785128,1744189110,596480005,piren,vessel_center,-479.7913779871316,-300.00703252230323,2.3407372571949008,-0.0156752436096469,0.0006066755488683958,-0.0014006920166509652,0.9998759706805795,0.16576064190639953,-0.023001174328056533,-0.006167136561949518,1.3253276111526667e-05,6.692670449157593e-05,-0.003237887282095024,0
2025/04/09 10:58:30.672217154,1744189110,668111722,piren,vessel_center,-479.7715859072141,-299.9915342505498,2.347063049460851,0.0011239904692294043,0.0005777879634659166,-0.0014876302746119122,0.9999980948795155,0.17261190711406013,0.01660094969183685,0.009275189018950854,-0.0012427158551482176,-0.0009178878301220483,-0.0006294926861944962,0
2025/04/09 10:58:30.811855466,1744189110,808725594,piren,vessel_center,-479.74225189593466,-300.007305757321,2.3410339547297063,0.0034255556187653773,0.0004891936737452896,-0.0013479099945121317,0.9999931046746768,0.1795821083343071,-0.024071726768444004,-0.007261624309383222,-0.0007744710267829835,-0.0018868017362024402,-0.0002794864530996215,0
2025/04/09 10:58:30.954093554,1744189110,950572712,piren,vessel_center,-479.7127586676523,-300.0255345288745,2.333990425099417,0.0024310832940917728,0.000459193799883116,-0.0013473927393055983,0.9999960317460652,0.1884706158368317,-0.05704358572561521,-0.020646596646421413,-0.0009184392129393747,-0.0018543655695865548,-0.00046983086040945995,0
2025/04/09 10:58:31.93763435,1744189111,91406596,piren,vessel_center,-479.69030998482117,-300.03735768742985,2.329506874637863,-0.029749012145171852,0.00044112839156657495,-0.0014131864751181734,0.9995563038599252,0.19616072471876575,-0.07054750370407507,-0.025988158033524212,-0.0007957397630509792,-0.0012697932443144517,-0.0021789780747443165,0
2025/04/09 10:58:31.167333015,1744189111,164741838,piren,vessel_center,-479.66759253223387,-299.99147507781265,2.3473810751201984,1.7196430282899136e-06,0.00035333248230141916,-0.0014847029125990125,0.9999988354045525,0.2024819839178235,0.04735642672285305,0.019606264755963648,-0.0011353377423163535,-0.0003846818344845159,-0.0004544624432331198,0
2025/04/09 10:58:31.309135251,1744189111,306324646,piren,vessel_center,-479.6344385968851,-300.0035257426506,2.343035689986475,0.028731761761901606,0.0003853847016402276,-0.0014049096944435439,0.9995860961285123,0.2078365527552705,0.004520645148931204,0.003304737358361804,-0.0014980642474490763,0.0010047243825184703,-0.00022000024319692512,0
2025/04/09 10:58:31.456030443,1744189111,452202241,piren,vessel_center,-479.61123243969456,-300.062953232523,2.317094887523073,-0.025988568370937885,0.0004867050247132381,-0.00138438033162316,0.9996611630564355,0.2123679391358564,-0.1289912714533793,-0.05527718415218344,0.0008417359854993326,0.001650791833454886,-0.0003832985541082802,0
2025/04/09 10:58:31.527730391,1744189111,525289012,piren,vessel_center,-479.5873643024955,-300.01818568783216,2.3352288360551636,-0.01779145299811008,0.0004713638428160626,-0.0014093214661255063,0.9998406152129193,0.21719050211067947,-0.00020211924575139206,-0.0024213425449480658,0.0022790066223540824,0.0018815616282906792,-0.00039315782116315596,0
2025/04/09 10:58:31.668329177,1744189111,666272673,piren,vessel_center,-479.5524189820056,-299.99500802013927,2.345065226662902,-0.0007567370303362135,0.0005202677567762054,-0.0014341205954184295,0.9999985499832718,0.22211123748115819,0.05139446223220059,0.020258311350893343,-0.00027136879295523643,0.001460739187928384,-0.00038394628596262996,0
2025/04/09 10:58:31.809840095,1744189111,807814208,piren,vessel_center,-479.51756382502947,-300.0042337152625,2.3420366576350604,-0.0005915524266319381,0.0005696555216140303,-0.001447566715281692,0.9999986150535001,0.22859728279513541,0.014466452898613195,0.007053453850063186,-0.0003456930495892235,0.00029097778962154533,-0.0002003021836977567,0
2025/04/09 10:58:31.954587493,1744189111,950168824,piren,vessel_center,-479.4921055387588,-300.01434101877174,2.3385736027448414,0.00416092210714065,0.0004993876692351932,-0.0014481414438593475,0.9999901700644526,0.23397561128294905,-0.01123814920442871,-0.0022233650294668818,0.0007628191881732361,-0.0005683021278487869,-0.0003266809106379455,0
2025/04/09 10:58:32.29136559,1744189112,21940279,piren,vessel_center,-479.4665389337134,-300.0306199202237,2.3323943023039653,0.027017325264583916,0.00048504625661081516,-0.0014757868409671826,0.9996337583929811,0.23826501601338346,-0.04489507786902411,-0.015457774285589485,-0.002082690864389482,-0.001264876021329129,-0.0003106809598572988,0
2025/04/09 10:58:32.167997022,1744189112,164535743,piren,vessel_center,-479.428752570422,-300.0828633861518,2.3098614061014273,0.003141913397330664,0.00042135515809815034,-0.0014783522886510183,0.9999938826385615,0.2424430142978053,-0.1459727020633645,-0.06036130278300531,-9.622956946904171e-05,-0.0016792000101125218,-0.00030018454014193617,0
2025/04/09 10:58:32.310002167,1744189112,306938317,piren,vessel_center,-479.38994789539936,-300.087820335937,2.308734912639647,-0.005314087551186809,0.0004241690900359435,-0.001564516011107081,0.9999845663027667,0.2464185227822781,-0.11161089702936894,-0.04430874029436885,-0.0015901170472188083,-0.0012277455038218659,-0.0015149479675387793,0
2025/04/09 10:58:32.477794227,1744189112,474891008,piren,vessel_center,-479.34946989466243,-300.05097938066694,2.32529301935649,-0.002524092616702925,0.00038031958395478785,-0.001555834706957715,0.9999955318359383,0.25308141589493965,-0.0061560086056497085,0.0013298178529368779,-0.000335492797658727,-0.00021459726808643542,-0.0005644456410958125,0
2025/04/09 10:58:32.620080530,1744189112,616863584,piren,vessel_center,-479.3093281031988,-300.04385707314447,2.3288778195517446,0.005927344313777233,0.00046918534301061704,-0.0015281397240662247,0.9999811554441832,0.2568686461862853,0.01175085888821652,0.00884797645769887,-0.002358633001376427,0.000881534132647197,-0.00012502245032229773,0
2025/04/09 10:58:32.691877445,1744189112,689284228,piren,vessel_center,-479.2990926846795,-300.0433888378792,2.329230383959421,0.002425313974184348,0.0003892015725183304,-0.0015261694779348338,0.9999958185817515,0.2568686461862853,0.01175085888821652,0.00884797645769887,4.681621762329597e-05,0.0011485616123037099,0.0,0
2025/04/09 10:58:32.764493448,1744189112,762014896,piren,vessel_center,-479.2705629700796,-300.0458727208671,2.328368081242301,0.021094652059758766,0.00038719137566745125,-0.0015126445439717674,0.9997762637929548,0.2626105306841509,0.0035731893061884193,0.004935821965130395,-0.00021227211045937177,0.001523044148975738,-0.00022476461051601837,0
2025/04/09 10:58:32.907431296,1744189112,905451253,piren,vessel_center,-479.2277938064055,-300.07875702376026,2.31389736228243,-0.0057766922869720875,0.0005128639143565563,-0.0015173875335451423,0.9999820320045256,0.26690194199882167,-0.07074828107261144,-0.02893178572414384,8.745613017751525e-05,0.0014040668728716318,-0.00010060453885227465,0
2025/04/09 10:58:33.50680447,1744189113,47893497,piren,vessel_center,-479.19908885084504,-300.05991108726766,2.3218252373054504,-0.02536561345111156,0.0005244277560816319,-0.001509577304284312,0.999676963726853,0.2708733076053249,-0.013003733066853769,-0.0048265102279194776,0.0020668750314238476,0.0009074218366582503,-0.00017672962110143773,0
2025/04/09 10:58:33.123241173,1744189113,121060099,piren,vessel_center,-479.1702273699091,-300.01086783614016,2.3411756472956555,0.020046832095051367,0.0005022599116357633,-0.0015380555604606742,0.9997977328655167,0.27431093874665746,0.09891066694340134,0.03926203737264132,-0.000766992486424601,0.00020399214151049344,-0.00016614365851197355,0
2025/04/09 10:58:33.197024008,1744189113,194725650,piren,vessel_center,-479.15711070585485,-300.05227678120394,2.323495675715776,-0.03110181852309071,0.000542457993795924,-0.0015113119699080586,0.999514931634346,0.2779534123585108,-0.00258697317672249,-0.00379650201412033,0.0004190552557556511,-0.00017333401613217964,0.0,0
2025/04/09 10:58:33.270701655,1744189113,268439533,piren,vessel_center,-479.1273122512052,-299.9956482195159,2.3457863678502306,0.0031790411683719644,0.0005157676161695764,-0.001531807868023335,0.9999936406026148,0.2809170197433104,0.12385573602591557,0.04660743544384587,0.0010480324001578046,-0.0008609525408625799,-0.00016310819438230666,0
2025/04/09 10:58:33.414569115,1744189113,411750355,piren,vessel_center,-479.083786661177,-300.00566179804696,2.342381184579284,-0.025705577171879084,0.0004463101517981818,-0.0015244764192534955,0.9996682950264834,0.28291958113600224,0.05983215094461139,0.02332179799255137,0.0016368398243269192,-0.0014329697977759617,-7.050190923523586e-05,0
2025/04/09 10:58:33.557384609,1744189113,554226457,piren,vessel_center,-479.0537898806932,-299.9714328846034,2.35641048121931,0.026884315739776798,0.0003788560254673845,-0.0015505006559652901,0.9996372772076039,0.28397086864483745,0.12202961235548082,0.04909311712934013,-0.0018422036298421727,-0.0014004947728395722,-0.00011603909990123962,0
2025/04/09 10:58:33.630053278,1744189113,627346498,piren,vessel_center,-479.02499878202616,-300.0338710330517,2.330048665733793,0.017324019762572227,0.0003204495734293197,-0.0015530555762924365,0.9998486703845307,0.2843347981837723,-0.04446306995955729,-0.02065583909193755,-6.561148942129969e-05,-0.0010403225062431013,-0.00011897183900181035,0
2025/04/09 10:58:33.702168668,1744189113,699827043,piren,vessel_center,-479.01076409114,-300.03609699364733,2.329014569709155,0.0025953066011879383,0.0003430602532644512,-0.0015482666544829834,0.9999953747711412,0.2843347981837723,-0.04446306995955729,-0.02065583909193755,2.2217834417203712e-05,-0.000770339028443481,0.0,0
2025/04/09 10:58:33.775390220,1744189113,773211173,piren,vessel_center,-478.9832448791949,-300.0457329110111,2.3263613418663196,-0.030426193226025064,0.00041676820704220053,-0.001535276349150803,0.9995357502343606,0.2877238217078683,-0.05694244706915106,-0.022367681902235433,-0.00037210587678383766,-0.00012908772319043178,-0.00014241240563665699,0
2025/04/09 10:58:33.849711199,1744189113,845845298,piren,vessel_center,-478.96687479744423,-299.99527941745,2.346736016897415,0.02754302079923673,0.00034419027221568486,-0.0015569912560940975,0.9996193472099957,0.2915299414055879,0.06163835313786784,0.02544785926508062,-0.0021047000862073084,0.0002322069791566433,0.0,0
2025/04/09 10:58:33.923713364,1744189113,919785933,piren,vessel_center,-478.9357936439148,-300.05430979025465,2.321825378551803,0.031987428306252244,0.00031692079577256774,-0.0015579364829770162,0.999487006831743,0.2930650039134433,-0.0839236986989372,-0.03584828957876553,-0.0008089516864401179,0.0008836419465789066,-0.00011216377328743059,0
2025/04/09 10:58:34.65805190,1744189114,62794741,piren,vessel_center,-478.8905021041165,-300.1115535189279,2.2971340527543487,-0.023498935943597372,0.0004542881277480293,-0.001553352101420917,0.9997225518758016,0.29500164339683566,-0.18287737445362018,-0.07864892053925976,0.0009219469172509474,0.0014109121568102892,-0.00011539249739117589,0
2025/04/09 10:58:34.211875578,1744189114,208876114,piren,vessel_center,-478.8458693976049,-300.06425211758534,2.3172106908723396,0.025493698212964846,0.00044640218816833994,-0.0015764668863138063,0.9996736401589617,0.2997601636742273,-0.01861247510582964,-0.008597791684745018,-0.000885776513472051,0.0012225099579074637,-6.110619197473225e-05,0
2025/04/09 10:58:34.355700648,1744189114,352308414,piren,vessel_center,-478.7989307460317,-300.10082048835136,2.3020073721781475,-0.011009199042562937,0.0005207355987322302,-0.001562414081874781,0.9999380406970796,0.30374706337533997,-0.09365687672116202,-0.03950979902072218,0.0010518437505688198,0.0001910482741689624,-0.00012102363231068361,0
2025/04/09 10:58:34.497522790,1744189114,495037354,piren,vessel_center,-478.7667186485833,-300.06770963976385,2.317057315764235,-0.001105185494386529,0.00047113312152156103,-0.0016294510218315234,0.9999979507418865,0.3072707315046954,0.000927280593804411,0.002795897240220044,-0.0001518221158875056,-0.00042041751344713504,-0.0012367390866286226,0
2025/04/09 10:58:34.571095658,1744189114,568399296,piren,vessel_center,-478.7347475347001,-300.0572386431903,2.3226698587904866,-0.0011050722852147695,0.0004558205612327358,-0.001646877174641311,0.9999979294170724,0.30940727265742674,0.02399364118027641,0.014643979211997489,-6.885773719212738e-05,-0.0009485695117094858,-0.00010135469461750428,0
2025/04/09 10:58:34.713751880,1744189114,711142989,piren,vessel_center,-478.6869818570291,-300.04853368763435,2.327510253813715,-0.027212698056501297,0.0004320968604952068,-0.0015667422526395296,0.9996283447739479,0.31075031040800233,0.03521281975695181,0.020441210998092967,0.001584351546989727,-0.0013315032950216414,-3.942045458708732e-05,0
2025/04/09 10:58:34.817361765,1744189114,814564551,piren,vessel_center,-478.6549173582855,-299.9989228049488,2.347580059437932,0.0026537414522343336,0.0003486857267099796,-0.0015802997931643038,0.9999951693518987,0.31219846940562085,0.1375636031262265,0.06045457732578016,0.0008014855284181891,-0.0011877569972618255,-6.457987010800101e-05,0
2025/04/09 10:58:34.960793495,1744189114,958032976,piren,vessel_center,-478.6230348912681,-300.0113105593848,2.3432845435030862,-0.027812304773747906,0.0003895250011194525,-0.001571755661730403,0.999611851449144,0.3129775761590735,0.07915173460810271,0.037337076675829986,0.0011013090816641095,-0.0007253313880073185,-6.197857476531486e-05,0
2025/04/09 10:58:35.38292391,1744189115,32810574,piren,vessel_center,-478.59237179665,-299.97188705584455,2.358944817399761,0.030482391797837717,0.0002982566437001657,-0.0015944314830899987,0.9995339877270324,0.3163151194050442,0.15038228622911354,0.06441124732760181,-0.0007226065054911185,-0.00011765903758457801,-6.705586248976415e-05,0
2025/04/09 10:58:35.109854631,1744189115,107113716,piren,vessel_center,-478.5596015568042,-300.03933555267525,2.3297355770835404,-0.026896688552313384,0.00039220395666889025,-0.0015792946025281695,0.9996368941518389,0.3182865153069997,-0.03320955312838214,-0.014935228991820093,0.0010201975641239678,0.0004964141036141815,-6.165340524631354e-05,0
2025/04/09 10:58:35.255164936,1744189115,252160779,piren,vessel_center,-478.51022974847825,-299.9993025114555,2.3460453531726873,-0.02571431335379108,0.00038973526417097204,-0.0015870443912781686,0.9996679966295146,0.3211664355288576,0.06691719050968367,0.02632900978704926,0.00030434355555872445,0.0011598062103225651,-6.377652608905529e-05,0
2025/04/09 10:58:35.402229901,1744189115,396810775,piren,vessel_center,-478.47683158494584,-299.9681891537876,2.3588635053217533,-0.026961275184385885,0.0004592259974097341,-0.0015972577077862681,0.999635097182832,0.32306180666687395,0.12117385445421769,0.048961942890862614,0.00025797971029643726,0.0012685523495084856,-0.00036288239058201115,0
2025/04/09 10:58:35.476072984,1744189115,473647059,piren,vessel_center,-478.4431849593478,-299.9424819714723,2.3693305528941093,-0.028297223094034832,0.0004487666338809041,-0.001609084153382486,0.9995981575722627,0.32537538705728364,0.1511354353988727,0.0612455330157819,0.000495989672287468,0.0010909893321846159,-6.817288938665793e-05,0
2025/04/09 10:58:35.618560755,1744189115,616555840,piren,vessel_center,-478.3928672857501,-299.91684081969265,2.3796302118791757,0.0020080377499389246,0.00045948290264690014,-0.0016024656727465394,0.9999965943760132,0.3275019061070452,0.15716557702949013,0.063486782928726,0.00025704430018063203,0.0003888678588847143,-3.0420382585598805e-05,0
2025/04/09 10:58:35.764783219,1744189115,760747621,piren,vessel_center,-478.3442815903629,-299.9521334762291,2.3661812082310045,0.003890301687300572,0.000475152889078647,-0.0016001715682930852,0.9999910395765883,0.3314132508059629,0.028543695188726848,0.01332797077111652,0.00104363136696197,-0.0005551591030343799,-4.871126564833844e-05,0
2025/04/09 10:58:35.908358281,1744189115,906344967,piren,vessel_center,-478.2921358391858,-299.98972778857825,2.3517124756598355,-0.023820609435713295,0.00012084112188915691,-0.001603289022093309,0.9997149560889075,0.33410093495012916,-0.06475921130759248,-0.0233812083061017,0.0016372847985013737,-0.0011736092766352348,-0.00019120820963949072,0
2025/04/09 10:58:36.56113026,1744189116,53461091,piren,vessel_center,-478.2412058088242,-299.9762440618965,2.3574036695145737,-0.02828039682490468,0.0004423599744599752,-0.00157437089023552,0.9995986918905901,0.3353040837384924,-0.01308187960407936,-0.0028941612580200386,0.0012561808819615955,-0.0010826329756486557,7.855416207127428e-05,0
2025/04/09 10:58:36.201923212,1744189116,199896004,piren,vessel_center,-478.2064562074328,-299.95479559986626,2.365826464754789,0.022465105577267358,0.0003270305067279028,-0.001592524998945836,0.9997463057929135,0.3373753472564204,0.03768768581612589,0.0165385011632524,-0.0008762420126877503,-0.0007620980812162235,0.00015209947740002283,0
2025/04/09 10:58:36.275971283,1744189116,273748381,piren,vessel_center,-478.1719108652142,-300.02307006215506,2.3374175332861515,-0.019928703224252716,0.000425727309680626,-0.0015671876299818335,0.9998000847504415,0.3384869391675238,-0.1226803127025059,-0.05038280342005086,0.0017012563732935041,-0.0003414447687322416,8.293174013274232e-05,0
2025/04/09 10:58:36.420551622,1744189116,418300227,piren,vessel_center,-478.11952349884234,-300.01023825870465,2.3431732611230673,-0.031382633494954106,0.0004615025324043655,-0.0015645090662865105,0.9995061128586036,0.34073095002077025,-0.05277591081221632,-0.0205942568813561,0.00013019025959933636,0.00043596057611850034,4.020043575017018e-05,0
2025/04/09 10:58:36.565202141,1744189116,562990362,piren,vessel_center,-478.0670895315188,-299.9756397041872,2.3567805311853083,0.018175566506081955,0.0003458585476780569,-0.0015806747977619134,0.9998335014547332,0.34317783947535646,0.04200721904762671,0.01662864748102039,-0.0015641634154315257,0.0009633437601172111,7.022404370791202e-05,0
2025/04/09 10:58:36.710525057,1744189116,708387928,piren,vessel_center,-478.016004853551,-300.0279577819791,2.3353575606080414,0.004035451776526673,0.00042823957672650056,-0.001571206167741057,0.999990531480675,0.3472711722310578,-0.08766273032815748,-0.036285518934316405,-0.00020191464785419933,0.0009650721852818134,3.878432732045732e-05,0
2025/04/09 10:58:36.856176191,1744189116,853375549,piren,vessel_center,-477.9618332403844,-300.05023462657533,2.3270682712140722,0.028915931185519297,0.00041528733302311497,-0.001580440022956944,0.9995805113493557,0.3512909337496694,-0.10779565234697744,-0.04254853687362959,-0.0006791816412301585,0.0005022984004269016,6.483653301019823e-05,0
2025/04/09 10:58:37.1807404,1744189116,999341364,piren,vessel_center,-477.92510453762856,-300.1041290519522,2.303697406993263,-0.0059240264265708,0.0005088230307205875,-0.0015556914454450536,0.9999811132387187,0.3537723446325799,-0.20337693316696545,-0.08494287872893863,0.0004908080258545561,1.7959841655125526e-06,0.00029265824325225395,0
2025/04/09 10:58:37.75943433,1744189117,73809760,piren,vessel_center,-477.88840069049536,-300.0870694258722,2.311770220983425,0.018193316001867632,0.0003956472419948102,-0.001557522818641052,0.9998331965076903,0.35601293089780484,-0.11957126991606033,-0.04782722411107613,-0.0001202496555270789,-0.0004509976754508949,7.933128980086235e-05,0
2025/04/09 10:58:37.152009124,1744189117,149183087,piren,vessel_center,-477.86961119665176,-300.10720801362805,2.303440535001528,-0.01856212671600508,0.00045277724362928706,-0.0015413254961626245,0.9998264183148301,0.357193912952107,-0.15070130708836674,-0.06088892504949782,0.0008082625762588958,-0.0006329141030891816,0.0,0
2025/04/09 10:58:37.227569149,1744189117,225385285,piren,vessel_center,-477.8323805115529,-300.0646104929333,2.321431856021957,0.012104887140601855,0.0004715300989721921,-0.0015699493616850573,0.9999253895294793,0.3580688323620962,-0.021487515468471413,-0.006947454552365354,-0.0010274528748038195,-0.0009059513025597776,7.000274560374098e-05,0
2025/04/09 10:58:37.332233636,1744189117,326143531,piren,vessel_center,-477.7970388060185,-300.0804375669841,2.315348787796948,-0.0008441861491719921,0.0004309812326184954,-0.0015565328584131182,0.9999983394038129,0.36005018546325124,-0.05207804025599305,-0.018985250395398903,-0.00030228527618416897,-0.0009999093493527937,0.0001237122244598555,0
2025/04/09 10:58:37.417835233,1744189117,411646226,piren,vessel_center,-477.7609840057614,-300.0710142939159,2.3200342934800937,0.003671090001303149,0.00037589807165785955,-0.001558577586094297,0.9999919762851851,0.3624679160108372,-0.019893652555175306,-0.004473660265664774,0.0009305220763879307,-0.0008160760103782707,0.0,0
2025/04/09 10:58:37.566392404,1744189117,562990703,piren,vessel_center,-477.70511563364926,-300.0714121823352,2.320583228763778,0.002683705829934541,0.00036726127708863407,-0.0015336197895946917,0.9999951554145219,0.3632878583260209,-0.013999562692880302,-0.0017272754112045144,0.0004777109218105147,-0.00022416598000937613,0.00029312793411015854,0
2025/04/09 10:58:37.712651722,1744189117,710427623,piren,vessel_center,-477.64948770789044,-300.06947720028467,2.321908849331713,-0.001301831237928408,0.0003789433884233632,-0.0015190238251110962,0.9999979270998292,0.36392170010622077,-0.004959310267441636,0.0018036811100419943,-0.0010814044604707188,0.0005132820424778773,0.00010033057108126829,0
2025/04/09 10:58:37.859875340,1744189117,857421398,piren,vessel_center,-477.59620626541823,-300.0606222437705,2.3258865478748314,-0.002136473923971221,0.00040034772839858733,-0.0015193382290366693,0.999996483399924,0.3664109169594668,0.01636054275172593,0.010092764385932613,-0.001520006118934337,0.0009576027074487718,0.00020999750330672983,0
2025/04/09 10:58:38.8651923,1744189118,6473234,piren,vessel_center,-477.5399095021554,-300.0513988950826,2.329842007183542,0.0008330223454209556,0.00040031604838737,-0.0015066073761668072,0.9999984379763038,0.367627057133359,0.031326945885256474,0.01547082479223761,-0.0008115610624001593,0.0009087557458453775,0.00010401743944382,0
2025/04/09 10:58:38.156098378,1744189118,153941543,piren,vessel_center,-477.5027361247088,-300.05001949352675,2.3303112558689816,-0.0037297126036657047,0.0004613124817355,-0.0015057036352808893,0.9999918046120433,0.3678607833139723,0.027372329174112576,0.013046726401407655,-0.0018941800904115772,0.0006173053782724388,0.00019151388225031166,0
2025/04/09 10:58:38.233358128,1744189118,229505410,piren,vessel_center,-477.46558420973236,-300.0417040126683,2.3336486803358074,-0.030419750147903886,0.000499434489114679,-0.001484819073665274,0.9995359846841178,0.3666568706175441,0.039621786123506364,0.017493667382615714,-0.0004971828303406603,0.00020094462387323657,0.0001855001175222524,0
2025/04/09 10:58:38.310251541,1744189118,307709542,piren,vessel_center,-477.4284220244763,-300.03768818131726,2.335421735636764,0.024770750754708297,0.00041811044860677566,-0.0015108355780536343,0.99969192877934,0.3666568706175441,0.039621786123506364,0.017493667382615714,-0.0020096659589241184,-0.00027510882701185785,0.0,0
2025/04/09 10:58:38.460537788,1744189118,457305092,piren,vessel_center,-477.37896804780684,-300.1150584779678,2.3007296463396,-0.001821641030462059,0.0004574597571464406,-0.0014747094344434845,0.9999971487892407,0.36246932979365754,-0.12404063847789164,-0.05580057519515932,0.0005457667360869599,-0.000816552889671052,0.0003823990505778502,0
2025/04/09 10:58:38.605540593,1744189118,603307457,piren,vessel_center,-477.32544920708875,-300.1008626186539,2.3070839917375103,-0.0184984118333038,0.00039487824856971953,-0.0014193528474427304,0.9998278043084763,0.35837178194387903,-0.05037105544311178,-0.022730390700972616,0.0015167736971707598,-0.0009200184925697336,0.000849582108993461,0
2025/04/09 10:58:38.754734616,1744189118,749905805,piren,vessel_center,-477.29156085951735,-300.0548338430419,2.3262718069945514,-0.020439418389443638,0.0004980398540662064,-0.0014306007456762284,0.9997899456954503,0.3532286247005233,0.06323614818947955,0.02501750381862003,0.0013194464033072612,-0.0008272128058133864,0.00033356221672599916,0
2025/04/09 10:58:38.833134415,1744189118,828097140,piren,vessel_center,-477.25827734662244,-300.01482701367047,2.342875465086526,-0.020519657331895914,0.0004882593494820472,-0.0014640567551282592,0.9997882584845689,0.3478376401571497,0.1379415151140156,0.056297401252140916,0.0007475428671255417,-0.0005482734354483658,-3.875814258612333e-06,0
2025/04/09 10:58:38.907628479,1744189118,903522810,piren,vessel_center,-477.24311432792587,-299.98887167406116,2.3537043681284286,0.027082131833496947,0.0003529935808711928,-0.0014843288559563416,0.9996320474548285,0.34273751758360066,0.18033656744651033,0.07412526040490881,0.0006110233954296408,-0.00033647713668169906,0.0,0
2025/04/09 10:58:38.981580992,1744189118,979169943,piren,vessel_center,-477.2113827480036,-300.0445025944175,2.3297701757833957,0.010376956705847427,0.000341009027009191,-0.0014961785624608291,0.9999449804524636,0.3364618714254904,0.015875111977947193,0.004146122873789154,-4.113516917812091e-05,9.033610604127573e-05,-4.901616825509875e-05,0
2025/04/09 10:58:39.56962570,1744189119,53952641,piren,vessel_center,-477.1963631363992,-300.06376869729917,2.3225242836729896,-0.004808620793948748,0.00036885082279361774,-0.001490876704127378,0.9999872591197269,0.33173837392714645,-0.028741767638849523,-0.012427460053912681,0.00014763397971498399,0.00030106129005081316,0.0,0
2025/04/09 10:58:39.134581028,1744189119,131548670,piren,vessel_center,-477.16440000080723,-300.0531077764982,2.3277262900562627,-0.00646580615089915,0.0003280252667160729,-0.001466433908967147,0.9999779674181997,0.3262570197346578,0.0015831547395910063,0.0020012053934817687,-0.0007473447316026249,0.00032314612994516353,0.00024959084290045744,0
2025/04/09 10:58:39.209776563,1744189119,207244265,piren,vessel_center,-477.135625945693,-300.04141354606475,2.3331324496876102,0.030932350669224822,0.0002862067705923174,-0.0014743977841603047,0.9995203519283311,0.32266142300422884,0.02724539630771596,0.013601889529631421,0.00031837250327157283,0.0012794995167400445,0.0,0
2025/04/09 10:58:39.356825550,1744189119,354817296,piren,vessel_center,-477.08922856274313,-300.0932965497672,2.3100154952831784,0.02312413208371626,0.00041030612108676923,-0.0014122376456174855,0.9997315198337473,0.31723448704096896,-0.09722621365999748,-0.042349554741287244,-0.002316943942476484,0.0012425830863452406,0.0006756440130182416,0
2025/04/09 10:58:39.506141355,1744189119,503431760,piren,vessel_center,-477.0596424460778,-300.1224405290511,2.297404354609194,0.026444716983695212,0.00043784388139732865,-0.001437088446797093,0.9996491484581898,0.3116650178752026,-0.14031355852116667,-0.06093152698667544,-0.0015082164908128055,0.0008153196104730002,0.0005075547644646408,0
2025/04/09 10:58:39.584006087,1744189119,580564127,piren,vessel_center,-477.0305073135561,-300.14939654796933,2.28548500502984,-0.004264508135725527,0.0005560842688042456,-0.0014133281383245666,0.9999897535696153,0.30660501333691187,-0.168803403634548,-0.07377826386356318,-0.0010883318349957727,0.00016992826043751066,8.668853764452266e-05,0
2025/04/09 10:58:39.660095671,1744189119,657863427,piren,vessel_center,-477.00166568308805,-300.11756815599665,2.2996987082273455,-0.002703300436756739,0.0005871333590711089,-0.0014139586115002717,0.9999951740694614,0.3018312708404211,-0.0601323563204469,-0.025609233885228302,-0.0003838357124408297,-0.000534155191818956,0.0,0
2025/04/09 10:58:39.761802303,1744189119,758939451,piren,vessel_center,-476.97363181577975,-300.09289622930163,2.3108369754817195,-0.03475053536146161,0.0007208377924821577,-0.001494569860000277,0.9993946402427334,0.2964905193216056,0.008189762499522635,0.004890423524821302,3.23141794955805e-05,-0.0011731255139362507,-0.0012636408992172832,0
2025/04/09 10:58:39.911366161,1744189119,909201422,piren,vessel_center,-476.9333483835751,-300.0181582149175,2.3405355609848995,0.023851463308658227,0.00043972724949574524,-0.0015969768388502446,0.9997141411438362,0.29152792045642867,0.17168117495507337,0.06933546852533368,-0.0007960913655940568,-0.0014910282582806657,-0.00036633453508308337,0
2025/04/09 10:58:40.61269057,1744189120,57538127,piren,vessel_center,-476.8937487041421,-300.0534364112425,2.325737975571077,-0.013320175248119284,0.0029101504462056014,-0.0015116094950778309,0.9999059050693092,0.2819056222279415,0.03577976388619297,0.013227553577571244,8.862627905628969e-05,-0.0015356593855699056,-0.00043986110879262616,0
2025/04/09 10:58:40.213028117,1744189120,210122837,piren,vessel_center,-476.8515458827725,-300.02725070705446,2.337608109130172,-0.004308936853735199,0.000111411355915539,-0.00139935790002717,0.9999897311713595,0.27979382941166486,0.08180362569769292,0.0351082003413002,0.001027889864120688,-0.0015086822056716283,0.000940442312166392,0
2025/04/09 10:58:40.362714753,1744189120,359794705,piren,vessel_center,-476.8180312871364,-300.02140361515336,2.3411604061503106,-0.03625851238897822,0.0001488908798592672,-0.0011810499583728973,0.9993417349594883,0.2630002413503008,0.06811065172569121,0.03154940760844099,0.001152623170592859,0.002142840011864536,0.002469216534320413,0
2025/04/09 10:58:40.512231388,1744189120,509889925,piren,vessel_center,-476.78467278808597,-299.96371446654643,2.3634976539267774,-0.0069612386410975394,0.0003600478964989498,-0.0011230045197127786,0.9999750748808406,0.24662434045262682,0.17288472419909245,0.07033621049934852,4.07091481148631e-05,0.0026143150248794343,0.0006770179458997794,0
2025/04/09 10:58:40.660866512,1744189120,658463198,piren,vessel_center,-476.7538158632086,-299.96637479133375,2.363033602628492,0.026696218969772027,0.001370083106486571,-0.0011403936871865385,0.9996420030527117,0.2324808643740654,0.10883297481013776,0.04565540234217352,6.994266926407488e-05,0.0021762777034784356,0.001632826416428578,0
2025/04/09 10:58:40.813483711,1744189120,811348052,piren,vessel_center,-476.72326519646373,-300.03025276691403,2.3355245163394702,-0.03764520313700586,0.0015504672497623424,-0.0008558148483235603,0.9992895988215961,0.22440707155888062,-0.06880022494433524,-0.03044564714128084,-0.0005986148463635859,-0.0006932650537018219,0.0015132080692503171,0
2025/04/09 10:58:40.964332058,1744189120,962031471,piren,vessel_center,-476.6922655804125,-299.9798139170942,2.354585032872155,-0.008764476438345525,-0.0008156308566768958,-0.0006858913555565907,0.9999610233664689,0.21715528710101367,0.06665292919542387,0.022250129658317602,-0.0019453770515188882,-0.0010880225798046345,0.0036578450486053743,0
2025/04/09 10:58:41.119816690,1744189121,113765880,piren,vessel_center,-476.66722371224256,-299.9836380231997,2.353918573737825,-0.034124901783842296,-0.0005458144077532915,-0.0005270433058308387,0.9994172879184297,0.19953384931873203,0.03565894258294882,0.013259842820119955,1.5045399731431367e-05,0.00040124021231866837,0.0013896817952538333,0
2025/04/09 10:58:41.264757245,1744189121,261943582,piren,vessel_center,-476.6436695913008,-299.94599971356735,2.3685069493318296,-0.010150507762252892,0.0013838546279581888,-0.0005248500125821994,0.9999473869514344,0.18840704944536824,0.1079722682567526,0.04146662631029949,0.00012441412842162136,-0.0007949887816197228,0.0011639822444720125,0
2025/04/09 10:58:41.413688404,1744189121,410603960,piren,vessel_center,-476.6162546335686,-299.9557582974546,2.3656198445786347,-0.03355772827532009,0.0003090009382597228,-0.0004577282411072391,0.999436628244271,0.18582305187396755,0.04988603239116764,0.021071486739618533,0.0012358871553830378,-0.0011718713841995993,0.001423019906590752,0
2025/04/09 10:58:41.563624318,1744189121,560278373,piren,vessel_center,-476.59210236189836,-299.92783803046166,2.376500509956689,-0.004973571336700465,0.001173377130794037,-0.0003442756641416664,0.9999868840382532,0.1766966065622911,0.0950808921642865,0.03813298757771521,0.0007266158889177911,-0.0019547996230723083,0.002324090436292699,0
2025/04/09 10:58:41.712288705,1744189121,709893014,piren,vessel_center,-476.56807483703017,-299.95435155655565,2.366913561790497,-0.028689087455838497,7.725084257604173e-05,0.0007218303319827678,0.9995881198044675,0.17050620620630083,0.004079743635019423,0.00396233798907461,0.00319121306005253,-0.000488240979909972,0.015502173473310952,0
2025/04/09 10:58:41.861954381,1744189121,859254033,piren,vessel_center,-476.5470324494257,-299.93967125002956,2.3727564454771435,-0.019294395126455918,-0.00014366341999782264,0.0008493077536138607,0.9998134747811042,0.16016982278956687,0.03534172598965504,0.015621645698249592,0.0020332520882496053,0.0011570284991427279,0.00801402802181078,0
2025/04/09 10:58:42.14543945,1744189122,12370086,piren,vessel_center,-476.5280841173951,-299.9429293490434,2.3717560858435514,-0.0042135081085519195,-0.0007114095108034715,0.0006133624163566847,0.9999906819728239,0.14979281592914062,0.01651886261406524,0.008279009188772064,0.00035571568098834557,0.003438857831460866,0.0021885997710605473,0
2025/04/09 10:58:42.166756797,1744189122,162830225,piren,vessel_center,-476.5100693630037,-299.97171422484246,2.360473574464623,0.02282427181162314,0.00037821651689502934,0.00039337366969474527,0.9997393434419252,0.13961881045388522,-0.053126661125407745,-0.01962498358380627,-0.0016669010923897705,0.001972617367072939,0.002841770324579911,0
2025/04/09 10:58:42.344950413,1744189122,337257002,piren,vessel_center,-476.49170156789916,-300.0413896363296,2.3308028727359393,0.02811298895919787,0.000457134233870354,0.000635437567668306,0.9996044453178318,0.1356977835725958,-0.19095410300242383,-0.07927861037884147,-0.0005557797390901049,0.0008456152205759198,0.002151717947541583,0
2025/04/09 10:58:42.417905143,1744189122,415105748,piren,vessel_center,-476.4790922372391,-300.1021639145282,2.304282599837953,0.015066432267878186,-0.0006610050604845436,0.0006702002732059114,0.999886051769211,0.1329297391526326,-0.28269156873657353,-0.12022908564732253,-0.001034800696555351,0.00043665386027910073,0.0030693593599568376,0
2025/04/09 10:58:42.567092348,1744189122,564464916,piren,vessel_center,-476.46254674619,-300.13437039985746,2.2909932633808845,0.026612329493017155,-0.002039957029850877,0.0009168429103498871,0.9996433273389811,0.1251873087355763,-0.25960382238331564,-0.10950272232657374,-0.0009766224065134086,0.000191265557028057,0.0011406297621826015,0
2025/04/09 10:58:42.717180342,1744189122,713049875,piren,vessel_center,-476.4484948790208,-300.1722686801553,2.274440769354504,0.024835071066978496,0.0008434468980345932,0.0004352397047776004,0.9996911114983607,0.11382665447745254,-0.25551084164158144,-0.1090358293195588,-0.0010304960521108856,-9.164956360928078e-05,-0.0010090610884892575,0
2025/04/09 10:58:42.865897297,1744189122,863075299,piren,vessel_center,-476.4306163493131,-300.19332430260255,2.26545162195884,-0.029171896553925075,0.0007621581820933856,0.0001576936161210144,0.9995741066569682,0.11536690899556575,-0.21653037484779905,-0.09241020765537575,0.002074809729816667,-0.0029834225833070623,-0.00295613449040914,0
2025/04/09 10:58:43.18540427,1744189123,14550941,piren,vessel_center,-476.41366912852146,-300.11325676202176,2.2987499541688963,-0.02644911028923504,0.0006671568518801775,-0.00011389062029403784,0.9996499319739733,0.11413075944660718,0.03445799149148934,0.012766197751687344,0.0018931269406818087,-0.004385150460670564,-0.0020268485640091787,0
2025/04/09 10:58:43.175945990,1744189123,168087057,piren,vessel_center,-476.39840998496993,-300.0432688618487,2.328570348043646,-0.03549228634427329,0.0006366851426530923,-0.00043662046838661354,0.9993696521331094,0.11113527073089258,0.17886860942039584,0.07491609407750922,0.00033523231408313025,-0.003710912893648221,-0.0032916894485890674,0
2025/04/09 10:58:43.321369834,1744189123,318711967,piren,vessel_center,-476.38356319685573,-299.9692826297225,2.35914555053406,-0.004441010888262626,0.00040600145215575714,-0.0005731115921626526,0.9999898920130214,0.10663312959563895,0.2829523374342434,0.11759259788427955,-0.0002910588722642422,-0.0010494781420981108,-0.0023264407508653915,0
2025/04/09 10:58:43.471597163,1744189123,469323260,piren,vessel_center,-476.370111784923,-299.9651091959095,2.363057696485413,0.02634958682030816,-0.0002726830705541634,-0.0007196830083867419,0.9996524931068344,0.10081925453582712,0.19728150964283397,0.08684161837368984,-0.0011753888959089985,0.0001329404988787891,-0.001982895075693565,0
2025/04/09 10:58:43.622454161,1744189123,619500426,piren,vessel_center,-476.35893613703223,-300.02244038821345,2.339459744088744,0.0009597063902667127,0.0010471481893729018,-0.0005652787596260241,0.9999988314514362,0.09359624756079951,0.007094607001316977,0.006765757071109574,0.0005891413368698036,0.0028759177177021854,-0.0005000875184567638,0
2025/04/09 10:58:43.773299631,1744189123,770133704,piren,vessel_center,-476.34473867869565,-300.0341094422344,2.3360408842795284,-0.007189890093501717,-0.0006278132352224168,-5.771001224787112e-06,0.9999739553096775,0.09331586265016098,-0.021255022564492684,-0.0031345871162005642,-0.001993475984074942,-0.0019284809134701476,0.002863473357834544,0
2025/04/09 10:58:43.923606205,1744189123,920328939,piren,vessel_center,-476.3335905803747,-300.03015623755743,2.338520060575015,0.0010498132143221335,-0.0010298424991818564,0.0005913313579212328,0.9999987438211446,0.08649389649544914,-0.00527207745099164,0.0034366281419981838,0.00036465034296621007,0.0027392389912741133,0.004563471655128086,0
2025/04/09 10:58:44.75760566,1744189124,70926395,piren,vessel_center,-476.32298779716115,-300.03876177264834,2.33504527537507,0.013368767558464298,-0.00035722467589941105,0.0011817302448196621,0.999909871917528,0.08102873748780452,-0.022628568951268753,-0.005439587295492658,-0.00074636078360452,0.007204080108105297,0.004546666230742613,0
2025/04/09 10:58:44.152339137,1744189124,149234941,piren,vessel_center,-476.31934345750875,-300.06447064901135,2.3233988871934406,-0.0024449112082412508,0.000520956817758907,0.0011774081072873283,0.9999961823543762,0.08144294568924138,-0.07762349534114124,-0.0308092346745247,0.00024102767930924936,0.0068817145047484025,0.0,0
2025/04/09 10:58:44.232281512,1744189124,228137857,piren,vessel_center,-476.3096975583808,-300.05815551522414,2.325482795237473,-0.030637220949393893,0.0006070141517756694,0.0007952861815720964,0.9995300694557453,0.08454077043156771,-0.04610846526588917,-0.019239960262986515,0.0017046993652850844,0.00513110784508523,0.004228429024120505,0
2025/04/09 10:58:44.310535510,1744189124,308090479,piren,vessel_center,-476.3007454410604,-300.00359683143165,2.3457865196852326,0.009372181639365018,0.0006908146130516476,0.0010302393348837848,0.9999553107981386,0.08549044676601639,0.08548170952922103,0.03019698377267347,0.000576855709283857,0.002238015255750012,0.004111486806324628,0
2025/04/09 10:58:44.463573414,1744189124,460164297,piren,vessel_center,-476.2877638791504,-300.024871173266,2.3363376912824294,0.02147724947474234,0.003210949382270797,0.001167887387051401,0.9997634988326566,0.08546892248705276,0.00912994543168591,-0.0010833037341242066,5.0191615853641244e-05,-0.0032919190974615244,0.003739913550820537,0
2025/04/09 10:58:44.618110891,1744189124,611910430,piren,vessel_center,-476.2712990605541,-300.0666210973973,2.3180860294334567,-0.0008865640439967525,0.00020480801016448867,0.001511278081249436,0.9999984440470077,0.09323324671490824,-0.08673916255170384,-0.041282373851522454,0.000658088611058471,-0.006786160471520886,0.002753429560842917,0
2025/04/09 10:58:44.792272825,1744189124,789203175,piren,vessel_center,-476.2605131312977,-300.06619032505347,2.319012204325704,-0.004565054441059485,0.00015102910341093043,0.0018797008244446575,0.99998780202209,0.08596286500173861,-0.056715187164810194,-0.025390045874756514,-0.0002513845586335493,-0.005671662268210865,0.003498005247199625,0
2025/04/09 10:58:44.869711898,1744189124,865750170,piren,vessel_center,-476.2540742250784,-300.05538478636703,2.324487468772654,0.000474742175163699,0.00026019301182975395,0.0018786885042887664,0.9999980887226573,0.0808870111535272,-0.019905563018392934,-0.0074933930252423335,-3.094927938352792e-05,-0.003729642593224515,0.0,0
