time,header_stamp_secs,header_stamp_nsecs,header_frame_id,pose_position_x,pose_position_y,pose_position_z,pose_orientation_x,pose_orientation_y,pose_orientation_z,pose_orientation_w
2025/04/09 10:58:24.150673924,1744189104,150149013,piren,-480.03016761148064,-299.9405644789619,2.3596047584270505,-0.0297863497405578,0.00041080753029286296,-0.00043871640173237823,0.9995561075468576
2025/04/09 10:58:24.262678020,1744189104,260258931,piren,-480.03015180348166,-299.90950913618633,2.372439372820973,-0.003218332628966656,0.0013666876127385065,-0.0004465177868618652,0.9999937875416649
2025/04/09 10:58:24.422324695,1744189104,415201866,piren,-480.0283861778412,-299.93652910521416,2.362927269120487,0.028222040994676154,0.0011862306566305216,-0.00040568680918295495,0.9996008926952482
2025/04/09 10:58:24.685120956,1744189104,684550858,piren,-480.02694290074345,-300.02787072731934,2.324688808860806,-0.0032853639051201107,0.0005709083721491212,-4.5585726784412714e-05,0.9999944391693303
2025/04/09 10:58:24.758654706,1744189104,756765934,piren,-480.02726408446694,-300.02978669424965,2.3248823045226583,0.0017412874251479932,9.397482647404839e-06,-4.730738697575825e-05,0.9999984827947498
2025/04/09 10:58:24.897103296,1744189104,895363442,piren,-480.0286151222505,-300.0372713089864,2.3224389754032253,-0.0031002382661392577,1.771610153163292e-05,0.00019292591250622936,0.9999951754825747
2025/04/09 10:58:24.970912643,1744189104,967248058,piren,-480.02945534285914,-300.03243399432176,2.3248181790821887,0.0016300352895604932,-0.0005286467229990113,0.00033114019137492573,0.9999984769307255
2025/04/09 10:58:25.107541195,1744189105,106305768,piren,-480.0310074581027,-300.03792232442316,2.3227808972159276,-0.029814430635605543,0.0005801816772299227,-8.41315601385754e-05,0.9995552791301623
2025/04/09 10:58:25.244675855,1744189105,244316243,piren,-480.0305235103559,-299.9846406918232,2.3432688893074753,0.02818900337792455,0.0005620555914087453,-0.0002158615464527914,0.9996024297618851
2025/04/09 10:58:25.340072985,1744189105,338812845,piren,-480.0302352866283,-300.0391860195285,2.319179388859451,-0.029797078214043933,0.0005154525234429838,-0.00020116235173789945,0.9995558153361475
2025/04/09 10:58:25.410516355,1744189105,410164349,piren,-480.02998373283594,-299.98589435627866,2.340404249374774,0.028193929598815327,0.0004422234164525443,-0.00024857417793840327,0.9996023434261772
2025/04/09 10:58:25.548928515,1744189105,547134364,piren,-480.029965529374,-300.0410905847518,2.316847895283216,-0.02980847871103826,0.00037698583644324804,-0.00022671006909667717,0.9995555317645726
2025/04/09 10:58:25.621824084,1744189105,621437676,piren,-480.0299885981672,-299.9879523525564,2.3386904460570888,0.02819792128101932,0.00031468929218597615,-0.000266281659027811,0.9996022745573145
2025/04/09 10:58:25.762269744,1744189105,761980879,piren,-480.03017802491365,-300.04057986465375,2.3166065538955714,0.0016334626967255022,0.00030794322509515576,-0.0002752218419974091,0.9999985806107559
2025/04/09 10:58:25.902446214,1744189105,902048621,piren,-480.03025615456454,-300.04357834580793,2.3170773284577093,-0.029797890768612514,0.0003183490948526425,-0.0003420386049060096,0.9995558350433399
2025/04/09 10:58:26.40539082,1744189106,40191818,piren,-480.03026989329607,-299.98890834090827,2.339689612613006,0.028201035502107837,0.00035813374349572544,-0.00034526799934036227,0.999602147920281
2025/04/09 10:58:26.111760665,1744189106,111443768,piren,-480.0302708789039,-300.04231573552613,2.3172176550194927,-0.029806753399806245,0.00042551805144248477,-0.0002961013855345158,0.9995555455851969
2025/04/09 10:58:26.253146911,1744189106,251487459,piren,-480.0300625921158,-299.987853630209,2.3396282179983454,0.028203596244948493,0.00046989149234494807,-0.0003130857341206939,0.9996020399829927
2025/04/09 10:58:26.323811336,1744189106,321972035,piren,-480.02988455964254,-300.0413099026572,2.3170601275423826,-0.029806899410371807,0.0005149252367637288,-0.00029538940389740853,0.9995554993819206
2025/04/09 10:58:26.392868603,1744189106,392463193,piren,-480.02964500968517,-299.98466803474776,2.3404346845058974,0.0016030913382385809,0.000531617007168975,-0.000311359982110021,0.9999985252671528
2025/04/09 10:58:26.464429903,1744189106,463072828,piren,-480.0294322219925,-299.9953725127754,2.3373666610310084,-0.0032202111025427947,0.000498711030944363,-0.0003142551673930366,0.9999946413713688
2025/04/09 10:58:26.602217094,1744189106,600254918,piren,-480.0293842741707,-299.99671906134915,2.3379228000289562,0.0016423387448046296,0.0005207947044684177,-0.00031678782875619747,0.9999984655697202
2025/04/09 10:58:26.673339646,1744189106,671531544,piren,-480.02930203240436,-300.0064930730888,2.3347434791900943,-0.0032198596157294113,0.0004434564247988281,-0.0003265888642256749,0.9999946645808507
2025/04/09 10:58:26.809697547,1744189106,809283310,piren,-480.02937970610753,-300.0067487594871,2.335561289849684,0.028194184723182157,0.0003716077231729459,-0.0003629161124844119,0.999602330002982
2025/04/09 10:58:26.948342656,1744189106,948009104,piren,-480.0296778950566,-300.0589725853856,2.3126947014741592,-0.029802527255774654,0.0003443609262226619,-0.0003298196361721494,0.9995556922971971
2025/04/09 10:58:27.20755824,1744189107,19759537,piren,-480.02988736015254,-300.0026970959534,2.3352503396451234,0.028188739424676895,0.0003122948515583615,-0.00035890265879556045,0.9996025053142148
2025/04/09 10:58:27.161090728,1744189107,159190641,piren,-480.03019401460364,-300.0534336558836,2.313421528549977,0.0016396402393847329,0.00034374074296020696,-0.00036080993438475606,0.999998531618111
2025/04/09 10:58:27.301500893,1744189107,299301707,piren,-480.03025719150395,-300.0508505663718,2.3156110608848026,-0.0034163957354411164,0.0003477259625234226,-0.0003927579633247759,0.9999940265161669
2025/04/09 10:58:27.372236300,1744189107,370272282,piren,-480.0303427091693,-300.0387474591334,2.321509197327404,0.0016455116044363654,0.0004009454016133229,-0.0004294627212609133,0.9999984735468929
2025/04/09 10:58:27.510380597,1744189107,509860108,piren,-480.030324597536,-300.03736295111963,2.322739446435224,-0.02954945024940431,0.00045692520336101244,-0.0003754148428094273,0.9995631447152363
2025/04/09 10:58:27.649419080,1744189107,647533121,piren,-480.030079858478,-299.9818806116532,2.3445195069177456,0.02819073212955157,0.0004695845057794124,-0.00038009787091765844,0.9996023797680758
2025/04/09 10:58:27.742403250,1744189107,742076185,piren,-480.0299203697602,-300.03503549837563,2.321233306870795,-0.029451848172028342,5.9367641005650167e-05,-0.0003692647461142541,0.9995661302576645
2025/04/09 10:58:27.814485003,1744189107,813813556,piren,-480.03041829794444,-299.98165872123076,2.3425870434808322,0.029013459984356664,0.00011152266261830907,-0.0003854631590093087,0.9995789404147053
2025/04/09 10:58:27.955362842,1744189107,953263638,piren,-480.0307568800368,-300.0373758575262,2.3185928733559944,-0.028480075053655893,0.00010924863736808894,-0.0004013135275546586,0.9995942738617134
2025/04/09 10:58:28.24532035,1744189108,23748143,piren,-480.0309461313605,-299.9861245116055,2.3396629877791746,0.0015938715998136744,0.000150679650134877,-0.00043460177871933116,0.9999986239941835
2025/04/09 10:58:28.97756495,1744189108,97312846,piren,-480.0309911032549,-299.9987524086634,2.335924193575888,0.005986924629717683,8.145506617044096e-05,-0.00043505292839922654,0.9999819802513943
2025/04/09 10:58:28.170585616,1744189108,170173257,piren,-480.03094107162275,-300.0143222748556,2.33050755981299,0.030044552705248716,0.0001082742038831849,-0.000484771940377541,0.9995484371082795
2025/04/09 10:58:28.312968709,1744189108,312436828,piren,-480.0304522013665,-300.06720925967,2.307755478567091,0.0033615048188914663,9.761624204110621e-05,-0.0005478281117316981,0.9999941953035437
2025/04/09 10:58:28.457099712,1744189108,456530416,piren,-480.0290595072289,-300.0682546136226,2.308619864051422,0.010364139726328521,8.618201802037158e-05,-0.0005859010075737162,0.9999461154984314
2025/04/09 10:58:28.599695029,1744189108,599205228,piren,-480.0270050644523,-300.0748158710008,2.3067977990364765,-0.0262062907381464,0.00013425712342157286,-0.0007770651231981502,0.9996562451515856
2025/04/09 10:58:28.671160810,1744189108,670711556,piren,-480.02422302104134,-300.01729853704137,2.3304726069772603,0.03572811489591665,0.00021202767822805374,-0.0009554351088079447,0.9993610678798733
2025/04/09 10:58:28.811129019,1744189108,810746619,piren,-480.0192292426253,-300.0723686588664,2.3060555220141787,-0.024580627003162388,0.00017862205565350174,-0.0007769750615615405,0.9996975328468339
2025/04/09 10:58:28.950914721,1744189108,950554703,piren,-480.01372585269024,-300.01827914229966,2.328857524504396,0.007898685660708286,4.925849166366763e-05,-0.0007815889182080543,0.999968498232418
2025/04/09 10:58:29.22945629,1744189109,22461040,piren,-480.007172696163,-300.0299791621502,2.3252144085276663,-0.0033490849425539065,0.00017905984038314485,-0.0008551728519931041,0.9999940101055678
2025/04/09 10:58:29.163738049,1744189109,163332387,piren,-479.9968721327798,-300.0210844442174,2.3301784524618108,0.0017446986323172895,0.00021433183383555925,-0.0010110439864982645,0.9999979439371887
2025/04/09 10:58:29.304175153,1744189109,303592566,piren,-479.98372208085885,-300.0228098096911,2.330618856518725,0.03432756533675762,0.0006454865543427708,-0.0010146985866001615,0.9994099118939822
2025/04/09 10:58:29.444060529,1744189109,442091416,piren,-479.9713631656234,-300.0800596454567,2.305176452260622,0.016964965979899722,0.000571634739797765,-0.0010094017131102929,0.9998554116827126
2025/04/09 10:58:29.514787641,1744189109,513347548,piren,-479.9583964764742,-300.09713048801046,2.2987122726270615,-0.02458715150368504,0.0005950031325993467,-0.0010288447763339053,0.9996969838059097
2025/04/09 10:58:29.653819852,1744189109,653153261,piren,-479.94468247617743,-300.0393859456382,2.3229486910736705,0.004672374772779012,0.0005080960369626866,-0.0010792690843842278,0.999988372897727
2025/04/09 10:58:29.725490193,1744189109,724557524,piren,-479.930557829337,-300.0421639331711,2.323132815717597,0.00816553903230704,0.0006208468945679374,-0.0011159782764562582,0.9999658459737172
2025/04/09 10:58:29.864716974,1744189109,864376002,piren,-479.91048208681804,-300.0506329606175,2.320840036685374,0.004753756656257742,0.0003597239453990844,-0.0012441514699159319,0.9999878621680646
2025/04/09 10:58:30.30397527,1744189110,29940770,piren,-479.88822395370835,-300.0529027152532,2.321045449285421,-0.02665331342476366,0.0004918013567889605,-0.0012023464186087813,0.9996438932830013
2025/04/09 10:58:30.102178698,1744189110,101799869,piren,-479.8783275165542,-300.0008543111665,2.3418540040043965,-0.023153931178038337,0.0005157137318546056,-0.001205106927620542,0.9997310524474282
2025/04/09 10:58:30.175442672,1744189110,175135772,piren,-479.8615715051326,-299.96623740990646,2.356071249976901,-0.0047265800488956065,0.0005096926976664358,-0.0012214135244246604,0.9999879538291437
2025/04/09 10:58:30.316400796,1744189110,315849521,piren,-479.83766336912777,-299.9676003536372,2.356270575374412,0.004571740379992972,0.0005677930745607522,-0.0012790977128589566,0.9999885702896626
2025/04/09 10:58:30.456240650,1744189110,455935643,piren,-479.81122239750204,-299.98831506062197,2.348198494919953,0.0025643197773674007,0.0005939077984793368,-0.0012857713084406456,0.9999957091556687
2025/04/09 10:58:30.596920341,1744189110,596480005,piren,-479.7913779871316,-300.00703252230323,2.3407372571949008,-0.0156752436096469,0.0006066755488683958,-0.0014006920166509652,0.9998759706805795
2025/04/09 10:58:30.668730537,1744189110,668111722,piren,-479.7715859072141,-299.9915342505498,2.347063049460851,0.0011239904692294043,0.0005777879634659166,-0.0014876302746119122,0.9999980948795155
2025/04/09 10:58:30.809171550,1744189110,808725594,piren,-479.74225189593466,-300.007305757321,2.3410339547297063,0.0034255556187653773,0.0004891936737452896,-0.0013479099945121317,0.9999931046746768
2025/04/09 10:58:30.951387911,1744189110,950572712,piren,-479.7127586676523,-300.0255345288745,2.333990425099417,0.0024310832940917728,0.000459193799883116,-0.0013473927393055983,0.9999960317460652
2025/04/09 10:58:31.91810682,1744189111,91406596,piren,-479.69030998482117,-300.03735768742985,2.329506874637863,-0.029749012145171852,0.00044112839156657495,-0.0014131864751181734,0.9995563038599252
2025/04/09 10:58:31.165985727,1744189111,164741838,piren,-479.66759253223387,-299.99147507781265,2.3473810751201984,1.7196430282899136e-06,0.00035333248230141916,-0.0014847029125990125,0.9999988354045525
2025/04/09 10:58:31.306757641,1744189111,306324646,piren,-479.6344385968851,-300.0035257426506,2.343035689986475,0.028731761761901606,0.0003853847016402276,-0.0014049096944435439,0.9995860961285123
2025/04/09 10:58:31.452902066,1744189111,452202241,piren,-479.61123243969456,-300.062953232523,2.317094887523073,-0.025988568370937885,0.0004867050247132381,-0.00138438033162316,0.9996611630564355
2025/04/09 10:58:31.526950125,1744189111,525289012,piren,-479.5873643024955,-300.01818568783216,2.3352288360551636,-0.01779145299811008,0.0004713638428160626,-0.0014093214661255063,0.9998406152129193
2025/04/09 10:58:31.666686984,1744189111,666272673,piren,-479.5524189820056,-299.99500802013927,2.345065226662902,-0.0007567370303362135,0.0005202677567762054,-0.0014341205954184295,0.9999985499832718
2025/04/09 10:58:31.808190990,1744189111,807814208,piren,-479.51756382502947,-300.0042337152625,2.3420366576350604,-0.0005915524266319381,0.0005696555216140303,-0.001447566715281692,0.9999986150535001
2025/04/09 10:58:31.951439484,1744189111,950168824,piren,-479.4921055387588,-300.01434101877174,2.3385736027448414,0.00416092210714065,0.0004993876692351932,-0.0014481414438593475,0.9999901700644526
2025/04/09 10:58:32.22248132,1744189112,21940279,piren,-479.4665389337134,-300.0306199202237,2.3323943023039653,0.027017325264583916,0.00048504625661081516,-0.0014757868409671826,0.9996337583929811
2025/04/09 10:58:32.164860338,1744189112,164535743,piren,-479.428752570422,-300.0828633861518,2.3098614061014273,0.003141913397330664,0.00042135515809815034,-0.0014783522886510183,0.9999938826385615
2025/04/09 10:58:32.308087815,1744189112,306938317,piren,-479.38994789539936,-300.087820335937,2.308734912639647,-0.005314087551186809,0.0004241690900359435,-0.001564516011107081,0.9999845663027667
2025/04/09 10:58:32.475260667,1744189112,474891008,piren,-479.34946989466243,-300.05097938066694,2.32529301935649,-0.002524092616702925,0.00038031958395478785,-0.001555834706957715,0.9999955318359383
2025/04/09 10:58:32.617252979,1744189112,616863584,piren,-479.3093281031988,-300.04385707314447,2.3288778195517446,0.005927344313777233,0.00046918534301061704,-0.0015281397240662247,0.9999811554441832
2025/04/09 10:58:32.690330059,1744189112,689284228,piren,-479.2990926846795,-300.0433888378792,2.329230383959421,0.002425313974184348,0.0003892015725183304,-0.0015261694779348338,0.9999958185817515
2025/04/09 10:58:32.762337738,1744189112,762014896,piren,-479.2705629700796,-300.0458727208671,2.328368081242301,0.021094652059758766,0.00038719137566745125,-0.0015126445439717674,0.9997762637929548
2025/04/09 10:58:32.906598829,1744189112,905451253,piren,-479.2277938064055,-300.07875702376026,2.31389736228243,-0.0057766922869720875,0.0005128639143565563,-0.0015173875335451423,0.9999820320045256
2025/04/09 10:58:33.49104445,1744189113,47893497,piren,-479.19908885084504,-300.05991108726766,2.3218252373054504,-0.02536561345111156,0.0005244277560816319,-0.001509577304284312,0.999676963726853
2025/04/09 10:58:33.122125326,1744189113,121060099,piren,-479.1702273699091,-300.01086783614016,2.3411756472956555,0.020046832095051367,0.0005022599116357633,-0.0015380555604606742,0.9997977328655167
2025/04/09 10:58:33.195902112,1744189113,194725650,piren,-479.15711070585485,-300.05227678120394,2.323495675715776,-0.03110181852309071,0.000542457993795924,-0.0015113119699080586,0.999514931634346
2025/04/09 10:58:33.268936504,1744189113,268439533,piren,-479.1273122512052,-299.9956482195159,2.3457863678502306,0.0031790411683719644,0.0005157676161695764,-0.001531807868023335,0.9999936406026148
2025/04/09 10:58:33.412286914,1744189113,411750355,piren,-479.083786661177,-300.00566179804696,2.342381184579284,-0.025705577171879084,0.0004463101517981818,-0.0015244764192534955,0.9996682950264834
2025/04/09 10:58:33.556862806,1744189113,554226457,piren,-479.0537898806932,-299.9714328846034,2.35641048121931,0.026884315739776798,0.0003788560254673845,-0.0015505006559652901,0.9996372772076039
2025/04/09 10:58:33.627787390,1744189113,627346498,piren,-479.02499878202616,-300.0338710330517,2.330048665733793,0.017324019762572227,0.0003204495734293197,-0.0015530555762924365,0.9998486703845307
2025/04/09 10:58:33.700164592,1744189113,699827043,piren,-479.01076409114,-300.03609699364733,2.329014569709155,0.0025953066011879383,0.0003430602532644512,-0.0015482666544829834,0.9999953747711412
2025/04/09 10:58:33.774452761,1744189113,773211173,piren,-478.9832448791949,-300.0457329110111,2.3263613418663196,-0.030426193226025064,0.00041676820704220053,-0.001535276349150803,0.9995357502343606
2025/04/09 10:58:33.846968407,1744189113,845845298,piren,-478.96687479744423,-299.99527941745,2.346736016897415,0.02754302079923673,0.00034419027221568486,-0.0015569912560940975,0.9996193472099957
2025/04/09 10:58:33.920953389,1744189113,919785933,piren,-478.9357936439148,-300.05430979025465,2.321825378551803,0.031987428306252244,0.00031692079577256774,-0.0015579364829770162,0.999487006831743
2025/04/09 10:58:34.63104049,1744189114,62794741,piren,-478.8905021041165,-300.1115535189279,2.2971340527543487,-0.023498935943597372,0.0004542881277480293,-0.001553352101420917,0.9997225518758016
2025/04/09 10:58:34.209313634,1744189114,208876114,piren,-478.8458693976049,-300.06425211758534,2.3172106908723396,0.025493698212964846,0.00044640218816833994,-0.0015764668863138063,0.9996736401589617
2025/04/09 10:58:34.353670768,1744189114,352308414,piren,-478.7989307460317,-300.10082048835136,2.3020073721781475,-0.011009199042562937,0.0005207355987322302,-0.001562414081874781,0.9999380406970796
2025/04/09 10:58:34.495388398,1744189114,495037354,piren,-478.7667186485833,-300.06770963976385,2.317057315764235,-0.001105185494386529,0.00047113312152156103,-0.0016294510218315234,0.9999979507418865
2025/04/09 10:58:34.569491840,1744189114,568399296,piren,-478.7347475347001,-300.0572386431903,2.3226698587904866,-0.0011050722852147695,0.0004558205612327358,-0.001646877174641311,0.9999979294170724
2025/04/09 10:58:34.712507406,1744189114,711142989,piren,-478.6869818570291,-300.04853368763435,2.327510253813715,-0.027212698056501297,0.0004320968604952068,-0.0015667422526395296,0.9996283447739479
2025/04/09 10:58:34.814925838,1744189114,814564551,piren,-478.6549173582855,-299.9989228049488,2.347580059437932,0.0026537414522343336,0.0003486857267099796,-0.0015802997931643038,0.9999951693518987
2025/04/09 10:58:34.958956436,1744189114,958032976,piren,-478.6230348912681,-300.0113105593848,2.3432845435030862,-0.027812304773747906,0.0003895250011194525,-0.001571755661730403,0.999611851449144
2025/04/09 10:58:35.34592928,1744189115,32810574,piren,-478.59237179665,-299.97188705584455,2.358944817399761,0.030482391797837717,0.0002982566437001657,-0.0015944314830899987,0.9995339877270324
2025/04/09 10:58:35.107623733,1744189115,107113716,piren,-478.5596015568042,-300.03933555267525,2.3297355770835404,-0.026896688552313384,0.00039220395666889025,-0.0015792946025281695,0.9996368941518389
2025/04/09 10:58:35.252548684,1744189115,252160779,piren,-478.51022974847825,-299.9993025114555,2.3460453531726873,-0.02571431335379108,0.00038973526417097204,-0.0015870443912781686,0.9996679966295146
2025/04/09 10:58:35.398236414,1744189115,396810775,piren,-478.47683158494584,-299.9681891537876,2.3588635053217533,-0.026961275184385885,0.0004592259974097341,-0.0015972577077862681,0.999635097182832
2025/04/09 10:58:35.474323614,1744189115,473647059,piren,-478.4431849593478,-299.9424819714723,2.3693305528941093,-0.028297223094034832,0.0004487666338809041,-0.001609084153382486,0.9995981575722627
2025/04/09 10:58:35.616887346,1744189115,616555840,piren,-478.3928672857501,-299.91684081969265,2.3796302118791757,0.0020080377499389246,0.00045948290264690014,-0.0016024656727465394,0.9999965943760132
2025/04/09 10:58:35.764789732,1744189115,760747621,piren,-478.3442815903629,-299.9521334762291,2.3661812082310045,0.003890301687300572,0.000475152889078647,-0.0016001715682930852,0.9999910395765883
2025/04/09 10:58:35.907356694,1744189115,906344967,piren,-478.2921358391858,-299.98972778857825,2.3517124756598355,-0.023820609435713295,0.00012084112188915691,-0.001603289022093309,0.9997149560889075
2025/04/09 10:58:36.53824126,1744189116,53461091,piren,-478.2412058088242,-299.9762440618965,2.3574036695145737,-0.02828039682490468,0.0004423599744599752,-0.00157437089023552,0.9995986918905901
2025/04/09 10:58:36.201358417,1744189116,199896004,piren,-478.2064562074328,-299.95479559986626,2.365826464754789,0.022465105577267358,0.0003270305067279028,-0.001592524998945836,0.9997463057929135
2025/04/09 10:58:36.274529997,1744189116,273748381,piren,-478.1719108652142,-300.02307006215506,2.3374175332861515,-0.019928703224252716,0.000425727309680626,-0.0015671876299818335,0.9998000847504415
2025/04/09 10:58:36.419425769,1744189116,418300227,piren,-478.11952349884234,-300.01023825870465,2.3431732611230673,-0.031382633494954106,0.0004615025324043655,-0.0015645090662865105,0.9995061128586036
2025/04/09 10:58:36.563396218,1744189116,562990362,piren,-478.0670895315188,-299.9756397041872,2.3567805311853083,0.018175566506081955,0.0003458585476780569,-0.0015806747977619134,0.9998335014547332
2025/04/09 10:58:36.708652527,1744189116,708387928,piren,-478.016004853551,-300.0279577819791,2.3353575606080414,0.004035451776526673,0.00042823957672650056,-0.001571206167741057,0.999990531480675
2025/04/09 10:58:36.853747849,1744189116,853375549,piren,-477.9618332403844,-300.05023462657533,2.3270682712140722,0.028915931185519297,0.00041528733302311497,-0.001580440022956944,0.9995805113493557
2025/04/09 10:58:36.999715429,1744189116,999341364,piren,-477.92510453762856,-300.1041290519522,2.303697406993263,-0.0059240264265708,0.0005088230307205875,-0.0015556914454450536,0.9999811132387187
2025/04/09 10:58:37.74200276,1744189117,73809760,piren,-477.88840069049536,-300.0870694258722,2.311770220983425,0.018193316001867632,0.0003956472419948102,-0.001557522818641052,0.9998331965076903
2025/04/09 10:58:37.150504373,1744189117,149183087,piren,-477.86961119665176,-300.10720801362805,2.303440535001528,-0.01856212671600508,0.00045277724362928706,-0.0015413254961626245,0.9998264183148301
2025/04/09 10:58:37.225811494,1744189117,225385285,piren,-477.8323805115529,-300.0646104929333,2.321431856021957,0.012104887140601855,0.0004715300989721921,-0.0015699493616850573,0.9999253895294793
2025/04/09 10:58:37.327180207,1744189117,326143531,piren,-477.7970388060185,-300.0804375669841,2.315348787796948,-0.0008441861491719921,0.0004309812326184954,-0.0015565328584131182,0.9999983394038129
2025/04/09 10:58:37.414456722,1744189117,411646226,piren,-477.7609840057614,-300.0710142939159,2.3200342934800937,0.003671090001303149,0.00037589807165785955,-0.001558577586094297,0.9999919762851851
2025/04/09 10:58:37.566030629,1744189117,562990703,piren,-477.70511563364926,-300.0714121823352,2.320583228763778,0.002683705829934541,0.00036726127708863407,-0.0015336197895946917,0.9999951554145219
2025/04/09 10:58:37.710856308,1744189117,710427623,piren,-477.64948770789044,-300.06947720028467,2.321908849331713,-0.001301831237928408,0.0003789433884233632,-0.0015190238251110962,0.9999979270998292
2025/04/09 10:58:37.857829971,1744189117,857421398,piren,-477.59620626541823,-300.0606222437705,2.3258865478748314,-0.002136473923971221,0.00040034772839858733,-0.0015193382290366693,0.999996483399924
2025/04/09 10:58:38.6844528,1744189118,6473234,piren,-477.5399095021554,-300.0513988950826,2.329842007183542,0.0008330223454209556,0.00040031604838737,-0.0015066073761668072,0.9999984379763038
2025/04/09 10:58:38.155966790,1744189118,153941543,piren,-477.5027361247088,-300.05001949352675,2.3303112558689816,-0.0037297126036657047,0.0004613124817355,-0.0015057036352808893,0.9999918046120433
2025/04/09 10:58:38.230664681,1744189118,229505410,piren,-477.46558420973236,-300.0417040126683,2.3336486803358074,-0.030419750147903886,0.000499434489114679,-0.001484819073665274,0.9995359846841178
2025/04/09 10:58:38.308037028,1744189118,307709542,piren,-477.4284220244763,-300.03768818131726,2.335421735636764,0.024770750754708297,0.00041811044860677566,-0.0015108355780536343,0.99969192877934
2025/04/09 10:58:38.457603264,1744189118,457305092,piren,-477.37896804780684,-300.1150584779678,2.3007296463396,-0.001821641030462059,0.0004574597571464406,-0.0014747094344434845,0.9999971487892407
2025/04/09 10:58:38.604708750,1744189118,603307457,piren,-477.32544920708875,-300.1008626186539,2.3070839917375103,-0.0184984118333038,0.00039487824856971953,-0.0014193528474427304,0.9998278043084763
2025/04/09 10:58:38.751480609,1744189118,749905805,piren,-477.29156085951735,-300.0548338430419,2.3262718069945514,-0.020439418389443638,0.0004980398540662064,-0.0014306007456762284,0.9997899456954503
2025/04/09 10:58:38.829439512,1744189118,828097140,piren,-477.25827734662244,-300.01482701367047,2.342875465086526,-0.020519657331895914,0.0004882593494820472,-0.0014640567551282592,0.9997882584845689
2025/04/09 10:58:38.904813673,1744189118,903522810,piren,-477.24311432792587,-299.98887167406116,2.3537043681284286,0.027082131833496947,0.0003529935808711928,-0.0014843288559563416,0.9996320474548285
2025/04/09 10:58:38.979590329,1744189118,979169943,piren,-477.2113827480036,-300.0445025944175,2.3297701757833957,0.010376956705847427,0.000341009027009191,-0.0014961785624608291,0.9999449804524636
2025/04/09 10:58:39.54385854,1744189119,53952641,piren,-477.1963631363992,-300.06376869729917,2.3225242836729896,-0.004808620793948748,0.00036885082279361774,-0.001490876704127378,0.9999872591197269
2025/04/09 10:58:39.131846941,1744189119,131548670,piren,-477.16440000080723,-300.0531077764982,2.3277262900562627,-0.00646580615089915,0.0003280252667160729,-0.001466433908967147,0.9999779674181997
2025/04/09 10:58:39.207605830,1744189119,207244265,piren,-477.135625945693,-300.04141354606475,2.3331324496876102,0.030932350669224822,0.0002862067705923174,-0.0014743977841603047,0.9995203519283311
2025/04/09 10:58:39.355732514,1744189119,354817296,piren,-477.08922856274313,-300.0932965497672,2.3100154952831784,0.02312413208371626,0.00041030612108676923,-0.0014122376456174855,0.9997315198337473
2025/04/09 10:58:39.503830890,1744189119,503431760,piren,-477.0596424460778,-300.1224405290511,2.297404354609194,0.026444716983695212,0.00043784388139732865,-0.001437088446797093,0.9996491484581898
2025/04/09 10:58:39.580986784,1744189119,580564127,piren,-477.0305073135561,-300.14939654796933,2.28548500502984,-0.004264508135725527,0.0005560842688042456,-0.0014133281383245666,0.9999897535696153
2025/04/09 10:58:39.658904914,1744189119,657863427,piren,-477.00166568308805,-300.11756815599665,2.2996987082273455,-0.002703300436756739,0.0005871333590711089,-0.0014139586115002717,0.9999951740694614
2025/04/09 10:58:39.759703555,1744189119,758939451,piren,-476.97363181577975,-300.09289622930163,2.3108369754817195,-0.03475053536146161,0.0007208377924821577,-0.001494569860000277,0.9993946402427334
2025/04/09 10:58:39.910306100,1744189119,909201422,piren,-476.9333483835751,-300.0181582149175,2.3405355609848995,0.023851463308658227,0.00043972724949574524,-0.0015969768388502446,0.9997141411438362
2025/04/09 10:58:40.57953106,1744189120,57538127,piren,-476.8937487041421,-300.0534364112425,2.325737975571077,-0.013320175248119284,0.0029101504462056014,-0.0015116094950778309,0.9999059050693092
2025/04/09 10:58:40.211290765,1744189120,210122837,piren,-476.8515458827725,-300.02725070705446,2.337608109130172,-0.004308936853735199,0.000111411355915539,-0.00139935790002717,0.9999897311713595
2025/04/09 10:58:40.362720484,1744189120,359794705,piren,-476.8180312871364,-300.02140361515336,2.3411604061503106,-0.03625851238897822,0.0001488908798592672,-0.0011810499583728973,0.9993417349594883
2025/04/09 10:58:40.510239233,1744189120,509889925,piren,-476.78467278808597,-299.96371446654643,2.3634976539267774,-0.0069612386410975394,0.0003600478964989498,-0.0011230045197127786,0.9999750748808406
2025/04/09 10:58:40.660085066,1744189120,658463198,piren,-476.7538158632086,-299.96637479133375,2.363033602628492,0.026696218969772027,0.001370083106486571,-0.0011403936871865385,0.9996420030527117
2025/04/09 10:58:40.811662926,1744189120,811348052,piren,-476.72326519646373,-300.03025276691403,2.3355245163394702,-0.03764520313700586,0.0015504672497623424,-0.0008558148483235603,0.9992895988215961
2025/04/09 10:58:40.962360971,1744189120,962031471,piren,-476.6922655804125,-299.9798139170942,2.354585032872155,-0.008764476438345525,-0.0008156308566768958,-0.0006858913555565907,0.9999610233664689
2025/04/09 10:58:41.115607023,1744189121,113765880,piren,-476.66722371224256,-299.9836380231997,2.353918573737825,-0.034124901783842296,-0.0005458144077532915,-0.0005270433058308387,0.9994172879184297
2025/04/09 10:58:41.262914696,1744189121,261943582,piren,-476.6436695913008,-299.94599971356735,2.3685069493318296,-0.010150507762252892,0.0013838546279581888,-0.0005248500125821994,0.9999473869514344
2025/04/09 10:58:41.412211786,1744189121,410603960,piren,-476.6162546335686,-299.9557582974546,2.3656198445786347,-0.03355772827532009,0.0003090009382597228,-0.0004577282411072391,0.999436628244271
2025/04/09 10:58:41.560702389,1744189121,560278373,piren,-476.59210236189836,-299.92783803046166,2.376500509956689,-0.004973571336700465,0.001173377130794037,-0.0003442756641416664,0.9999868840382532
2025/04/09 10:58:41.711010279,1744189121,709893014,piren,-476.56807483703017,-299.95435155655565,2.366913561790497,-0.028689087455838497,7.725084257604173e-05,0.0007218303319827678,0.9995881198044675
2025/04/09 10:58:41.859705248,1744189121,859254033,piren,-476.5470324494257,-299.93967125002956,2.3727564454771435,-0.019294395126455918,-0.00014366341999782264,0.0008493077536138607,0.9998134747811042
2025/04/09 10:58:42.13400564,1744189122,12370086,piren,-476.5280841173951,-299.9429293490434,2.3717560858435514,-0.0042135081085519195,-0.0007114095108034715,0.0006133624163566847,0.9999906819728239
2025/04/09 10:58:42.163296143,1744189122,162830225,piren,-476.5100693630037,-299.97171422484246,2.360473574464623,0.02282427181162314,0.00037821651689502934,0.00039337366969474527,0.9997393434419252
2025/04/09 10:58:42.337624153,1744189122,337257002,piren,-476.49170156789916,-300.0413896363296,2.3308028727359393,0.02811298895919787,0.000457134233870354,0.000635437567668306,0.9996044453178318
2025/04/09 10:58:42.415531553,1744189122,415105748,piren,-476.4790922372391,-300.1021639145282,2.304282599837953,0.015066432267878186,-0.0006610050604845436,0.0006702002732059114,0.999886051769211
2025/04/09 10:58:42.566815468,1744189122,564464916,piren,-476.46254674619,-300.13437039985746,2.2909932633808845,0.026612329493017155,-0.002039957029850877,0.0009168429103498871,0.9996433273389811
2025/04/09 10:58:42.714967541,1744189122,713049875,piren,-476.4484948790208,-300.1722686801553,2.274440769354504,0.024835071066978496,0.0008434468980345932,0.0004352397047776004,0.9996911114983607
2025/04/09 10:58:42.864488218,1744189122,863075299,piren,-476.4306163493131,-300.19332430260255,2.26545162195884,-0.029171896553925075,0.0007621581820933856,0.0001576936161210144,0.9995741066569682
2025/04/09 10:58:43.18547958,1744189123,14550941,piren,-476.41366912852146,-300.11325676202176,2.2987499541688963,-0.02644911028923504,0.0006671568518801775,-0.00011389062029403784,0.9996499319739733
2025/04/09 10:58:43.168419782,1744189123,168087057,piren,-476.39840998496993,-300.0432688618487,2.328570348043646,-0.03549228634427329,0.0006366851426530923,-0.00043662046838661354,0.9993696521331094
2025/04/09 10:58:43.319813915,1744189123,318711967,piren,-476.38356319685573,-299.9692826297225,2.35914555053406,-0.004441010888262626,0.00040600145215575714,-0.0005731115921626526,0.9999898920130214
2025/04/09 10:58:43.469713002,1744189123,469323260,piren,-476.370111784923,-299.9651091959095,2.363057696485413,0.02634958682030816,-0.0002726830705541634,-0.0007196830083867419,0.9996524931068344
2025/04/09 10:58:43.620249673,1744189123,619500426,piren,-476.35893613703223,-300.02244038821345,2.339459744088744,0.0009597063902667127,0.0010471481893729018,-0.0005652787596260241,0.9999988314514362
2025/04/09 10:58:43.770860306,1744189123,770133704,piren,-476.34473867869565,-300.0341094422344,2.3360408842795284,-0.007189890093501717,-0.0006278132352224168,-5.771001224787112e-06,0.9999739553096775
2025/04/09 10:58:43.920689501,1744189123,920328939,piren,-476.3335905803747,-300.03015623755743,2.338520060575015,0.0010498132143221335,-0.0010298424991818564,0.0005913313579212328,0.9999987438211446
2025/04/09 10:58:44.72480078,1744189124,70926395,piren,-476.32298779716115,-300.03876177264834,2.33504527537507,0.013368767558464298,-0.00035722467589941105,0.0011817302448196621,0.999909871917528
2025/04/09 10:58:44.151302078,1744189124,149234941,piren,-476.31934345750875,-300.06447064901135,2.3233988871934406,-0.0024449112082412508,0.000520956817758907,0.0011774081072873283,0.9999961823543762
2025/04/09 10:58:44.230517943,1744189124,228137857,piren,-476.3096975583808,-300.05815551522414,2.325482795237473,-0.030637220949393893,0.0006070141517756694,0.0007952861815720964,0.9995300694557453
2025/04/09 10:58:44.309458410,1744189124,308090479,piren,-476.3007454410604,-300.00359683143165,2.3457865196852326,0.009372181639365018,0.0006908146130516476,0.0010302393348837848,0.9999553107981386
2025/04/09 10:58:44.460461598,1744189124,460164297,piren,-476.2877638791504,-300.024871173266,2.3363376912824294,0.02147724947474234,0.003210949382270797,0.001167887387051401,0.9997634988326566
2025/04/09 10:58:44.612188241,1744189124,611910430,piren,-476.2712990605541,-300.0666210973973,2.3180860294334567,-0.0008865640439967525,0.00020480801016448867,0.001511278081249436,0.9999984440470077
2025/04/09 10:58:44.790541489,1744189124,789203175,piren,-476.2605131312977,-300.06619032505347,2.319012204325704,-0.004565054441059485,0.00015102910341093043,0.0018797008244446575,0.99998780202209
2025/04/09 10:58:44.870029583,1744189124,865750170,piren,-476.2540742250784,-300.05538478636703,2.324487468772654,0.000474742175163699,0.00026019301182975395,0.0018786885042887664,0.9999980887226573
2025/04/09 10:58:45.20280700,1744189125,19599506,piren,-476.2440121233792,-300.0550880654242,2.3254575633822725,-0.030171037753575793,4.560449956365106e-05,0.0017486110325576844,0.9995432200563209
2025/04/09 10:58:45.98244737,1744189125,97907351,piren,-476.2412770243195,-300.0014471671272,2.346595033212354,0.026621383192030213,0.0001341567038380022,0.0017461076674257859,0.9996440541847562
2025/04/09 10:58:45.177898197,1744189125,177490930,piren,-476.23403976600827,-300.0544727778923,2.3236383687326465,0.030303977620292476,0.0002410859083170036,0.002013983755055349,0.9995386709314493
2025/04/09 10:58:45.256426148,1744189125,254046983,piren,-476.22614119730787,-300.10301585613394,2.302039367731347,-0.026531931929207966,0.0002574653928581129,0.0020128091583097615,0.999645906758472
2025/04/09 10:58:45.405364116,1744189125,405078467,piren,-476.2146063881711,-300.0434461657666,2.325823185402473,0.002987187364980395,0.000589042243184071,0.003194144090752761,0.9999902635448057
2025/04/09 10:58:45.559017208,1744189125,557718562,piren,-476.2009393701466,-300.0475613510761,2.325154221646661,-0.017410705777449173,0.0005962326561138758,0.0030975035975550303,0.9998434463966916
2025/04/09 10:58:45.710836100,1744189125,710469163,piren,-476.18867149488614,-300.01371716450404,2.338843822123442,-0.018637797085021324,0.0005273448450916848,0.00280996269664378,0.9998222134644116
2025/04/09 10:58:45.863947239,1744189125,862799545,piren,-476.1763950712976,-299.98334046265023,2.3512748077561554,0.0024486782724974063,0.0004586772016080519,0.0026071344286303943,0.9999934981988701
2025/04/09 10:58:46.16254197,1744189126,15544520,piren,-476.16443615252473,-299.99624069688645,2.346636303201693,-0.0313016642178177,0.00011193405360274685,0.0028098330553645292,0.9995060270584484
2025/04/09 10:58:46.168797222,1744189126,168453113,piren,-476.15337316754886,-299.95480910386607,2.3629626737706633,0.0017248006024371024,2.8449843389584734e-05,0.0029961324809259365,0.9999940237039645
2025/04/09 10:58:46.246054743,1744189126,245160037,piren,-476.14930950779734,-299.98496089379495,2.3515561851794584,-0.023447226860388005,-7.258959979403782e-05,0.0029974957514643692,0.9997205796133876
2025/04/09 10:58:46.324179193,1744189126,323809613,piren,-476.1412303048574,-299.9627216896325,2.360646787719391,-6.175783799925413e-05,0.00012183261589570848,0.002933515519760889,0.9999956879054422
2025/04/09 10:58:46.402424919,1744189126,402168892,piren,-476.13670740755515,-299.98822384271807,2.3508056508704374,-0.011455761948096081,0.0003296384490746715,0.002936154206839008,0.999930015478661
2025/04/09 10:58:46.480723428,1744189126,479649071,piren,-476.1276520091779,-299.9863904258433,2.3517796852887183,0.0008320070689354443,-0.00014486018196996806,0.003059432937712579,0.9999949633122481
2025/04/09 10:58:46.558394979,1744189126,556999231,piren,-476.1191104583993,-300.0053298592552,2.3439923588581624,0.002778424296826579,0.0003458814378410431,0.003059767627618429,0.9999913992362748
2025/04/09 10:58:46.712781545,1744189126,709999628,piren,-476.1051825699362,-300.02372946696505,2.3360533248850395,-0.024592500101906264,0.0004539138016013622,0.00385627609171807,0.999690017973423
2025/04/09 10:58:46.867466265,1744189126,866040984,piren,-476.0905076439898,-299.9917161587846,2.3477807546454144,-0.0034364328405697845,0.0005650973346001374,0.003794085116623696,0.9999867381682932
2025/04/09 10:58:47.20315652,1744189127,20031824,piren,-476.07614321313423,-299.99848050687774,2.344693899038999,0.0010939189489619443,0.000547884645765081,0.0035352768438304608,0.99999300246621
2025/04/09 10:58:47.100748103,1744189127,99224617,piren,-476.0702185493693,-300.01318594969064,2.3386429751637556,0.007774634510027552,0.0005231092789026731,0.0035305847701254055,0.9999634075235447
2025/04/09 10:58:47.178168320,1744189127,177770996,piren,-476.0597061070781,-300.03606268926967,2.3290977807761593,-0.030461226713960947,0.000258487610391798,0.003467075156491161,0.9995299026247765
2025/04/09 10:58:47.256255083,1744189127,255837499,piren,-476.0501443307828,-299.9892562342825,2.347198136019112,0.0012152521628026522,0.00029276610738206697,0.0034566905948286084,0.99999324434734
2025/04/09 10:58:47.434313212,1744189127,433920546,piren,-476.03527459245595,-300.0041652791006,2.3416769547970757,-0.0035350234226775076,0.0002149935498986872,0.003524131542598325,0.9999875188641332
2025/04/09 10:58:47.512492565,1744189127,512055353,piren,-476.0252907612877,-300.0105865810732,2.339818523634421,0.020604364972183816,0.000231379741825013,0.003593510013678871,0.9997812227148947
2025/04/09 10:58:47.665552095,1744189127,665187752,piren,-476.00967511307465,-300.05603955008564,2.3205689109786336,-0.029328692183067554,6.779601004568312e-05,0.003699781549110402,0.9995629719207394
2025/04/09 10:58:47.819561609,1744189127,819280136,piren,-475.9947056428168,-300.00914354016896,2.3388371598396303,-0.026352256581203076,0.0002844110220903181,0.003767059616878753,0.9996455806661139
2025/04/09 10:58:47.901176949,1744189127,898542261,piren,-475.98852360021687,-299.97289079573903,2.3532607935510437,0.002793091223994409,0.00043054898049970465,0.0037576621126378597,0.9999889465611294
2025/04/09 10:58:47.980075926,1744189127,978637625,piren,-475.9766069237139,-299.99245609022717,2.345547365739413,0.031043860059976384,0.0006823630251750575,0.0037777676035252433,0.9995106510714192
2025/04/09 10:58:48.61580497,1744189128,57953415,piren,-475.9694057086294,-300.05714010315086,2.3170150946735926,0.009729957024229725,0.0006193991904600152,0.0037928189518634365,0.9999452779054202
2025/04/09 10:58:48.139237221,1744189128,137923958,piren,-475.9572692250861,-300.0715993816191,2.311345528820481,0.009206240107964472,0.0005785208817877467,0.0038038599511788147,0.9999502193140096
2025/04/09 10:58:48.218782472,1744189128,217539218,piren,-475.94526196977705,-300.0802306523993,2.3080817494631054,-0.008759849850582285,0.0005195890289689111,0.0038908599429567335,0.9999539270720129
2025/04/09 10:58:48.371676872,1744189128,371352009,piren,-475.9280831341941,-300.05845204871497,2.31755577448614,-0.0023970225643109187,0.0005331714803073262,0.0040182283557803,0.9999889118644665
2025/04/09 10:58:48.450292068,1744189128,448975724,piren,-475.9215044720151,-300.0460141625602,2.3233357634435876,-0.0013390536932368624,0.0005048913178935861,0.004017862795397195,0.9999909043578952
2025/04/09 10:58:48.528772637,1744189128,528398654,piren,-475.90922020056695,-300.03901624803234,2.326844190635502,-0.000279825806288881,0.00040217664194958775,0.003913616095775377,0.9999922217500103
2025/04/09 10:58:48.607818827,1744189128,607409421,piren,-475.89704337904,-300.03566907740014,2.3288222964794203,-0.013613426135538245,0.0002041271891314128,0.003921411722547915,0.9998996227077223
2025/04/09 10:58:48.761976863,1744189128,761269273,piren,-475.8792076121716,-300.0104438178036,2.339627928816935,0.0032887115211687554,2.9524597891295017e-05,0.004015697758728966,0.9999865287474323
2025/04/09 10:58:48.918064657,1744189128,916807907,piren,-475.86161566301405,-300.01816245224535,2.3367718176900514,-0.007192369732858091,0.0002039149657530686,0.0040588028660929944,0.9999658765956001
2025/04/09 10:58:49.73284816,1744189129,72889375,piren,-475.84220658652436,-300.0084027570103,2.340791356143574,0.02999637217879853,0.0004475030232394184,0.004086725968050669,0.9995415529471585
2025/04/09 10:58:49.153661091,1744189129,152849726,piren,-475.8342566763393,-300.06528855372767,2.3149791094508494,0.03158877419898924,0.0005201352538712308,0.00409008689654875,0.9994924461911164
2025/04/09 10:58:49.236429833,1744189129,234314163,piren,-475.8198982651911,-300.11087331242413,2.2939731707679614,-0.02715841795506884,0.0003625344063084763,0.004070663529643134,0.9996227881563178
2025/04/09 10:58:49.315287606,1744189129,313823828,piren,-475.8062490856343,-300.04663589472705,2.319731013507118,0.02229411250943437,0.0006337275739005986,0.00409028083817633,0.9997428872162301
2025/04/09 10:58:49.469789446,1744189129,468526951,piren,-475.7849287906647,-300.0761628147267,2.3066838250310195,-0.02518372197561761,0.0005358503765032182,0.004191793602118064,0.9996739077710421
2025/04/09 10:58:49.622379708,1744189129,622007970,piren,-475.76425864817304,-300.0219382971478,2.3288385093494854,0.029190862076532587,0.0006132766118483751,0.004092109416229625,0.9995652915660647
2025/04/09 10:58:49.701535186,1744189129,701193184,piren,-475.7487477025206,-300.06796387518773,2.3091424774648392,-0.028571505292088257,0.00030538981877894367,0.004128903703840156,0.999583177117646
2025/04/09 10:58:49.857586893,1744189129,857130381,piren,-475.7270449933124,-300.0101482659207,2.3331562708564713,-0.029256563134888728,0.00018951373375989465,0.004177315538066118,0.9995631884143066
2025/04/09 10:58:49.960499280,1744189129,960086409,piren,-475.7123365912461,-299.9616402293656,2.3536127748238296,0.00027390849847441236,0.00026873165627440713,0.004155944232396774,0.9999912904045558
2025/04/09 10:58:50.120787586,1744189130,117939184,piren,-475.6896911727575,-299.9689025366329,2.352356514583324,-0.02927067319841655,7.755587031804219e-05,0.004167279834851163,0.9995628321693322
2025/04/09 10:58:50.275132416,1744189130,274778629,piren,-475.6681340631806,-299.93154311259786,2.367754153089137,0.030369560130571602,0.00018498417512382697,0.004155013684758333,0.9995300853199017
2025/04/09 10:58:50.356689828,1744189130,354315515,piren,-475.65963819395733,-300.0122177257969,2.3334593774456516,0.002885619015513777,1.8274518566806305e-06,0.004159237129267181,0.9999871868909422
2025/04/09 10:58:50.434187072,1744189130,433742177,piren,-475.64462049577094,-300.02552297693444,2.329077619373676,-0.028640356708799244,0.0002502524624671996,0.004116148403550356,0.9995812746663565
2025/04/09 10:58:50.515040306,1744189130,513893111,piren,-475.62861308597127,-299.981536313672,2.3465909476857587,0.029248369496602818,0.0004893662910919691,0.003997713609956931,0.9995640608226749
2025/04/09 10:58:50.671371820,1744189130,670074963,piren,-475.6041173864434,-300.04107894883396,2.320653335338943,0.006710902720171119,0.0008424027671680479,0.003814604290909928,0.9999698510137004
2025/04/09 10:58:50.753307845,1744189130,749477850,piren,-475.59473616010456,-300.0499614688458,2.3177967201941887,0.0017518561921481286,0.0007890848761184989,0.003818792043974229,0.9999908625443861
2025/04/09 10:58:50.830458949,1744189130,829303708,piren,-475.5777316754672,-300.05119567476913,2.3180222819365124,0.017581278479784513,0.0008118026912973463,0.0038775142056299812,0.99983758906484
2025/04/09 10:58:50.910209473,1744189130,909832993,piren,-475.56057876483277,-300.07727908692294,2.3072320591577675,0.029185095699912556,0.0007943900432044107,0.0038563225799203658,0.9995662698939005
2025/04/09 10:58:51.67537535,1744189131,67177560,piren,-475.53529562256443,-300.1201583979,2.288648550544915,0.0317425429312014,0.0005061555695236756,0.0036938488868516945,0.9994891246307793
2025/04/09 10:58:51.227332770,1744189131,225051072,piren,-475.50997044938225,-300.15784170798366,2.2722249538620254,-0.006670028468575539,0.00022315404770353883,0.003657811981324528,0.9999710402476707
2025/04/09 10:58:51.382553446,1744189131,382155669,piren,-475.4866119702975,-300.11917883920654,2.2898307302980143,0.03251991609842936,0.00041186810988623685,0.0036345505524514312,0.9994643942952111
2025/04/09 10:58:51.462683135,1744189131,462326997,piren,-475.46915003899863,-300.1443161634309,2.278418788912695,-0.006408618056788681,0.0003701358806882645,0.003646858706335705,0.9999727461464178
2025/04/09 10:58:51.621647089,1744189131,621345753,piren,-475.44309886379745,-300.1012157240883,2.2974278162091624,-0.008996704713068657,0.0004733850120957852,0.003585592680721243,0.9999529882629804
2025/04/09 10:58:51.703599648,1744189131,702447168,piren,-475.4342055545764,-300.0586565197308,2.315762024054161,-0.025261458559596293,0.0004244331858563762,0.0035871087093255175,0.999674352586391
2025/04/09 10:58:51.784414736,1744189131,784005210,piren,-475.4166262479496,-299.9961452605583,2.341051097273977,-0.002224353563752235,0.0006026527435298055,0.0034557529140317126,0.9999913733791364
2025/04/09 10:58:51.866894396,1744189131,864408094,piren,-475.3984698300052,-299.9874559830498,2.345011975764146,0.0006978205461084437,0.0006735429900826894,0.0034541359090640685,0.9999935641450137
2025/04/09 10:58:52.21859317,1744189132,21473131,piren,-475.37101086287265,-299.98190109193916,2.3474752667469967,0.03128885735087385,0.0004665014888270328,0.003391778683511261,0.9995045200595142
2025/04/09 10:58:52.131250036,1744189132,129882942,piren,-475.35352693042375,-300.0399908532675,2.3212991454755207,-0.027279204925408623,0.00024937311881289865,0.00333445992972316,0.9996222607408571
2025/04/09 10:58:52.211496041,1744189132,211098538,piren,-475.33534160695194,-299.9890079976007,2.341697723851592,0.024031938194755485,0.00032642775848449056,0.0033122526251251998,0.9997056508663285
2025/04/09 10:58:52.368833413,1744189132,368535508,piren,-475.3076381385732,-300.0321040915151,2.32334546125826,-0.007281407829534851,0.0005156667842819144,0.0030269072496448553,0.9999687760226765
2025/04/09 10:58:52.526790756,1744189132,526438313,piren,-475.27950822148125,-300.02066966754956,2.329239941705481,-0.016264803625986743,0.0002803083056604882,0.002942528655941151,0.9998633502211044
2025/04/09 10:58:52.607783216,1744189132,606494507,piren,-475.26221502075305,-299.9951751228144,2.3406411094395927,-0.02666998447012375,6.845527609073391e-05,0.0029439180430383834,0.9996399554783685
2025/04/09 10:58:52.765949704,1744189132,765519424,piren,-475.23388212272033,-299.9552985546295,2.357010699938625,-0.018867903320125393,0.0001939739535086596,0.002927200435366984,0.9998176814279787
2025/04/09 10:58:52.924506784,1744189132,923986100,piren,-475.2051286168112,-299.9360066589442,2.36523238912392,-0.020406403210139357,0.0002812753231378818,0.0028421996063175184,0.9997876882086595
2025/04/09 10:58:53.7841727,1744189133,5465529,piren,-475.1952427763564,-299.9292839527256,2.367908246386825,-0.028578188404147012,0.00011321254843411435,0.0028347046514500887,0.9995875343260314
2025/04/09 10:58:53.87839375,1744189133,87472924,piren,-475.17606274420825,-299.9062425022957,2.3764652050849695,0.02074687932452083,0.00039848966006674256,0.00288410367660106,0.9997805209896156
2025/04/09 10:58:53.168624462,1744189133,168198640,piren,-475.1560021796343,-299.9725692317245,2.348426480738398,-0.0070279798372596645,0.0007296982046698986,0.002894790845772286,0.999970847188005
2025/04/09 10:58:53.327321916,1744189133,326055929,piren,-475.1256764602837,-299.9811067854639,2.3451761882105253,-0.0011687580154579364,0.00030698321606577295,0.00281387623539271,0.9999953109222754
2025/04/09 10:58:53.409262034,1744189133,407940307,piren,-475.1071311326452,-299.99574478002177,2.339526146371449,-0.02718821947631812,0.0006247155274776402,0.0027403677841454713,0.999626380622593
2025/04/09 10:58:53.566136149,1744189133,565598057,piren,-475.07654191469624,-299.96517576868246,2.3514013432143814,-0.016163908630289978,0.0005274239519755574,0.002517466316325211,0.9998660471508735
2025/04/09 10:58:53.724117182,1744189133,723757023,piren,-475.04575683502446,-299.9563423812817,2.3554842996615117,0.03299513178221078,0.0004938672063628678,0.002556003140022426,0.9994521220257653
2025/04/09 10:58:53.806279839,1744189133,804769937,piren,-475.0352897747776,-300.0340739234109,2.3218178703048693,-5.501233758822039e-05,0.0002563044096322151,0.0025709321478126824,0.9999966607892167
2025/04/09 10:58:53.887547736,1744189133,887183505,piren,-475.0150505781935,-300.0398340035546,2.3207717065296376,0.005716069140394272,0.0001954912989325579,0.0025956854619967624,0.9999802751823242
2025/04/09 10:58:53.970516718,1744189133,970233179,piren,-474.99576751128654,-300.0514669754989,2.316983519821047,0.006548004612373986,0.0002226312180117748,0.002595079806396356,0.9999751695075911
2025/04/09 10:58:54.136128377,1744189134,133225979,piren,-474.9649983777951,-300.0637749791053,2.313068343252436,-0.012900590212443728,0.00026884686544651685,0.0025464207271675868,0.999913505376847
2025/04/09 10:58:54.219543862,1744189134,215069639,piren,-474.94461011869186,-300.0343873530998,2.32530703414649,0.0011054375592822096,0.00040353111581468125,0.002485461181200902,0.9999962188194302
2025/04/09 10:58:54.324175381,1744189134,323155771,piren,-474.9239241236838,-300.0329092797582,2.3259329267987425,-4.3012535469129744e-05,0.0005002533731314943,0.002435859408327843,0.9999969072379311
2025/04/09 10:58:54.405930365,1744189134,405545701,piren,-474.9030635568839,-300.0290044366326,2.3274304145484357,0.02894177918205076,0.0006566518826696315,0.002428329978185168,0.9995779336497977
2025/04/09 10:58:54.566361072,1744189134,565959455,piren,-474.87106979070904,-300.10841700641686,2.2904712695594154,-0.02903358177802654,0.00045676208499486785,0.0022988836270380116,0.9995756887958039
2025/04/09 10:58:54.728275205,1744189134,727273202,piren,-474.8410297555043,-300.04108443214983,2.317143688509226,0.023125421704516782,0.0006058049296717531,0.0022168480925709813,0.9997299302591225
2025/04/09 10:58:54.810261351,1744189134,809880076,piren,-474.8194835822355,-300.0687296764395,2.3053582536862285,0.001146117387961409,0.0006154718072501717,0.0022292211579950385,0.9999966690856606
2025/04/09 10:58:54.972044885,1744189134,971481031,piren,-474.787430376804,-300.05588784644647,2.3117182596475208,-0.03120512876854511,0.00030651510944497423,0.0022064385462583313,0.9995105190121653
2025/04/09 10:58:55.55375185,1744189135,54160918,piren,-474.77708563488795,-299.9899604285592,2.33863284681194,-0.025523290269542965,0.00025829566262412475,0.002116422918797263,0.9996719540385217
2025/04/09 10:58:55.146153765,1744189135,144657694,piren,-474.7555537700773,-299.94761595982254,2.3565239291580693,0.02370124628319701,0.0003308422223014626,0.001953994117488381,0.9997171216774453
2025/04/09 10:58:55.231630649,1744189135,229602105,piren,-474.73578512995334,-300.0012011078491,2.3345448017586214,-0.030575566239297743,0.00011475764167098112,0.002135923894058813,0.999530169334047
2025/04/09 10:58:55.312982862,1744189135,312659841,piren,-474.71424045023974,-299.9534136217686,2.3541498738063718,0.027053631882264808,0.00026168065370739396,0.002095566167665361,0.9996317527608111
2025/04/09 10:58:55.475119800,1744189135,473910464,piren,-474.68228048433025,-300.008553884129,2.330958681804323,0.0010246207551309536,-1.0495416089936678e-05,0.0020069566269317503,0.999997461080403
2025/04/09 10:58:55.555708483,1744189135,555259483,piren,-474.66133930891795,-300.01722578409243,2.3288036824221217,-0.004576911051264735,0.0005934480605491491,0.002007887478177203,0.9999873339660375
2025/04/09 10:58:55.718463996,1744189135,718082987,piren,-474.6278154015286,-300.00727195678814,2.3340793685415946,0.0009533918954490607,0.0006430683974322159,0.0017492419968627444,0.9999978088272826
2025/04/09 10:58:55.802163574,1744189135,801839289,piren,-474.60740507189365,-300.0126554575715,2.331973519566562,-0.034313879638539935,0.0005678779997316851,0.0018661705217859102,0.9994092017718834
2025/04/09 10:58:55.965131777,1744189135,964818023,piren,-474.5745169074836,-299.9572670191491,2.3529469057913612,0.03322037604291377,0.0006114433771442848,0.0017878079694257439,0.9994462649363539
2025/04/09 10:58:56.127640730,1744189136,127286579,piren,-474.54150067109236,-300.02272475923735,2.32381126675443,-0.018186816500528787,0.00043617214514706627,0.0019463144119507847,0.9998326166512301
2025/04/09 10:58:56.211793218,1744189136,209677102,piren,-474.5199912635607,-299.9947993861021,2.335936649248117,0.010773458554560937,0.00040795966885118033,0.0019297197675084928,0.9999400193718125
2025/04/09 10:58:56.374067711,1744189136,372989092,piren,-474.48739210656527,-300.0208461664479,2.3259630573354624,0.026257038909841997,0.0002790487138926302,0.0018302911991777493,0.9996535100091574
2025/04/09 10:58:56.456579964,1744189136,456133352,piren,-474.4673172809376,-300.0670326178465,2.3065046423391182,-0.022664657016216217,0.00017443500525084806,0.0017791228450564501,0.9997415254037758
2025/04/09 10:58:56.564667747,1744189136,564404635,piren,-474.4455637599529,-300.0209361559287,2.3260435226346003,0.0015534722022062923,0.0002403982033306503,0.0016762602343030775,0.9999973595387378
2025/04/09 10:58:56.727306583,1744189136,726799636,piren,-474.4123679979289,-300.0237388923093,2.3259644886751047,-0.030992248862781506,0.0003162637086780936,0.0018087487336655435,0.9995179382660986
2025/04/09 10:58:56.810452509,1744189136,810052115,piren,-474.3905069004971,-299.9697667361967,2.3473605842089995,0.0009752465013927607,0.0003543621276270008,0.001798053505275789,0.9999978451603465
2025/04/09 10:58:56.974880167,1744189136,973698551,piren,-474.35756404229704,-299.9773908545483,2.344815286552789,-0.028199467739960897,0.0004662361564235904,0.0017342005395527852,0.9996007028766626
2025/04/09 10:58:57.141088959,1744189137,137844982,piren,-474.3256883401623,-299.9378503535087,2.3601728475615706,-0.002244235359829594,0.0005597751779830163,0.0016981611532952943,0.9999958831455744
2025/04/09 10:58:57.221744839,1744189137,221394665,piren,-474.3031004904863,-299.9534805605095,2.354164176286914,0.0033239240117817407,0.0005091591789327094,0.0017431032088908705,0.9999928269129222
2025/04/09 10:58:57.304846166,1744189137,304394116,piren,-474.2807613483345,-299.97697159193126,2.3447919462404663,-0.03341633201018376,0.0004764229018140694,0.0017673990690936256,0.9994398421499587
2025/04/09 10:58:57.467278686,1744189137,466878959,piren,-474.24791853450006,-299.9343422056346,2.3609688354253526,0.029512834663704097,7.329342226240269e-05,0.0016642299726333876,0.9995630132997047
2025/04/09 10:58:57.630391053,1744189137,629946830,piren,-474.2152296713096,-300.00372366419526,2.331136890503434,-0.0018461370377143853,0.00029501259997696697,0.0016379407948512806,0.9999969109430071
2025/04/09 10:58:57.713154898,1744189137,712784361,piren,-474.1935717392453,-300.01150682698926,2.329218547907679,-0.0024519671658457588,3.2146926194635764e-05,0.001637946886262191,0.9999956519673425
2025/04/09 10:58:57.876822687,1744189137,876413539,piren,-474.16294170422265,-300.0174899080181,2.327831525336318,-0.0017785692461014895,2.768202307947258e-05,0.0016423632134977652,0.9999970692798142
2025/04/09 10:58:57.960347998,1744189137,959930077,piren,-474.14097664159146,-300.019026960874,2.327999002264855,-0.002095725307350929,0.00044964017707179994,0.0015511440111631504,0.9999964998495764
2025/04/09 10:58:58.123663226,1744189138,123366368,piren,-474.1069846086765,-300.0203085416207,2.3280185125471444,-0.02836651930837236,0.0003468352077126999,0.001492256073271848,0.9995964152894298
2025/04/09 10:58:58.207933225,1744189138,206275489,piren,-474.0849789102931,-299.97294631629615,2.346356718573206,-0.0019072112870895767,0.0004685871153005765,0.0014822455800666133,0.9999969729550496
2025/04/09 10:58:58.369329286,1744189138,368949429,piren,-474.05183444914957,-299.9774863993198,2.3446548812592156,0.002758285503879155,0.0005198911261395354,0.0015957413485194062,0.9999947875783377
2025/04/09 10:58:58.532187442,1744189138,531801992,piren,-474.01849688586935,-299.9913683174071,2.3389760942161195,-0.03367741346845934,0.000492041372271341,0.0016011182257615107,0.999431351388273
2025/04/09 10:58:58.615165668,1744189138,614806144,piren,-473.9980169008264,-299.94245376137474,2.3573455388729547,0.0074056005856835356,0.0004818248460004762,0.001594943489820246,0.9999711901250192
2025/04/09 10:58:58.724889750,1744189138,724396203,piren,-473.9756399578316,-299.97388076059116,2.344743627358869,0.0014150964066435403,0.00037299729384328095,0.001585911627017656,0.9999976716270343
2025/04/09 10:58:58.810198731,1744189138,809859085,piren,-473.9534072776841,-299.9902017047756,2.3385957930864705,-0.033544434932554615,0.00033762118887160935,0.001606779840757197,0.9994358784612107
2025/04/09 10:58:58.975768016,1744189138,974115972,piren,-473.92095733253973,-299.9449309924463,2.356002214049216,0.0032341828485819945,-3.241540988282819e-05,0.001567136209953075,0.9999935415264654
2025/04/09 10:58:59.58307351,1744189139,57914695,piren,-473.89982195522634,-299.97040054668406,2.346368649938618,-0.030874031622592907,0.00025347862522708496,0.001564568864632166,0.9995220267929175
2025/04/09 10:58:59.222780812,1744189139,222341715,piren,-473.8686259641136,-299.9335151304972,2.360758353136841,0.026526282807741098,0.0002866027733590237,0.001540811186494788,0.9996468876959212
2025/04/09 10:58:59.307420077,1744189139,306657970,piren,-473.846544767949,-300.00118031422784,2.3320609787158473,-0.025887789820878887,0.00028157780912902727,0.00155053065991022,0.9996636128752512
2025/04/09 10:58:59.471046327,1744189139,469929715,piren,-473.8137801683565,-299.96984375160315,2.3447160540312613,-0.0047241183401651315,0.0004110110350481695,0.001603749921577598,0.9999874708025227
2025/04/09 10:58:59.553387100,1744189139,553106620,piren,-473.8024565030005,-299.97708289301835,2.3427975304222497,-0.00033535010192901557,0.0004632739793348123,0.0015783154324353654,0.9999985909179697
