time,header_stamp_secs,header_stamp_nsecs,header_frame_id,twist_linear_x,twist_linear_y,twist_linear_z,twist_angular_x,twist_angular_y,twist_angular_z
2025/04/09 10:58:24.161635903,1744189104,150149013,piren,-0.00017725152142164283,0.06285772972758565,0.03190935683606797,0.0008310738774782646,1.785777218692639e-05,1.0034340948758129e-05
2025/04/09 10:58:24.280364952,1744189104,260258931,piren,-0.00025924892495306337,0.10749894849092187,0.046237095940954334,-0.0008045862073373539,-0.00020787737953599205,2.1069261302664237e-05
2025/04/09 10:58:24.437714029,1744189104,415201866,piren,0.003438392637579982,0.022548608672720412,0.011772890447174156,-0.0009949366136019985,-0.0017039311494396238,0.0006663063706667563
2025/04/09 10:58:24.688797072,1744189104,684550858,piren,0.00459934257664582,-0.15235007991447158,-0.06282393142633262,-0.000793784866902465,0.0006697190753555836,0.0011476308206130389
2025/04/09 10:58:24.760273871,1744189104,756765934,piren,0.0027932228119049492,-0.12271731305956557,-0.04701731160621523,0.0006847989803770989,0.0009640431365408803,0.0
2025/04/09 10:58:24.897324826,1744189104,895363442,piren,-0.0008872771189574171,-0.11146957770466434,-0.04293827970768512,-0.0006634117069361854,0.0016385256691549726,0.008113677609625655
2025/04/09 10:58:24.970961048,1744189104,967248058,piren,-0.002620620792829956,-0.07808152817548059,-0.028008250156428167,0.0008504230144339249,0.0019739830157037295,0.0012607263303523054
2025/04/09 10:58:25.111284311,1744189105,106305768,piren,-0.005090199626119092,-0.06229775997442223,-0.026994483111576716,0.001027749370088522,0.001660518331799864,-0.00011914859197673512
2025/04/09 10:58:25.252283004,1744189105,244316243,piren,-0.002935207319638285,0.07072843271093997,0.02369269327880681,-0.0007342168453331457,0.0002685897454895343,-0.00043532761100203407
2025/04/09 10:58:25.342853431,1744189105,338812845,piren,-0.0015237633558693904,-0.06556519378359495,-0.036112207170301204,0.0009557060120483233,-0.0011023029474920153,-0.0004320643767229323
2025/04/09 10:58:25.415730107,1744189105,410164349,piren,-0.0007204857413996745,0.06723103266292267,0.018515968628723203,-0.0008450831003444725,-0.0021374459885543503,-0.00041638554997217286
2025/04/09 10:58:25.549729094,1744189105,547134364,piren,-0.00043383776079968515,-0.06784246166438952,-0.038718912069960615,0.000826255767629428,-0.0026334193611915187,-0.0004672957899888867
2025/04/09 10:58:25.626651790,1744189105,621437676,piren,-0.0004768709480424979,0.06547579558277071,0.018314958636181967,-0.0009687578513229833,-0.002501755390586282,-0.0003571412094836865
2025/04/09 10:58:25.765312265,1744189105,761980879,piren,-0.0006431321789215723,-0.07464978893998031,-0.034354113542432695,0.0005790748381216871,-0.0013083310235016612,-0.00034393007273898323
2025/04/09 10:58:25.908231015,1744189105,902048621,piren,-0.0005984487562599668,-0.05582399596136879,-0.025810855971217288,0.0007309669852298261,0.0004451389289688017,-0.001444995473982395
2025/04/09 10:58:26.43981953,1744189106,40191818,piren,-0.0006118529867217776,0.0788785300548408,0.028471799254039726,-0.0009681398053585296,0.0014600863624701494,-0.0006216303400576558
2025/04/09 10:58:26.115524274,1744189106,111443768,piren,-0.00036031651423634487,-0.05740505556510153,-0.027963136255914376,0.0008251471302834728,0.002090256356415504,-0.0002852762907582413
2025/04/09 10:58:26.254560569,1744189106,251487459,piren,6.582723497440139e-05,0.07714988419392343,0.02659521644912024,-0.0008505063518323618,0.002219663078063531,-0.0002647993696735594
2025/04/09 10:58:26.330862929,1744189106,321972035,piren,0.0005685260712207338,-0.05876048222971568,-0.029827561087483214,0.0009445285413813032,0.001832766520482035,-0.0002559991618204343
2025/04/09 10:58:26.394853638,1744189106,392463193,piren,0.0009156980602776276,0.0711790505635862,0.02789933973679195,0.0008205663741667464,0.001474052646012867,0.0
2025/04/09 10:58:26.465231105,1744189106,463072828,piren,0.0012071120263686813,0.031158044975903236,0.01517007360471668,-0.0005920895670589863,0.0005704657725297143,-0.00026530681196091374
2025/04/09 10:58:26.604373955,1744189106,600254918,piren,0.0010433314032754792,0.021303258689094395,0.01278226154858074,0.0008702635740915309,-0.0004386366339735966,0.0
2025/04/09 10:58:26.673732758,1744189106,671531544,piren,0.0010137648665417252,-0.005252344677990919,0.002868352316515269,-0.0005968308558036848,-0.0012716987629478864,-0.00024130593623208443
2025/04/09 10:58:26.812413198,1744189106,809283310,piren,0.0004972823684672525,-0.0038129253686214203,0.0039580742939015895,-0.0008071519207426667,-0.0018817776163307142,-0.00011118793876581669
2025/04/09 10:58:26.949954644,1744189106,948009104,piren,-0.00016557692647989152,-0.11614462539327282,-0.05496553198551627,0.0008728598604181257,-0.0017384590638348356,-0.00019654440406601003
2025/04/09 10:58:27.23281093,1744189107,19759537,piren,-0.0007129162190597905,0.03324692976625439,0.01106887259347832,-0.0009227944319531254,-0.0012019665721358667,-0.0001866333186660321
2025/04/09 10:58:27.162465488,1744189107,159190641,piren,-0.0010561409787608641,-0.0905800153293513,-0.03936408730422534,0.0006097038529637691,6.05890936359126e-07,-0.00017806225201148548
2025/04/09 10:58:27.302888396,1744189107,299301707,piren,-0.0009566989686734758,-0.0636647800085929,-0.026071999615074067,-0.0008152863331406995,0.0008264228218273269,-0.0009177519245210673
2025/04/09 10:58:27.373408716,1744189107,370272282,piren,-0.0009595801160094772,-0.022609378916228173,-0.0066891502568497165,0.0005836621901171769,0.00135443000672905,-0.00029293385248558624
2025/04/09 10:58:27.512656895,1744189107,509860108,piren,-0.000596567619926948,-0.011658392651578435,-0.0024075711872074594,0.0007549041486490723,0.00158799178621332,-2.3964785274558947e-05
2025/04/09 10:58:27.651710804,1744189107,647533121,piren,-6.779994107382143e-05,0.11640822381388642,0.0405457406297382,-0.000917007948419727,0.001280377669949339,-4.243016595436046e-05
2025/04/09 10:58:27.744635838,1744189107,742076185,piren,0.00042536205290368446,-0.02892634170682556,-0.017047873800883774,0.001016118279291933,0.0010845147863591121,-4.982527931280828e-05
2025/04/09 10:58:27.816535382,1744189107,813813556,piren,-0.0008787766615410218,0.09750395674415187,0.03004794047355786,-0.0003849973430675662,0.0007347060155687432,-0.00017146175201001186
2025/04/09 10:58:27.955808526,1744189107,953263638,piren,-0.0013254514443314773,-0.048155527560647525,-0.028467501696677094,0.0018178598624642552,0.0002273744682854507,-0.0003449078068702124
2025/04/09 10:58:28.27914005,1744189108,23748143,piren,-0.0015575734482718069,0.07543709944247026,0.026666421621028846,0.001627437759767502,-0.0003899428663019519,-0.0005037581997850911
2025/04/09 10:58:28.99656547,1744189108,97312846,piren,-0.0014550794813202796,0.03907375804966678,0.015132745114639901,0.002987657299312599,-0.0006547192882752576,0.0
2025/04/09 10:58:28.175421116,1744189108,170173257,piren,-0.000998257833213924,-0.004185677328253923,0.0004152396324619959,0.0009668865168752181,-0.0009778848302792315,-0.0007811705517934229
2025/04/09 10:58:28.318755647,1744189108,312436828,piren,0.0005686664514866651,-0.12068502416054566,-0.049665941633090134,0.0026482544355799402,-0.0012127254387877958,-0.0004386891194227997
2025/04/09 10:58:28.460701788,1744189108,456530416,piren,0.00348683930256019,-0.08384403768809297,-0.030267652708241048,0.0020406041444941485,-0.0007552979641564072,-0.001049447047418504
2025/04/09 10:58:28.602358260,1744189108,599205228,piren,0.007321923362716146,-0.07751376144953964,-0.032985834983580715,0.0017244033287700012,-0.00025920223325076483,-0.004878616097981369
2025/04/09 10:58:28.674486780,1744189108,670711556,piren,0.011633291037660295,0.06876953879570079,0.025502293591934462,0.0004271597878992539,0.0001808785673561348,-0.0013792130835716258
2025/04/09 10:58:28.813074987,1744189108,810746619,piren,0.01902557807402542,-0.07642187746444395,-0.037985787749118316,0.001075937828944957,0.0006557784154046889,-0.0007237790553906428
2025/04/09 10:58:28.953228178,1744189108,950554703,piren,0.027094330194733524,0.058700744987129586,0.022692061332967667,0.00038864385449866745,0.0009460385533168717,-0.0015450892435008672
2025/04/09 10:58:29.25258855,1744189109,22461040,piren,0.035341919908292364,0.0186111315116899,0.010116093470021384,-0.0007341597576807759,0.000941376204585021,-0.0013875502010668194
2025/04/09 10:58:29.165736547,1744189109,163332387,piren,0.047002103090807434,0.03265172314775281,0.01775984860396327,-0.0023582497510502265,0.0006106862438395399,-0.0011591843145052818
2025/04/09 10:58:29.305588351,1744189109,303592566,piren,0.060366689504323404,0.018658170312157867,0.011637706539009451,-0.0020114359757160204,-0.0005426282907074004,-0.0007752979452529736
2025/04/09 10:58:29.444721000,1744189109,442091416,piren,0.07444763804221258,-0.11492898302850693,-0.04268547415515787,-5.768042276816698e-05,-0.0014287176911163737,-0.0012456338788852978
2025/04/09 10:58:29.516383493,1744189109,513347548,piren,0.08667400806854324,-0.12322444781684179,-0.05658101220286255,-0.00037465880250285837,-0.0019516231843261331,-0.001253238950328624
2025/04/09 10:58:29.656189821,1744189109,653153261,piren,0.09739145767200026,0.030913770244491736,0.014461947905331306,-0.0008592691147025014,-0.0019864339971837437,-0.001174697776675288
2025/04/09 10:58:29.727919696,1744189109,724557524,piren,0.10657469236700676,0.01784861618477808,0.011561813831367696,-0.0005027992860782454,-0.0017046918562653713,-0.0010814762681292263
2025/04/09 10:58:29.866641482,1744189109,864376002,piren,0.11735287105876877,-0.006684162563448562,0.003021075696565405,0.00032297251840317356,-0.0006348854587054432,-0.0009274516386850326
2025/04/09 10:58:30.34240014,1744189110,29940770,piren,0.12670245533240743,-0.009463711951299046,0.001961041872969042,0.0008626561281558525,0.0010157670591863007,-0.0005147748009357907
2025/04/09 10:58:30.104643041,1744189110,101799869,piren,0.13410855187471707,0.10508247696826914,0.053383602584936005,0.001979907441313957,0.0014476975857451908,0.0
2025/04/09 10:58:30.176923233,1744189110,175135772,piren,0.14089673036497113,0.15959200571177068,0.07068891820354153,0.00035251610577989036,0.0020668873251804168,-0.0009387934902875562
2025/04/09 10:58:30.318705131,1744189110,315849521,piren,0.14933726392344027,0.10697718505966239,0.0467786571131302,0.0006479572234128125,0.002062674585084986,-0.0004615017861962723
2025/04/09 10:58:30.457736313,1744189110,455935643,piren,0.15810363848381287,0.02465948941091932,0.013605551650747063,-0.00031744000666069207,0.0010557730309166068,-0.0007105540950789338
2025/04/09 10:58:30.598772952,1744189110,596480005,piren,0.1658319452274088,-0.02233530252547147,-0.0066766909659175255,1.3253276111526667e-05,6.692670449157593e-05,-0.003237887282095024
2025/04/09 10:58:30.672210232,1744189110,668111722,piren,0.17255090819264005,0.017135457349729228,0.009436700846789802,-0.0012427158551482176,-0.0009178878301220483,-0.0006294926861944962
2025/04/09 10:58:30.811841783,1744189110,808725594,piren,0.17965335343996935,-0.023636095066585983,-0.006922460458307144,-0.0007744710267829835,-0.0018868017362024402,-0.0002794864530996215
2025/04/09 10:58:30.954086457,1744189110,950572712,piren,0.18864254105160078,-0.05663475891806129,-0.02019706531450617,-0.0009184392129393747,-0.0018543655695865548,-0.00046983086040945995
2025/04/09 10:58:31.93718221,1744189111,91406596,piren,0.196381754490708,-0.06832773303574426,-0.029948154540650408,-0.0007957397630509792,-0.0012697932443144517,-0.0021789780747443165
2025/04/09 10:58:31.167326148,1744189111,164741838,piren,0.20232656530875612,0.04795751553219545,0.01974913302594615,-0.0011353377423163535,-0.0003846818344845159,-0.0004544624432331198
2025/04/09 10:58:31.309128640,1744189111,306324646,piren,0.20782026081753321,0.005291327384009254,0.003182959473876669,-0.0014980642474490763,0.0010047243825184703,-0.00022000024319692512
2025/04/09 10:58:31.455925692,1744189111,452202241,piren,0.21277712422127446,-0.12536185905505037,-0.06168270806434024,0.0008417359854993326,0.001650791833454886,-0.0003832985541082802
2025/04/09 10:58:31.527724059,1744189111,525289012,piren,0.21719227671549304,0.0004925994764050897,-0.002211388680244864,0.0022790066223540824,0.0018815616282906792,-0.00039315782116315596
2025/04/09 10:58:31.668319011,1744189111,666272673,piren,0.22194171614697064,0.05200039413256589,0.020567580949970906,-0.00027136879295523643,0.001460739187928384,-0.00038394628596262996
2025/04/09 10:58:31.809826381,1744189111,807814208,piren,0.22854626041396137,0.01511969020291502,0.0073313703332683,-0.0003456930495892235,0.00029097778962154533,-0.0002003021836977567
2025/04/09 10:58:31.954580738,1744189111,950168824,piren,0.23400926248466117,-0.010577586770744071,-0.001898882386372641,0.0007628191881732361,-0.0005683021278487869,-0.0003266809106379455
2025/04/09 10:58:32.29129875,1744189112,21940279,piren,0.23841137461169062,-0.04495502470278813,-0.012798080649991883,-0.002082690864389482,-0.001264876021329129,-0.0003106809598572988
2025/04/09 10:58:32.167875500,1744189112,164535743,piren,0.24292450502149984,-0.14563093458031118,-0.059240590446683276,-9.622956946904171e-05,-0.0016792000101125218,-0.00030018454014193617
2025/04/09 10:58:32.309987439,1744189112,306938317,piren,0.24680381108021718,-0.11036314572021974,-0.04527913509987081,-0.0015901170472188083,-0.0012277455038218659,-0.0015149479675387793
2025/04/09 10:58:32.477741304,1744189112,474891008,piren,0.2530982835880542,-0.005375598787758666,0.001493221790685793,-0.000335492797658727,-0.00021459726808643542,-0.0005644456410958125
2025/04/09 10:58:32.620021114,1744189112,616863584,piren,0.25682302272502067,0.01264132993819388,0.008944413975160095,-0.002358633001376427,0.000881534132647197,-0.00012502245032229773
2025/04/09 10:58:32.691870801,1744189112,689284228,piren,0.2568245737383426,0.01257810529083695,0.00898890187915278,4.681621762329597e-05,0.0011485616123037099,0.0
2025/04/09 10:58:32.764486104,1744189112,762014896,piren,0.2625943646951418,0.004576764301176914,0.004967263370009708,-0.00021227211045937177,0.001523044148975738,-0.00022476461051601837
2025/04/09 10:58:32.907420362,1744189112,905451253,piren,0.26714486139789223,-0.06960054311850809,-0.029468654006741514,8.745613017751525e-05,0.0014040668728716318,-0.00010060453885227465
2025/04/09 10:58:33.50670464,1744189113,47893497,piren,0.2709162086767415,-0.011931819227278428,-0.005174998922799284,0.0020668750314238476,0.0009074218366582503,-0.00017672962110143773
2025/04/09 10:58:33.123221591,1744189113,121060099,piren,0.27396544300593567,0.10125364348664892,0.03552399821461032,-0.000766992486424601,0.00020399214151049344,-0.00016614365851197355
2025/04/09 10:58:33.197016920,1744189113,194725650,piren,0.2779636419783117,-0.0015155464091605917,-0.0036224517574818694,0.0004190552557556511,-0.00017333401613217964,0.0
2025/04/09 10:58:33.270687882,1744189113,268439533,piren,0.2804879833368681,0.12501044726071214,0.046105830932004,0.0010480324001578046,-0.0008609525408625799,-0.00016310819438230666
2025/04/09 10:58:33.414500222,1744189113,411750355,piren,0.2827154328787304,0.05940999752972226,0.026640535733080627,0.0016368398243269192,-0.0014329697977759617,-7.050190923523586e-05
2025/04/09 10:58:33.557378859,1744189113,554226457,piren,0.28355235308620946,0.12537734166078282,0.04265442459295975,-0.0018422036298421727,-0.0014004947728395722,-0.00011603909990123962
2025/04/09 10:58:33.630041782,1744189113,627346498,piren,0.28448530863803956,-0.04426552348376333,-0.01893616478737992,-6.561148942129969e-05,-0.0010403225062431013,-0.00011897183900181035
2025/04/09 10:58:33.702161793,1744189113,699827043,piren,0.28448530797629135,-0.04368849743807071,-0.02023191721674855,2.2217834417203712e-05,-0.000770339028443481,0.0
2025/04/09 10:58:33.775382687,1744189113,773211173,piren,0.2879151190482415,-0.054600461836383826,-0.02552306487815263,-0.00037210587678383766,-0.00012908772319043178,-0.00014241240563665699
2025/04/09 10:58:33.849697843,1744189113,845845298,piren,0.2913180660755709,0.0638587963180142,0.022190659419518838,-0.0021047000862073084,0.0002322069791566433,0.0
2025/04/09 10:58:33.923706009,1744189113,919785933,piren,0.2933494657323689,-0.08512510112150738,-0.030252135485059783,-0.0008089516864401179,0.0008836419465789066,-0.00011216377328743059
2025/04/09 10:58:34.65711488,1744189114,62794741,piren,0.29563768783747557,-0.17806917468845856,-0.08686473940418404,0.0009219469172509474,0.0014109121568102892,-0.00011539249739117589
2025/04/09 10:58:34.211676874,1744189114,208876114,piren,0.29982516009199306,-0.01807477457359095,-0.0073944490899333585,-0.000885776513472051,0.0012225099579074637,-6.110619197473225e-05
2025/04/09 10:58:34.355683075,1744189114,352308414,piren,0.3040789195854033,-0.09181814782422083,-0.04123532076832914,0.0010518437505688198,0.0001910482741689624,-0.00012102363231068361
2025/04/09 10:58:34.497463769,1744189114,495037354,piren,0.3072633161412443,0.001922132331795522,0.003088574313972514,-0.0001518221158875056,-0.00042041751344713504,-0.0012367390866286226
2025/04/09 10:58:34.571076654,1744189114,568399296,piren,0.3093131158407374,0.024979862931486643,0.014980124644849616,-6.885773719212738e-05,-0.0009485695117094858,-0.00010135469461750428
2025/04/09 10:58:34.713745847,1744189114,711142989,piren,0.3106216272974497,0.03501442077362866,0.022621586901574585,0.001584351546989727,-0.0013315032950216414,-3.942045458708732e-05
2025/04/09 10:58:34.817311427,1744189114,814564551,piren,0.3117196412182313,0.13886907931378129,0.05993854530467809,0.0008014855284181891,-0.0011877569972618255,-6.457987010800101e-05
2025/04/09 10:58:34.960776124,1744189114,958032976,piren,0.31269969017942506,0.07792947738820723,0.04195137518925319,0.0011013090816641095,-0.0007253313880073185,-6.197857476531486e-05
2025/04/09 10:58:35.36048374,1744189115,32810574,piren,0.31579219894265803,0.1550409519999784,0.055285494009920895,-0.0007226065054911185,-0.00011765903758457801,-6.705586248976415e-05
2025/04/09 10:58:35.109792457,1744189115,107113716,piren,0.3184008297935095,-0.031359938481654505,-0.016422763334146072,0.0010201975641239678,0.0004964141036141815,-6.165340524631354e-05
2025/04/09 10:58:35.255158376,1744189115,252160779,piren,0.32093268135597347,0.0664873458441145,0.030010886902223047,0.00030434355555872445,0.0011598062103225651,-6.377652608905529e-05
2025/04/09 10:58:35.402217976,1744189115,396810775,piren,0.32262933513587455,0.11938145931902282,0.05574661480707803,0.00025797971029643726,0.0012685523495084856,-0.00036288239058201115
2025/04/09 10:58:35.476058150,1744189115,473647059,piren,0.3248341783205449,0.14846619013558643,0.07001874485958412,0.000495989672287468,0.0010909893321846159,-6.817288938665793e-05
2025/04/09 10:58:35.618539843,1744189115,616555840,piren,0.3269379221285777,0.15846859765768423,0.06315368036824671,0.00025704430018063203,0.0003888678588847143,-3.0420382585598805e-05
2025/04/09 10:58:35.764776300,1744189115,760747621,piren,0.33130732921319667,0.029708215331256775,0.01341624765457838,0.00104363136696197,-0.0005551591030343799,-4.871126564833844e-05
2025/04/09 10:58:35.908281374,1744189115,906344967,piren,0.33431103994374634,-0.06250269411365483,-0.026332734112715205,0.0016372847985013737,-0.0011736092766352348,-0.00019120820963949072
2025/04/09 10:58:36.56106387,1744189116,53461091,piren,0.3353460943319986,-0.01185028218719901,-0.0033027478606543104,0.0012561808819615955,-0.0010826329756486557,7.855416207127428e-05
2025/04/09 10:58:36.201916300,1744189116,199896004,piren,0.3372421130726672,0.039471568728039134,0.015025346975101436,-0.0008762420126877503,-0.0007620980812162235,0.00015209947740002283
2025/04/09 10:58:36.275663718,1744189116,273748381,piren,0.3389114277030058,-0.11951948125690015,-0.05492205171548897,0.0017012563732935041,-0.0003414447687322416,8.293174013274232e-05
2025/04/09 10:58:36.420533460,1744189116,418300227,piren,0.3409126977453203,-0.050323945258158635,-0.02351666494791979,0.00013019025959933636,0.00043596057611850034,4.020043575017018e-05
2025/04/09 10:58:36.565195861,1744189116,562990362,piren,0.3430313373526356,0.04367264525524754,0.015308478912306312,-0.0015641634154315257,0.0009633437601172111,7.022404370791202e-05
2025/04/09 10:58:36.710513785,1744189116,708387928,piren,0.34757603473535903,-0.08685978852359813,-0.035283671165756335,-0.00020191464785419933,0.0009650721852818134,3.878432732045732e-05
2025/04/09 10:58:36.856168347,1744189116,853375549,piren,0.35166626880059415,-0.10895606470666755,-0.03598627712359904,-0.0006791816412301585,0.0005022984004269016,6.483653301019823e-05
2025/04/09 10:58:37.1798869,1744189116,999341364,piren,0.35448932118906845,-0.20125658321627002,-0.08697959699273425,0.0004908080258545561,1.7959841655125526e-06,0.00029265824325225395
2025/04/09 10:58:37.75936537,1744189117,73809760,piren,0.3564223282238578,-0.1201175199566068,-0.04318384263720014,-0.0001202496555270789,-0.0004509976754508949,7.933128980086235e-05
2025/04/09 10:58:37.152001605,1744189117,149183087,piren,0.3577107259431988,-0.1472416845550936,-0.06609659201828082,0.0008082625762588958,-0.0006329141030891816,0.0
2025/04/09 10:58:37.227556410,1744189117,225385285,piren,0.35814094177528244,-0.02052098239049926,-0.006101168819375717,-0.0010274528748038195,-0.0009059513025597776,7.000274560374098e-05
2025/04/09 10:58:37.332211397,1744189117,326143531,piren,0.36022678169321726,-0.05092503805629064,-0.0187617779412029,-0.00030228527618416897,-0.0009999093493527937,0.0001237122244598555
2025/04/09 10:58:37.417828345,1744189117,411646226,piren,0.3625314232366925,-0.018795000556435647,-0.004059101558185642,0.0009305220763879307,-0.0008160760103782707,0.0
2025/04/09 10:58:37.566368257,1744189117,562990703,piren,0.36333024656931234,-0.012893562561429248,-0.001388241838537658,0.0004777109218105147,-0.00022416598000937613,0.00029312793411015854
2025/04/09 10:58:37.712643724,1744189117,710427623,piren,0.3639336277722451,-0.0038587187006367723,0.0020680180366467165,-0.0010814044604707188,0.0005132820424778773,0.00010033057108126829
2025/04/09 10:58:37.859868103,1744189117,857421398,piren,0.36635134997832647,0.017429953385968425,0.010458317894339087,-0.001520006118934337,0.0009576027074487718,0.00020999750330672983
2025/04/09 10:58:38.8640411,1744189118,6473234,piren,0.36751847135138227,0.032460499304312204,0.015711979354679186,-0.0008115610624001593,0.0009087557458453775,0.00010401743944382
2025/04/09 10:58:38.156090625,1744189118,153941543,piren,0.3677645454120326,0.028380608817273632,0.013594026468283985,-0.0018941800904115772,0.0006173053782724388,0.00019151388225031166
2025/04/09 10:58:38.233208066,1744189118,229505410,piren,0.36652037381207814,0.03956163641290408,0.020269869514840777,-0.0004971828303406603,0.00020094462387323657,0.0001855001175222524
2025/04/09 10:58:38.310244895,1744189118,307709542,piren,0.3665202686882191,0.04155452566039699,0.015788893026936816,-0.0020096659589241184,-0.00027510882701185785,0.0
2025/04/09 10:58:38.460138078,1744189118,457305092,piren,0.36288440808752953,-0.12276743706713952,-0.055918351103249074,0.0005457667360869599,-0.000816552889671052,0.0003823990505778502
2025/04/09 10:58:38.605534383,1744189118,603307457,piren,0.35853068089558265,-0.048483645194357224,-0.02427622266170457,0.0015167736971707598,-0.0009200184925697336,0.000849582108993461
2025/04/09 10:58:38.754722608,1744189118,749905805,piren,0.3530213716831519,0.06316380024534005,0.027953402592391745,0.0013194464033072612,-0.0008272128058133864,0.00033356221672599916
2025/04/09 10:58:38.831415056,1744189118,828097140,piren,0.3473778149603012,0.13652608594999988,0.06227009248724087,0.0007475428671255417,-0.0005482734354483658,-3.875814258612333e-06
2025/04/09 10:58:38.907580056,1744189118,903522810,piren,0.3421459376057459,0.1851082741986369,0.06446644050156346,0.0006110233954296408,-0.00033647713668169906,0.0
2025/04/09 10:58:38.981572230,1744189118,979169943,piren,0.3364099414424987,0.01696680122617078,0.004034772998121069,-4.113516917812091e-05,9.033610604127573e-05,-4.901616825509875e-05
2025/04/09 10:58:39.56819998,1744189119,53952641,piren,0.3318316001245648,-0.02763280801662852,-0.012453786015165457,0.00014763397971498399,0.00030106129005081316,0.0
2025/04/09 10:58:39.134568285,1744189119,131548670,piren,0.3262496216288096,0.002512599073561288,0.002241731708162381,-0.0007473447316026249,0.00032314612994516353,0.00024959084290045744
2025/04/09 10:58:39.209762643,1744189119,207244265,piren,0.3225711243070815,0.028990921522779597,0.012046291810353235,0.00031837250327157283,0.0012794995167400445,0.0
2025/04/09 10:58:39.356810699,1744189119,354817296,piren,0.3175433184155086,-0.0981780654146095,-0.03756926374981374,-0.002316943942476484,0.0012425830863452406,0.0006756440130182416
2025/04/09 10:58:39.506135525,1744189119,503431760,piren,0.31212147575383964,-0.14243547314663063,-0.053178467594431386,-0.0015082164908128055,0.0008153196104730002,0.0005075547644646408
2025/04/09 10:58:39.583888747,1744189119,580564127,piren,0.3071627074280037,-0.16730202008134934,-0.0748702927926423,-0.0010883318349957727,0.00016992826043751066,8.668853764452266e-05
2025/04/09 10:58:39.660025793,1744189119,657863427,piren,0.3020299713927721,-0.05914014464634704,-0.02557711605462126,-0.0003838357124408297,-0.000534155191818956,0.0
2025/04/09 10:58:39.761747710,1744189119,758939451,piren,0.29645747266834827,0.008701112758086889,0.005905424244939222,3.23141794955805e-05,-0.0011731255139362507,-0.0012636408992172832
2025/04/09 10:58:39.911324385,1744189119,909201422,piren,0.2909154950217029,0.1757284006496487,0.06130306188622213,-0.0007960913655940568,-0.0014910282582806657,-0.00036633453508308337
2025/04/09 10:58:40.61203123,1744189120,57538127,piren,0.28171217681316923,0.036244760715210086,0.0158273900882296,8.862627905628969e-05,-0.0015356593855699056,-0.00043986110879262616
2025/04/09 10:58:40.212953030,1744189120,210122837,piren,0.2795563059519445,0.0822804884911163,0.03587755428541708,0.001027889864120688,-0.0015086822056716283,0.000940442312166392
2025/04/09 10:58:40.362703209,1744189120,359794705,piren,0.2628312957571261,0.06626298434974788,0.036503148151271134,0.001152623170592859,0.002142840011864536,0.002469216534320413
2025/04/09 10:58:40.512218728,1744189120,509889925,piren,0.24618494901122429,0.17244091620770666,0.0729176039806968,4.07091481148631e-05,0.0026143150248794343,0.0006770179458997794
2025/04/09 10:58:40.660852131,1744189120,658463198,piren,0.23211137375822505,0.1116612577533282,0.04040368990793775,6.994266926407488e-05,0.0021762777034784356,0.001632826416428578
2025/04/09 10:58:40.813409457,1744189120,811348052,piren,0.22462375331324339,-0.06595677190335894,-0.034825505530207884,-0.0005986148463635859,-0.0006932650537018219,0.0015132080692503171
2025/04/09 10:58:40.964318893,1744189120,962031471,piren,0.21710087891161126,0.0665536280358762,0.023063454362561294,-0.0019453770515188882,-0.0010880225798046345,0.0036578450486053743
2025/04/09 10:58:41.119804065,1744189121,113765880,piren,0.19951232558258303,0.034889062143860214,0.0154507580736363,1.5045399731431367e-05,0.00040124021231866837,0.0013896817952538333
2025/04/09 10:58:41.264746346,1744189121,261943582,piren,0.18817553846014629,0.10730059626601438,0.04417303314203585,0.00012441412842162136,-0.0007949887816197228,0.0011639822444720125
2025/04/09 10:58:41.413682083,1744189121,410603960,piren,0.18576389363388976,0.048526387721780695,0.024490731013142135,0.0012358871553830378,-0.0011718713841995993,0.001423019906590752
2025/04/09 10:58:41.563562956,1744189121,560278373,piren,0.17654014415441943,0.0948164263321141,0.039491953187093115,0.0007266158889177911,-0.0019547996230723083,0.002324090436292699
2025/04/09 10:58:41.712246178,1744189121,709893014,piren,0.17051111970136326,0.003598958478738269,0.004209078448831743,0.00319121306005253,-0.000488240979909972,0.015502173473310952
2025/04/09 10:58:41.861942440,1744189121,859254033,piren,0.16023377754398935,0.03444152138645519,0.016922283571091882,0.0020332520882496053,0.0011570284991427279,0.00801402802181078
2025/04/09 10:58:42.14473915,1744189122,12370086,piren,0.14982465117070506,0.016265634886885025,0.008203995520150041,0.00035571568098834557,0.003438857831460866,0.0021885997710605473
2025/04/09 10:58:42.166737788,1744189122,162830225,piren,0.1395905124132954,-0.054074322114917805,-0.017071932156678796,-0.0016669010923897705,0.001972617367072939,0.002841770324579911
2025/04/09 10:58:42.344897566,1744189122,337257002,piren,0.13551974717574505,-0.19527681057756008,-0.06829217641614137,-0.0005557797390901049,0.0008456152205759198,0.002151717947541583
2025/04/09 10:58:42.417893570,1744189122,415105748,piren,0.13239490347396055,-0.2863661081855849,-0.1118298405537878,-0.001034800696555351,0.00043665386027910073,0.0030693593599568376
2025/04/09 10:58:42.566997382,1744189122,564464916,piren,0.12428643511000059,-0.2653044960580225,-0.0960378023512703,-0.0009766224065134086,0.000191265557028057,0.0011406297621826015
2025/04/09 10:58:42.717078277,1744189122,713049875,piren,0.11377491463828604,-0.2607040732904449,-0.09601960482184708,-0.0010304960521108856,-9.164956360928078e-05,-0.0010090610884892575
2025/04/09 10:58:42.865605133,1744189122,863075299,piren,0.11544978851067235,-0.21081408578047037,-0.10470597390414121,0.002074809729816667,-0.0029834225833070623,-0.00295613449040914
2025/04/09 10:58:43.18518583,1744189123,14550941,piren,0.1141046414413518,0.03375666527646175,0.014723368686394928,0.0018931269406818087,-0.004385150460670564,-0.0020268485640091787
2025/04/09 10:58:43.175809403,1744189123,168087057,piren,0.11087794348953667,0.173195286289162,0.08756096986095724,0.00033523231408313025,-0.003710912893648221,-0.0032916894485890674
2025/04/09 10:58:43.321362616,1744189123,318711967,piren,0.10621279480970837,0.2820183258770943,0.12018808074109506,-0.0002910588722642422,-0.0010494781420981108,-0.0023264407508653915
2025/04/09 10:58:43.471585365,1744189123,469323260,piren,0.10057648891773856,0.20172590173240124,0.07626934679874149,-0.0011753888959089985,0.0001329404988787891,-0.001982895075693565
2025/04/09 10:58:43.622399417,1744189123,619500426,piren,0.09357379906786174,0.007213571592012722,0.0069480204090960835,0.0005891413368698036,0.0028759177177021854,-0.0005000875184567638
2025/04/09 10:58:43.773223358,1744189123,770133704,piren,0.09331190648767088,-0.02120583208734785,-0.003557054380977296,-0.001993475984074942,-0.0019284809134701476,0.002863473357834544
2025/04/09 10:58:43.923594013,1744189123,920328939,piren,0.08649451148719615,-0.00536733070509617,0.0032696465091078776,0.00036465034296621007,0.0027392389912741133,0.004563471655128086
2025/04/09 10:58:44.75738525,1744189124,70926395,piren,0.08097117188908444,-0.022958105561135467,-0.004887970289112808,-0.00074636078360452,0.007204080108105297,0.004546666230742613
2025/04/09 10:58:44.152332261,1744189124,149234941,piren,0.08129236286267164,-0.07766372870863582,-0.031104121206392728,0.00024102767930924936,0.0068817145047484025,0.0
2025/04/09 10:58:44.232271567,1744189124,228137857,piren,0.08449329623960063,-0.04498105273313858,-0.02192934770680011,0.0017046993652850844,0.00513110784508523,0.004228429024120505
2025/04/09 10:58:44.310525627,1744189124,308090479,piren,0.08562627992060015,0.08585751557800649,0.028709304885171053,0.000576855709283857,0.002238015255750012,0.004111486806324628
2025/04/09 10:58:44.462620596,1744189124,460164297,piren,0.08549640750631143,0.008887167194594118,-0.0009212624131198618,5.0191615853641244e-05,-0.0032919190974615244,0.003739913550820537
2025/04/09 10:58:44.618103127,1744189124,611910430,piren,0.09298769144739757,-0.08694729285720372,-0.041398218658270335,0.000658088611058471,-0.006786160471520886,0.002753429560842917
2025/04/09 10:58:44.792262438,1744189124,789203175,piren,0.08575722417606928,-0.056803909416511277,-0.02588233800461249,-0.0002513845586335493,-0.005671662268210865,0.003498005247199625
2025/04/09 10:58:44.869699614,1744189124,865750170,piren,0.08081551782813268,-0.02021643813728505,-0.007432271434285228,-3.094927938352792e-05,-0.003729642593224515,0.0
2025/04/09 10:58:45.28877483,1744189125,19599506,piren,0.07770649221688264,-0.01304013060622064,-0.003753297463453157,6.029820792663609e-05,0.0005167598841277225,0.001916087794041109
2025/04/09 10:58:45.101499562,1744189125,97907351,piren,0.07548676136483658,0.10989422188150481,0.03865155871969625,-0.0020012039585167,0.0019546733472791907,0.0
2025/04/09 10:58:45.180062218,1744189125,177490930,piren,0.07416077243050356,-0.03548262406087588,-0.014457264686655175,-0.0009919248744388683,0.0043006021346408815,0.0036099750631144244
2025/04/09 10:58:45.256395188,1744189125,254046983,piren,0.07444953838907398,-0.13122747167276977,-0.0678442771364869,0.0014049437904749462,0.005561668145203599,0.0
2025/04/09 10:58:45.407304747,1744189125,405078467,piren,0.07521035565363625,0.02525635134394076,0.005204226696798749,0.0007716136551443834,0.005069659302164593,0.01667709035890129
2025/04/09 10:58:45.560580967,1744189125,557718562,piren,0.08067479770362655,0.009784175825179375,0.0028875159162050426,0.0013897452995947895,0.0019114836877679362,0.007247342377207476
2025/04/09 10:58:45.712788586,1744189125,710469163,piren,0.08108153334045681,0.0803865126006135,0.035156442509253066,0.000718847972745982,-0.0019416208504816586,0.0014669349420620536
2025/04/09 10:58:45.865570639,1744189125,862799545,piren,0.08113715772002603,0.12158435707329716,0.04828446338240214,0.0017594180376851345,-0.004675620884548822,0.0026372509323878716
2025/04/09 10:58:46.18020751,1744189126,15544520,piren,0.0801835859314229,0.05001393665784592,0.025212667862952138,0.000752323714306658,-0.004831076354297388,0.0014667655190048756
2025/04/09 10:58:46.170807224,1744189126,168453113,piren,0.07996520905384627,0.12731524998328994,0.05090061316869754,0.0003703276706824727,-0.0030258672880386704,0.0022764701276849616
2025/04/09 10:58:46.248373850,1744189126,245160037,piren,0.07953549870353702,0.04467015162270585,0.022285824254360844,0.0010812936598742382,-0.0018378167144259532,0.0
2025/04/09 10:58:46.327184326,1744189126,323809613,piren,0.0797097788649148,0.08462034519838196,0.03582173404677559,-0.0006230504851317023,0.0011956914432547196,0.0028055728281634797
2025/04/09 10:58:46.404563383,1744189126,402168892,piren,0.08055515248903596,0.018228489928168928,0.010412148589814414,-0.0011183531701013038,0.0023043670728288665,0.0
2025/04/09 10:58:46.486078070,1744189126,479649071,piren,0.08257616882827114,0.018256362742308466,0.009806334729619308,-0.0005625348429558305,0.0043093864929196046,0.002563623521021958
2025/04/09 10:58:46.560104797,1744189126,556999231,piren,0.08277803923197725,-0.02811578160919085,-0.009447615615838897,-0.001223582500556062,0.005010291783538472,0.0
2025/04/09 10:58:46.712766681,1744189126,709999628,piren,0.08549118316035666,-0.05856263664560212,-0.026863662951126598,0.000588979807832918,0.003942919532884878,0.011348940638665947
2025/04/09 10:58:46.868759690,1744189126,866040984,piren,0.089809924823039,0.031186156740125558,0.010442806877949426,-0.0008381800006494573,0.0009391734747330987,0.004191923304587404
2025/04/09 10:58:47.23732952,1744189127,20031824,piren,0.09318059806504017,0.0061303321147283246,0.00014539851444395654,0.0009455070477074305,-0.0024976863611927387,0.001045618443719258
2025/04/09 10:58:47.102446293,1744189127,99224617,piren,0.09567655570160238,-0.027581302464811303,-0.012892890535447883,0.0009355089308821235,-0.0033854166556929605,0.0
2025/04/09 10:58:47.180080802,1744189127,177770996,piren,0.09705205057989369,-0.07012073778377935,-0.03585903425229413,0.001136738780007112,-0.004441940204295575,0.0018795781366905276
2025/04/09 10:58:47.258384936,1744189127,255837499,piren,0.09724617892042962,0.04791616162066077,0.01565430652043959,0.000977484241495851,-0.004474826850973703,0.0
2025/04/09 10:58:47.436726704,1744189127,433920546,piren,0.09728049700800025,-0.001629474078250368,-0.001822401620451994,-0.0007103867872803227,-0.0026993375782226867,0.0008926037040991865
2025/04/09 10:58:47.514574560,1744189127,512055353,piren,0.09757094804398245,-0.015965158573937013,-0.004894401581061564,-0.001050586007012713,-0.0006987105634381425,0.001414921996456407
2025/04/09 10:58:47.669068856,1744189127,665187752,piren,0.09855009501373826,-0.10879427943121564,-0.05290928875860255,0.00026019511116988223,0.0024079972517798347,0.0015267657568099476
2025/04/09 10:58:47.821260545,1744189127,819280136,piren,0.10119468569557033,0.027312614024782623,0.01045605938910172,-3.971395058477184e-05,0.004146849408544214,0.0008690637043458954
2025/04/09 10:58:47.901562870,1744189127,898542261,piren,0.10427537295047719,0.10545062739060657,0.03949990635838139,4.282787306321572e-05,0.004251977591526719,0.0
2025/04/09 10:58:47.981593949,1744189127,978637625,piren,0.10681919444067121,0.03816670688497955,0.011447164925461058,-0.0008420081311407859,0.0036311807353373612,0.0013400193920971644
2025/04/09 10:58:48.61695167,1744189128,57953415,piren,0.10926297465096328,-0.11186341245785078,-0.049051337006319244,-0.00039645622900929335,0.0029880050665709104,0.0
2025/04/09 10:58:48.141677973,1744189128,137923958,piren,0.1112148596742706,-0.1190172354890833,-0.04999577153189881,0.0004828023238344398,0.001337479458800295,0.0010822154237631716
2025/04/09 10:58:48.220055064,1744189128,217539218,piren,0.11283368518832541,-0.11017752614243324,-0.04965089810781508,-4.822829117056998e-05,-0.0005709899294163493,0.0012447710196708812
2025/04/09 10:58:48.374552609,1744189128,371352009,piren,0.1151781800601839,-0.027137727388530344,-0.011377745229801594,-0.0005615280737654316,-0.0030278158181207666,0.0008491707694063273
2025/04/09 10:58:48.451973173,1744189128,448975724,piren,0.11697697414867789,0.0034010317428464186,0.0028882727564409428,-3.370112749638295e-05,-0.0035871396735335103,0.0
2025/04/09 10:58:48.531923243,1744189128,528398654,piren,0.1181817285531833,0.018010574955186234,0.01005096193045481,0.0003817424046056703,-0.004001203362356697,0.0007057280042100783
2025/04/09 10:58:48.610779426,1744189128,607409421,piren,0.11858568931631353,0.020830583475368862,0.012726488717469692,0.001228356139789541,-0.00344208369155282,0.0
2025/04/09 10:58:48.764696901,1744189128,761269273,piren,0.11881111823884152,0.07013147547839801,0.03164475364280674,0.00126093647412206,-0.001118448842048787,0.0012765951996210239
2025/04/09 10:58:48.919554067,1744189128,916807907,piren,0.12002655711849165,0.03000213335895989,0.016044518443872786,3.521925437865425e-05,0.0017220452954126806,0.0004497341032911618
2025/04/09 10:58:49.75348612,1744189129,72889375,piren,0.12291059152117853,0.042495300710216476,0.01682161102957995,-0.0009247092239373899,0.003621841483102084,0.0005523711036184628
2025/04/09 10:58:49.156596712,1744189129,152849726,piren,0.12565402602696524,-0.09221276105799392,-0.0344379827825883,-0.0005587141190356875,0.003829609277084991,0.0
2025/04/09 10:58:49.237106529,1744189129,234314163,piren,0.1282677712163831,-0.16673349890528757,-0.08697963262645274,0.000816096959850896,0.00357452496537163,0.0006776010253368032
2025/04/09 10:58:49.316578582,1744189129,313823828,piren,0.13096762558597522,0.009519239260613878,-0.0034964541833137374,-0.0009274299007229285,0.0024988748006769357,0.0006916467112989893
2025/04/09 10:58:49.470844309,1744189129,468526951,piren,0.1339998021190043,-0.058207869450458964,-0.03403449358830209,0.00018053568472308593,-8.874953764287621e-05,0.00040585600543704324
2025/04/09 10:58:49.624488828,1744189129,622007970,piren,0.1385157614129821,0.08071980913405391,0.02334653952725658,-0.00010649128006621986,-0.0026226245474143418,0.00013147809846781038
2025/04/09 10:58:49.704861724,1744189129,701193184,piren,0.14115161303807103,-0.03977736437926644,-0.024331653633990005,0.0008443976916129467,-0.003551390415392018,0.0
2025/04/09 10:58:49.859332403,1744189129,857130381,piren,0.1431622469506028,0.09850770962660309,0.044662005276000394,0.0008195480717762401,-0.0034108672121215757,0.0005727519133314518
2025/04/09 10:58:49.963131327,1744189129,960086409,piren,0.14435781546778764,0.18577615869203823,0.07544766554796638,0.00021861373275424965,-0.0022803491386498283,0.0007797485361458552
2025/04/09 10:58:50.120667352,1744189130,117939184,piren,0.145158764372178,0.10268722044740947,0.053010180040785254,0.0009854816741877383,0.00027273663722423013,3.262834231113257e-05
2025/04/09 10:58:50.277148706,1744189130,274778629,piren,0.1469991332583795,0.1579424143719243,0.056512541694798565,-0.0003157988090954364,0.0028006085750375406,0.00019152849203467415
2025/04/09 10:58:50.358824327,1744189130,354315515,piren,0.14775589405307338,-0.04278825562081577,-0.017464868055667163,0.0009039416096986175,0.0034703075762689372,0.0
2025/04/09 10:58:50.436316600,1744189130,433742177,piren,0.14911775403272523,-0.06188241474921208,-0.027114266675191206,0.0008542847400573786,0.005219779186707157,-0.00012522219994218962
2025/04/09 10:58:50.518753568,1744189130,513893111,piren,0.15184255917215447,0.04958540312797885,0.01786634596213705,-0.0011050579685210216,0.0043281612664428145,-0.0014243044812565955
2025/04/09 10:58:50.672298654,1744189130,670074963,piren,0.15447855529811658,-0.10107770129195097,-0.04233379187638424,0.00025230115668644086,0.0013096627452091718,-0.001081364977900554
2025/04/09 10:58:50.752309606,1744189130,749477850,piren,0.15769323882492403,-0.10917873513348239,-0.044683679108869,7.336739075040466e-06,-3.886514199346164e-05,0.0
2025/04/09 10:58:50.831288289,1744189130,829303708,piren,0.16004089799025512,-0.08875298771623219,-0.03129857067236517,-0.0014347994928196035,-0.002579018082038732,-0.001219232516139442
2025/04/09 10:58:50.912053244,1744189130,909832993,piren,0.16177531444988602,-0.12890932254638102,-0.04316543705177031,-0.0010866253992476043,-0.004516067219140778,0.0
2025/04/09 10:58:51.69159950,1744189131,67177560,piren,0.16307886009911404,-0.18405502926009853,-0.06346417831691198,-0.0001926219391423062,-0.005183620227566584,-0.0020399434409386743
2025/04/09 10:58:51.228091365,1744189131,225051072,piren,0.1633880624134855,-0.2016320233736389,-0.08874315717463166,-0.0009116534494119328,-0.0031574817958630102,-0.0005697896377572223
2025/04/09 10:58:51.384504501,1744189131,382155669,piren,0.16458389118541467,-0.0546500765029479,-0.01629795951643131,0.0002621729651791808,0.00025017903195928066,-0.0009929526768389758
2025/04/09 10:58:51.465245663,1744189131,462326997,piren,0.16617122219360247,-0.09712967558427232,-0.041938237025328236,0.0008317706658708056,0.0024953383824988843,0.0
2025/04/09 10:58:51.623931327,1744189131,621345753,piren,0.16838624753166506,0.03056387008570165,0.01599270629314957,-0.0001244144469208256,0.004509287741937057,-0.0009110404824842486
2025/04/09 10:58:51.706196592,1744189131,702447168,piren,0.17009244951639452,0.11920610083703195,0.060703501567296474,0.0012420588123592338,0.004713506174348176,0.0
2025/04/09 10:58:51.786915034,1744189131,784005210,piren,0.17191895914950225,0.23301276619635009,0.0996890021467406,-0.0007009386518669647,0.004273129593761678,-0.001774052011616627
2025/04/09 10:58:51.867015756,1744189131,864408094,piren,0.17363329937745053,0.1999858152563253,0.08501013979981593,0.00014112756865375498,0.0028398530528880713,0.0
2025/04/09 10:58:52.23802309,1744189132,21473131,piren,0.17548992315319117,0.1471556564629421,0.05252162505421751,-0.0005715276216457393,6.928115301269562e-05,-0.0007590835949231226
2025/04/09 10:58:52.133325512,1744189132,129882942,piren,0.1767846419613479,-0.015294412502960805,-0.010291092732782892,0.0005901280146909769,-0.001655364625479024,-0.0014844541263014563
2025/04/09 10:58:52.215188960,1744189132,211098538,piren,0.17779674248312366,0.10251218917782653,0.03314433487071404,-0.000627131537998056,-0.002964782223713417,0.0
2025/04/09 10:58:52.370965204,1744189132,368535508,piren,0.17871355993616694,-0.029110278746497503,-0.015897498648729323,0.0009904519327094785,-0.0040436602112592125,-0.0036508975437985806
2025/04/09 10:58:52.529183587,1744189132,526438313,piren,0.18109011200129302,0.005526746336091724,0.003019631601768353,0.0008590455767658984,-0.0030831405061907497,-0.0008457517074957171
2025/04/09 10:58:52.611051249,1744189132,606494507,piren,0.18334366258332982,0.059369066387970515,0.030775042182528918,0.0016858267278366578,-0.0014326750051776931,0.0
2025/04/09 10:58:52.768500110,1744189132,765519424,piren,0.1847583565290059,0.1264162219231476,0.05948768825235802,0.0013649175523871135,0.0014904442401567843,-0.0025302639041127153
2025/04/09 10:58:52.926793350,1744189132,923986100,piren,0.18645821611962926,0.12533870085709609,0.05970731529014981,0.0010263532130647195,0.0035591529004339495,-0.0006575538030518832
2025/04/09 10:58:53.7940045,1744189133,5465529,piren,0.18784051723734924,0.1250089246893606,0.06164323263095295,0.0013266139189750713,0.003897373115765857,0.0
2025/04/09 10:58:53.89647909,1744189133,87472924,piren,0.18835018810437842,0.1527313024578944,0.0549258743560454,2.3500373854705886e-05,0.00397358861506502,-0.0013580197779095233
2025/04/09 10:58:53.170371078,1744189133,168198640,piren,0.18972017934303412,-0.031050292421916155,-0.015165342560588432,0.00030983581231370675,0.0030305096725815783,0.0
2025/04/09 10:58:53.328341877,1744189133,326055929,piren,0.1926519947332123,-0.039953222612038604,-0.01711777884913565,-0.0006200935069221128,0.0006866662626854702,-0.000775386851577349
2025/04/09 10:58:53.409902809,1744189133,407940307,piren,0.1945160930556438,-0.06307671101715068,-0.029411803627064283,0.0005805465571312125,-0.0011991428091911397,-0.0018886990711272057
2025/04/09 10:58:53.568785314,1744189133,565598057,piren,0.19766566656345053,0.024414220149026406,0.00998787007610427,-0.0005811808846110447,-0.0038187196274533032,-0.0011348324535483201
2025/04/09 10:58:53.725989760,1744189133,723757023,piren,0.19865079553444917,0.03646330447422043,0.012764932383355151,-9.720659868094938e-06,-0.004395039741876397,-0.0006163819929144897
2025/04/09 10:58:53.809027380,1744189133,804769937,piren,0.19906956029419928,-0.14128388556084231,-0.06142526367327834,-0.00017444193174008063,-0.004048571078167844,0.0
2025/04/09 10:58:53.889663486,1744189133,887183505,piren,0.1986773494337537,-0.12274670649553811,-0.0483692309293387,-0.0010280807218630776,-0.0025238945931688314,-0.0009243090871392412
2025/04/09 10:58:53.972900852,1744189133,970233179,piren,0.19927098276469724,-0.12296311158181694,-0.04600206261044967,-0.0008713097618874399,-0.00044570486082105983,0.0
2025/04/09 10:58:54.136120573,1744189134,133225979,piren,0.20020033103713405,-0.10808191235212948,-0.04342678168239935,0.0011759270491933647,0.002450615676845851,-0.0005468928027307988
2025/04/09 10:58:54.219619405,1744189134,215069639,piren,0.20093832078729787,-0.01958966831767619,-0.0042029649865611175,0.0005614454785958288,0.003737207226118503,-0.001042446466281141
2025/04/09 10:58:54.326942721,1744189134,323155771,piren,0.2018866960718083,-0.012114568527262514,-0.001827395229402893,0.0005353099628564992,0.004130843149292661,-0.001098830473484383
2025/04/09 10:58:54.407850704,1744189134,405545701,piren,0.20292760261834364,-0.0019870390374897256,0.0017265909879491295,-0.0005203928953623952,0.003592511170957735,0.0
2025/04/09 10:58:54.568649534,1744189134,565959455,piren,0.20513095200794423,-0.15157918439087337,-0.07958817258639225,0.0008363211931967543,0.0015173264352169057,-0.0022324872540055115
2025/04/09 10:58:54.729819975,1744189134,727273202,piren,0.20705609122415616,0.04365660978925834,0.009244682129183751,-0.0013384063709387286,-0.001298218898400688,-0.0005382426471699389
2025/04/09 10:58:54.812475639,1744189134,809880076,piren,0.20827514779699352,-0.028203528538325192,-0.017324822628340893,1.1465039795027489e-05,-0.002932316221198419,0.0
2025/04/09 10:58:54.974099219,1744189134,971481031,piren,0.209864078682701,0.009328847898728116,0.0031458783117380975,-0.00012386824965195844,-0.004141935845304075,-0.002048319677554324
2025/04/09 10:58:55.63637456,1744189135,54160918,piren,0.20965596435999745,0.15153265598848495,0.06990676239944366,0.0008958411609180373,-0.003982093024364015,-0.006961755843056729
2025/04/09 10:58:55.148137509,1744189135,144657694,piren,0.2086562152151536,0.2164442704128004,0.07713467082378737,-0.0020669498347604975,-0.003057422206958408,-0.001021450641152978
2025/04/09 10:58:55.232235761,1744189135,229602105,piren,0.20944947808165093,0.04830688723170188,0.023544032314827112,8.809841556788065e-05,-0.0013747325766678964,-0.0013374933306573335
2025/04/09 10:58:55.314834201,1744189135,312659841,piren,0.20950407261295415,0.14723229367883106,0.051525195323099224,-0.001517551844533672,0.0005927440023434393,-0.0009577845250265218
2025/04/09 10:58:55.476043947,1744189135,473910464,piren,0.21000981613787534,-0.026830161871037317,-0.01200365866903144,0.0006193775508296349,0.0032110866201243166,-0.0006919933024412833
2025/04/09 10:58:55.559407955,1744189135,555259483,piren,0.20945057432894384,-0.03878122778297347,-0.01403384095545487,-0.0007198594903068555,0.0038837869383169534,0.0
2025/04/09 10:58:55.720638060,1744189135,718082987,piren,0.21261899005430004,-0.007667875448991803,0.000879099872726322,0.0009364850117189889,0.003440837564737136,-0.004669568427710232
2025/04/09 10:58:55.807777021,1744189135,801839289,piren,0.2147265707159609,-0.017962838879431283,-0.005182041518614294,5.309696513924229e-05,0.001963019349219408,-0.0018193786453781803
2025/04/09 10:58:55.967045499,1744189135,964818023,piren,0.21549043844555044,0.1134460044081688,0.03661623636167839,0.0008604203863507982,-0.0008600645233780388,-0.0005418845889253777
2025/04/09 10:58:56.132275309,1744189136,127286579,piren,0.2153027838986421,-0.07127008791661943,-0.03820664054969715,-0.0005124177984187249,-0.0031325437999717193,-0.00037634538192002766
2025/04/09 10:58:56.214334935,1744189136,209677102,piren,0.21506867332001814,0.005530445963974991,-0.0007730428230495265,-0.001788326521680307,-0.0037344727549524317,0.0
2025/04/09 10:58:56.375935920,1744189136,372989092,piren,0.2145891891628639,-0.05557031154855056,-0.019720624426052803,-0.0020691625448561405,-0.002987959430962858,-0.0013124513420600366
2025/04/09 10:58:56.461955501,1744189136,456133352,piren,0.21518504105929623,-0.14323353095746366,-0.06780159173951424,0.0015227346466071391,-0.0016227397610639044,-0.003312042147990775
2025/04/09 10:58:56.566766574,1744189136,564404635,piren,0.21563078968616908,-0.01106497853148051,-0.004012687959858013,0.00010399034057520023,0.00010346845060173624,-0.0006772494194030563
2025/04/09 10:58:56.730708960,1744189136,726799636,piren,0.21568186140039092,-0.013607207068770666,-0.003596161559247948,0.00020858259848774912,0.002349177328292303,-0.00033385222532274504
2025/04/09 10:58:56.812011942,1744189136,810052115,piren,0.2163714467664102,0.10915730250584443,0.04523823768484638,0.000636866447362027,0.0032556377896510646,0.0
2025/04/09 10:58:56.976239647,1744189136,973698551,piren,0.21669147573422248,0.053687220673207206,0.02768038718865684,0.0015760374171773358,0.0030965081392467964,-0.0013019599169385295
2025/04/09 10:58:57.141063162,1744189137,137844982,piren,0.2186483123520112,0.124979434417862,0.05154654057925267,-4.776369672811695e-06,0.0013952204618164102,-0.0003226370955636712
2025/04/09 10:58:57.224792061,1744189137,221394665,piren,0.21956236281013056,0.062280352175478705,0.025775648617378456,0.0016018267258898764,-0.0001996354511421443,-0.0005104214465504698
2025/04/09 10:58:57.307354137,1744189137,304394116,piren,0.21975937937651327,-0.004180631435953263,-0.000737398566173639,0.0002546038397965792,-0.0016914127232632848,0.0
2025/04/09 10:58:57.469126270,1744189137,466878959,piren,0.21959369925832295,0.09365188571351764,0.030030663923388594,-0.00038288015789807,-0.0028908224595842504,-0.0010055670853618554
2025/04/09 10:58:57.632353712,1744189137,629946830,piren,0.2169085907429749,-0.09381392697600764,-0.043122725219657376,-0.00048219572394868544,-0.0027615045654563876,-0.00025613021948670494
2025/04/09 10:58:57.716775437,1744189137,712784361,piren,0.2158021128814895,-0.08994182471270727,-0.03786800273935139,-0.0008206958780586544,-0.0018777127627826252,0.0
2025/04/09 10:58:57.878910772,1744189137,876413539,piren,0.21608988234589388,-0.07522060222111122,-0.029006062693118916,-0.0007986044632848337,0.0006171453462572463,-0.0008408041004667537
2025/04/09 10:58:57.962496966,1744189137,959930077,piren,0.2164683274088191,-0.06187697388309326,-0.021995140763623616,-0.0008746817914648235,0.00180237957778017,-0.0025725491678809547
2025/04/09 10:58:58.126823863,1744189138,123366368,piren,0.21784301868808817,-0.04291285716928055,-0.01666469248899992,0.0009675175066942649,0.0025281304970839144,-0.00020238794080484925
2025/04/09 10:58:58.208692649,1744189138,206275489,piren,0.2182565055190108,0.07102473058231755,0.030080367856578402,-0.0004371212395034173,0.002435420671307858,0.0
2025/04/09 10:58:58.371822619,1744189138,368949429,piren,0.21881807013865362,0.03704690927331373,0.01592972519590195,0.0012439160482563955,0.001282070328637962,-0.0005523945150531848
2025/04/09 10:58:58.533558972,1744189138,531801992,piren,0.2189678159052401,-0.006461422878902069,-0.0022839844525569435,0.00016843558039411133,-0.00047608571681440493,-0.0001361930095165427
2025/04/09 10:58:58.619151415,1744189138,614806144,piren,0.2203413202968158,0.10387014957058789,0.03783788442660043,-0.00012356700797736605,-0.0015289232676729558,-0.0002836370009803957
2025/04/09 10:58:58.728293362,1744189138,724396203,piren,0.22039395965599284,0.01010799143660216,0.002496959262905108,0.0015941065081165602,-0.0022180985530258087,-0.0002307550451886267
2025/04/09 10:58:58.812868592,1744189138,809859085,piren,0.2193769120009503,-0.02779967613152438,-0.013566435142566226,0.00012059040340117265,-0.002355326989342609,0.0
2025/04/09 10:58:58.976643760,1744189138,974115972,piren,0.21825233576849457,0.08155187485769683,0.030270161518946702,0.0007062841011785934,-0.0014569069850716159,-0.00042515025642492443
2025/04/09 10:58:59.60825089,1744189139,57914695,piren,0.21550671234046276,0.0059706697615233666,0.0029123624363216346,0.0003797205035478179,-0.0005288573150047243,-0.0006717911596527458
2025/04/09 10:58:59.225021503,1744189139,222341715,piren,0.2163776527579276,0.08761828015053184,0.02912341925158614,-0.0017326849508867235,0.0005852857584238322,-4.790742659658457e-05
2025/04/09 10:58:59.310747657,1744189139,306657970,piren,0.21658770203062547,-0.08177339352702431,-0.04183451699257362,0.0015249420973325572,0.001975719259574574,0.0
2025/04/09 10:58:59.472088216,1744189139,469929715,piren,0.21708566432913914,0.013684367968539762,0.0034039800408966004,-0.0014872473359266343,0.0023619252234573897,0.00022764491587026067
2025/04/09 10:58:59.557059696,1744189139,553106620,piren,0.21759381417387605,-0.003997258793681702,-0.0013225262223024454,-0.00016788107455807384,0.002197845422206951,-0.0003945630401933092
2025/04/09 10:58:59.640706760,1744189139,637619478,piren,0.21744099457863228,-0.03144564141956657,-0.009323765378270916,-0.0019207644503099303,0.0015211153629252204,-7.754959171075183e-05
2025/04/09 10:58:59.727031252,1744189139,721417447,piren,0.2170213986196866,-0.1356946644847686,-0.06493218286281663,0.002158247881520725,0.0005218134891359046,-7.819793517951092e-05
2025/04/09 10:58:59.889401735,1744189139,886116664,piren,0.2175528154983769,-0.0042727399401440705,-0.002886705967328731,-0.000539900353474605,-0.0010615442169879643,-5.7306556315458947e-05
2025/04/09 10:58:59.975530249,1744189139,971253618,piren,0.21732738980247057,-0.0271745251009548,-0.010142626575601936,0.0013673199396112801,-0.0018519393508779696,0.0
2025/04/09 10:59:00.60486897,1744189140,56216344,piren,0.21687683136498817,-0.034754925663248275,-0.014378828162551448,0.0014130611585768098,-0.002216214836211434,-0.000426702369006818
2025/04/09 10:59:00.224017534,1744189140,221429558,piren,0.21543430612178704,0.08642117428062725,0.030291326425542574,-0.0005801147669566814,-0.0016447851235175386,-2.820364453091797e-05
2025/04/09 10:59:00.309436403,1744189140,306827224,piren,0.21360906866855103,-0.0611372752323233,-0.026847364224067465,0.0009796431063087028,-0.000842687132226369,0.0
2025/04/09 10:59:00.473818858,1744189140,471014639,piren,0.21215166227603857,-0.051339805098199166,-0.02062060733087257,-0.0008326655135693591,0.0006456582890445576,-0.00011253624224760436
2025/04/09 10:59:00.641482345,1744189140,636051427,piren,0.21087974259581196,-0.018203904958900872,-0.004801757395489245,0.0004675966775436031,0.0017279350721159542,-3.415455378420624e-05
2025/04/09 10:59:00.723149160,1744189140,720780980,piren,0.21037703750466807,-0.015360637888587648,-0.0031976353620805594,-0.0010872820603881818,0.0019705257403832147,-6.40660793241281e-05
2025/04/09 10:59:00.808762081,1744189140,805703547,piren,0.21175294453986282,0.007761087166470781,0.005934521591508765,-0.0014374516777063068,0.001752101436473724,0.0
2025/04/09 10:59:00.918993031,1744189140,915420793,piren,0.21262258928727973,-0.09261228390367088,-0.038854494470341415,0.00036594564861683354,0.0011151801652015238,-0.000127488364123858
2025/04/09 10:59:01.83402451,1744189141,81298604,piren,0.21258572813123894,-0.049750653664091336,-0.020808835344069364,-0.0010093330309840535,-0.00020476125077988053,-4.5621210047589527e-05
2025/04/09 10:59:01.169313839,1744189141,166288412,piren,0.2123023911129289,0.001685081289195299,0.0017568257065806398,0.0006554287882677745,-0.0010552758740992089,0.0
2025/04/09 10:59:01.334679957,1744189141,332557561,piren,0.21169476682837357,0.014348679440636636,0.007715431837738849,-0.00044460756595716933,-0.0018600938889177187,-0.00015051437563899834
2025/04/09 10:59:01.419597794,1744189141,416672001,piren,0.2121119644593286,0.04126701910070099,0.016509789841584438,-0.0006103994557103406,-0.0018415710513439668,-0.0003524217872131278
2025/04/09 10:59:01.503830697,1744189141,501693076,piren,0.21134451378376493,-0.062153778464117154,-0.026909789891161127,0.0011693939789368163,-0.001367712075091594,0.0
2025/04/09 10:59:01.671445864,1744189141,667259079,piren,0.20996998268261807,-0.024982714686398462,-0.010225386060053961,-0.0004155021649264,-8.909014442345043e-05,-0.0002519049742817295
2025/04/09 10:59:01.837409376,1744189141,833408157,piren,0.2079783532439904,0.021883820440568302,0.010457981996621906,0.0008970174876528038,0.0010291822407785228,-0.00018164794863393245
2025/04/09 10:59:01.921451586,1744189141,918551962,piren,0.20688972724551108,0.031172878133965035,0.014955168985643601,-0.00022324997587427434,0.0015142866450051989,-0.0003852768074522162
2025/04/09 10:59:02.88795960,1744189142,85622680,piren,0.20690123731233406,0.04718891689872831,0.020970645272237954,-2.9789212345579206e-05,0.001570618497603938,-0.0003542704418196119
2025/04/09 10:59:02.172445214,1744189142,170416705,piren,0.2062498296719388,0.03657481093320453,0.019253039069091166,0.0001260354553081367,0.0011783692348358583,0.0
2025/04/09 10:59:02.257673640,1744189142,254801039,piren,0.20611652049300339,0.15727740465403398,0.058029971955388254,-0.0009121674100277404,0.0005720275030441245,-0.0014333514031785396
2025/04/09 10:59:02.424499627,1744189142,422402398,piren,0.2054815584683424,0.05072379132129361,0.020741031496018678,0.0013445214821154862,-0.0005567214398267692,-0.00013919670198217564
2025/04/09 10:59:02.510094619,1744189142,506996211,piren,0.2046532304886117,0.08513263267433764,0.034110913429917865,-0.0006812012146770908,-0.0016140785241291142,0.0
2025/04/09 10:59:02.679799488,1744189142,673184411,piren,0.20333449844385024,0.04311985475836602,0.020521115147527635,0.0012612147192924085,-0.0014179429243631628,0.00011554530390387427
2025/04/09 10:59:02.762087549,1744189142,758980014,piren,0.20008312538918818,0.11515186515959853,0.040517046890643414,-0.00015552278735168922,-0.0007718526738479545,6.54543512604951e-05
