time,header_stamp_secs,header_stamp_nsecs,header_frame_id,twist_linear_x,twist_linear_y,twist_linear_z,twist_angular_x,twist_angular_y,twist_angular_z
2025/04/09 10:58:24.161548946,1744189104,150149013,piren,-9.66212151524813e-05,0.06464639843902573,0.028109900240005866,0.0008310738774782646,1.785777218692639e-05,1.0034340948758129e-05
2025/04/09 10:58:24.279984716,1744189104,260258931,piren,-3.767828625313981e-05,0.10779446697429107,0.04554461162187243,-0.0008045862073373539,-0.00020787737953599205,2.1069261302664237e-05
2025/04/09 10:58:24.432351401,1744189104,415201866,piren,0.0034858296282891388,0.021845867454975687,0.013018076410475796,-0.0009949366136019985,-0.0017039311494396238,0.0006663063706667563
2025/04/09 10:58:24.688408491,1744189104,684550858,piren,0.004514269331002652,-0.15276002043247075,-0.06182673120764222,-0.000793784866902465,0.0006697190753555836,0.0011476308206130389
2025/04/09 10:58:24.760287489,1744189104,756765934,piren,0.002780731988241314,-0.12255309142042364,-0.047444450906498695,0.0006847989803770989,0.0009640431365408803,0.0
2025/04/09 10:58:24.897213970,1744189104,895363442,piren,-0.0008457243014618138,-0.11173400569523523,-0.042246261376605726,-0.0006634117069361854,0.0016385256691549726,0.008113677609625655
2025/04/09 10:58:24.970919107,1744189104,967248058,piren,-0.0025391897418558067,-0.07799150865139468,-0.028265382822766166,0.0008504230144339249,0.0019739830157037295,0.0012607263303523054
2025/04/09 10:58:25.111308233,1744189105,106305768,piren,-0.0051299635554642,-0.06379490569852436,-0.02322749726857503,0.001027749370088522,0.001660518331799864,-0.00011914859197673512
2025/04/09 10:58:25.252178860,1744189105,244316243,piren,-0.002876106724761484,0.0692819738434528,0.02764428441869568,-0.0007342168453331457,0.0002685897454895343,-0.00043532761100203407
2025/04/09 10:58:25.342873793,1744189105,338812845,piren,-0.001585759811359821,-0.06759921581410794,-0.03214093005023557,0.0009557060120483233,-0.0011023029474920153,-0.0004320643767229323
2025/04/09 10:58:25.413757872,1744189105,410164349,piren,-0.0006692880418995625,0.06608081613344352,0.02227666356394955,-0.0008450831003444725,-0.0021374459885543503,-0.00041638554997217286
2025/04/09 10:58:25.549540009,1744189105,547134364,piren,-0.000492763619877223,-0.07002895724817876,-0.0346069978836055,0.000826255767629428,-0.0026334193611915187,-0.0004672957899888867
2025/04/09 10:58:25.626664558,1744189105,621437676,piren,-0.00042960521864188157,0.06433942931862388,0.021977219961879582,-0.0009687578513229833,-0.002501755390586282,-0.0003571412094836865
2025/04/09 10:58:25.765327145,1744189105,761980879,piren,-0.000705424819989275,-0.07453678791944271,-0.03459738931689628,0.0005790748381216871,-0.0013083310235016612,-0.00034393007273898323
2025/04/09 10:58:25.908247817,1744189105,902048621,piren,-0.0006525129050260144,-0.05726195778461347,-0.02243923727664622,0.0007309669852298261,0.0004451389289688017,-0.001444995473982395
2025/04/09 10:58:26.43910523,1744189106,40191818,piren,-0.0005359817285352616,0.07714822070365612,0.03287407772544746,-0.0009681398053585296,0.0014600863624701494,-0.0006216303400576558
2025/04/09 10:58:26.115539794,1744189106,111443768,piren,-0.0004171211285211026,-0.05896905355562099,-0.02449252854255974,0.0008251471302834728,0.002090256356415504,-0.0002852762907582413
2025/04/09 10:58:26.254575265,1744189106,251487459,piren,0.00014067600814087226,0.07552752065048393,0.030902885577040774,-0.0008505063518323618,0.002219663078063531,-0.0002647993696735594
2025/04/09 10:58:26.330891193,1744189106,321972035,piren,0.0005044008876211594,-0.06043374827354542,-0.026273723442714496,0.0009445285413813032,0.001832766520482035,-0.0002559991618204343
2025/04/09 10:58:26.394604083,1744189106,392463193,piren,0.0009897788695070633,0.07108864277060914,0.028126395194590682,0.0008205663741667464,0.001474052646012867,0.0
2025/04/09 10:58:26.465120785,1744189106,463072828,piren,0.0012417557472872434,0.03125432646383982,0.014967870232365567,-0.0005920895670589863,0.0005704657725297143,-0.00026530681196091374
2025/04/09 10:58:26.604401510,1744189106,600254918,piren,0.0010701648228859998,0.021260490488156425,0.012851065050910361,0.0008702635740915309,-0.0004386366339735966,0.0
2025/04/09 10:58:26.673369652,1744189106,671531544,piren,0.0010128985521077997,-0.005234429256189253,0.002901219694852554,-0.0005968308558036848,-0.0012716987629478864,-0.00024130593623208443
2025/04/09 10:58:26.812357748,1744189106,809283310,piren,0.000497295292325362,-0.0040303145308380065,0.0037364828263297028,-0.0008071519207426667,-0.0018817776163307142,-0.00011118793876581669
2025/04/09 10:58:26.949973165,1744189106,948009104,piren,-0.00027869212940458913,-0.11921292581059875,-0.04794801122347778,0.0008728598604181257,-0.0017384590638348356,-0.00019654440406601003
2025/04/09 10:58:27.23296475,1744189107,19759537,piren,-0.0006817884129759472,0.032570794264437625,0.012925364770555413,-0.0009227944319531254,-0.0012019665721358667,-0.0001866333186660321
2025/04/09 10:58:27.162483785,1744189107,159190641,piren,-0.0011486222668281691,-0.0904496483125067,-0.03966015339303681,0.0006097038529637691,6.05890936359126e-07,-0.00017806225201148548
2025/04/09 10:58:27.302912625,1744189107,299301707,piren,-0.001024758260155067,-0.06384065678703425,-0.02563569897420301,-0.0008152863331406995,0.0008264228218273269,-0.0009177519245210673
2025/04/09 10:58:27.373433097,1744189107,370272282,piren,-0.0009843835338415369,-0.022586408777852715,-0.006762741139018688,0.0005836621901171769,0.00135443000672905,-0.00029293385248558624
2025/04/09 10:58:27.512529284,1744189107,509860108,piren,-0.0006072546399082052,-0.011779787839351206,-0.001714132849920988,0.0007549041486490723,0.00158799178621332,-2.3964785274558947e-05
2025/04/09 10:58:27.651735399,1744189107,647533121,piren,6.0935213514313135e-05,0.11393808289776552,0.04704195791026933,-0.000917007948419727,0.001280377669949339,-4.243016595436046e-05
2025/04/09 10:58:27.744649596,1744189107,742076185,piren,0.0004017152856704347,-0.02988021358669446,-0.01531520941383839,0.001016118279291933,0.0010845147863591121,-4.982527931280828e-05
2025/04/09 10:58:27.816553082,1744189107,813813556,piren,-0.0007969815423621179,0.09559758747486649,0.03565303136193563,-0.0003849973430675662,0.0007347060155687432,-0.00017146175201001186
2025/04/09 10:58:27.955760207,1744189107,953263638,piren,-0.0013706548532809388,-0.049697173863070015,-0.025679223592679816,0.0018178598624642552,0.0002273744682854507,-0.0003449078068702124
2025/04/09 10:58:28.27722698,1744189108,23748143,piren,-0.0014839672301604873,0.07535303167933216,0.026907220358181827,0.001627437759767502,-0.0003899428663019519,-0.0005037581997850911
2025/04/09 10:58:28.99592361,1744189108,97312846,piren,-0.0014186567055730842,0.038891011811255344,0.015599756811375156,0.002987657299312599,-0.0006547192882752576,0.0
2025/04/09 10:58:28.173194761,1744189108,170173257,piren,-0.0010022631552146772,-0.00420209797871484,0.0001633355294441679,0.0009668865168752181,-0.0009778848302792315,-0.0007811705517934229
2025/04/09 10:58:28.318799663,1744189108,312436828,piren,0.00042684493996603145,-0.1203489390170498,-0.05047628034367931,0.0026482544355799402,-0.0012127254387877958,-0.0004386891194227997
2025/04/09 10:58:28.460722652,1744189108,456530416,piren,0.0033835945776900193,-0.08320268166653566,-0.031999633683245245,0.0020406041444941485,-0.0007552979641564072,-0.001049447047418504
2025/04/09 10:58:28.602372083,1744189108,599205228,piren,0.007191837063373896,-0.07914689804401949,-0.028880877670408645,0.0017244033287700012,-0.00025920223325076483,-0.004878616097981369
2025/04/09 10:58:28.674513697,1744189108,670711556,piren,0.011774702748198251,0.06675066184552543,0.030342304186818297,0.0004271597878992539,0.0001808785673561348,-0.0013792130835716258
2025/04/09 10:58:28.812649511,1744189108,810746619,piren,0.018892488064739154,-0.07822601239986486,-0.03419007057468973,0.001075937828944957,0.0006557784154046889,-0.0007237790553906428
2025/04/09 10:58:28.953240178,1744189108,950554703,piren,0.027188054754606127,0.0582925524673092,0.0236135097728181,0.00038864385449866745,0.0009460385533168717,-0.0015450892435008672
2025/04/09 10:58:29.25274024,1744189109,22461040,piren,0.0353773556023043,0.01861795367330981,0.009978746296523235,-0.0007341597576807759,0.000941376204585021,-0.0013875502010668194
2025/04/09 10:58:29.165759745,1744189109,163332387,piren,0.04707560195179212,0.03249447183557006,0.017853345426441868,-0.0023582497510502265,0.0006106862438395399,-0.0011591843145052818
2025/04/09 10:58:29.305441119,1744189109,303592566,piren,0.060419388609489026,0.01769586647128474,0.012808377121360414,-0.0020114359757160204,-0.0005426282907074004,-0.0007752979452529736
2025/04/09 10:58:29.444080714,1744189109,442091416,piren,0.07416589108242987,-0.11356326777113368,-0.04664736291552521,-5.768042276816698e-05,-0.0014287176911163737,-0.0012456338788852978
2025/04/09 10:58:29.516402244,1744189109,513347548,piren,0.0863537138423453,-0.1260374512972257,-0.050553497727316016,-0.00037465880250285837,-0.0019516231843261331,-0.001253238950328624
2025/04/09 10:58:29.656208531,1744189109,653153261,piren,0.09747260514582193,0.030567432576389386,0.014650203657196395,-0.0008592691147025014,-0.0019864339971837437,-0.001174697776675288
2025/04/09 10:58:29.727947020,1744189109,724557524,piren,0.10662850672124476,0.017420583733473015,0.011717444631290954,-0.0005027992860782454,-0.0017046918562653713,-0.0010814762681292263
2025/04/09 10:58:29.866655637,1744189109,864376002,piren,0.1173379602481418,-0.007004169636730673,0.00287157896990288,0.00032297251840317356,-0.0006348854587054432,-0.0009274516386850326
2025/04/09 10:58:30.34278552,1744189110,29940770,piren,0.12668158048550138,-0.009653635235873459,0.002346105030371684,0.0008626561281558525,0.0010157670591863007,-0.0005147748009357907
2025/04/09 10:58:30.104669411,1744189110,101799869,piren,0.13441681022654844,0.10711450458679703,0.048330567059698105,0.001979907441313957,0.0014476975857451908,0.0
2025/04/09 10:58:30.176804994,1744189110,175135772,piren,0.14135819336215716,0.1599076753172076,0.06903489418740144,0.00035251610577989036,0.0020668873251804168,-0.0009387934902875562
2025/04/09 10:58:30.318274074,1744189110,315849521,piren,0.14966347326876528,0.10616332614258592,0.047583318843990065,0.0006479572234128125,0.002062674585084986,-0.0004615017861962723
2025/04/09 10:58:30.457758789,1744189110,455935643,piren,0.15818256305851716,0.024183198191984973,0.01354295481030627,-0.00031744000666069207,0.0010557730309166068,-0.0007105540950789338
2025/04/09 10:58:30.598419223,1744189110,596480005,piren,0.16576064190639953,-0.023001174328056533,-0.006167136561949518,1.3253276111526667e-05,6.692670449157593e-05,-0.003237887282095024
2025/04/09 10:58:30.672224633,1744189110,668111722,piren,0.17261190711406013,0.01660094969183685,0.009275189018950854,-0.0012427158551482176,-0.0009178878301220483,-0.0006294926861944962
2025/04/09 10:58:30.811152960,1744189110,808725594,piren,0.1795821083343071,-0.024071726768444004,-0.007261624309383222,-0.0007744710267829835,-0.0018868017362024402,-0.0002794864530996215
2025/04/09 10:58:30.954100599,1744189110,950572712,piren,0.1884706158368317,-0.05704358572561521,-0.020646596646421413,-0.0009184392129393747,-0.0018543655695865548,-0.00046983086040945995
2025/04/09 10:58:31.93107687,1744189111,91406596,piren,0.19616072471876575,-0.07054750370407507,-0.025988158033524212,-0.0007957397630509792,-0.0012697932443144517,-0.0021789780747443165
2025/04/09 10:58:31.167162665,1744189111,164741838,piren,0.2024819839178235,0.04735642672285305,0.019606264755963648,-0.0011353377423163535,-0.0003846818344845159,-0.0004544624432331198
2025/04/09 10:58:31.309141889,1744189111,306324646,piren,0.2078365527552705,0.004520645148931204,0.003304737358361804,-0.0014980642474490763,0.0010047243825184703,-0.00022000024319692512
2025/04/09 10:58:31.454625196,1744189111,452202241,piren,0.2123679391358564,-0.1289912714533793,-0.05527718415218344,0.0008417359854993326,0.001650791833454886,-0.0003832985541082802
2025/04/09 10:58:31.527737184,1744189111,525289012,piren,0.21719050211067947,-0.00020211924575139206,-0.0024213425449480658,0.0022790066223540824,0.0018815616282906792,-0.00039315782116315596
2025/04/09 10:58:31.668207203,1744189111,666272673,piren,0.22211123748115819,0.05139446223220059,0.020258311350893343,-0.00027136879295523643,0.001460739187928384,-0.00038394628596262996
2025/04/09 10:58:31.809848537,1744189111,807814208,piren,0.22859728279513541,0.014466452898613195,0.007053453850063186,-0.0003456930495892235,0.00029097778962154533,-0.0002003021836977567
2025/04/09 10:58:31.954594693,1744189111,950168824,piren,0.23397561128294905,-0.01123814920442871,-0.0022233650294668818,0.0007628191881732361,-0.0005683021278487869,-0.0003266809106379455
2025/04/09 10:58:32.29066055,1744189112,21940279,piren,0.23826501601338346,-0.04489507786902411,-0.015457774285589485,-0.002082690864389482,-0.001264876021329129,-0.0003106809598572988
2025/04/09 10:58:32.167726711,1744189112,164535743,piren,0.2424430142978053,-0.1459727020633645,-0.06036130278300531,-9.622956946904171e-05,-0.0016792000101125218,-0.00030018454014193617
2025/04/09 10:58:32.310008980,1744189112,306938317,piren,0.2464185227822781,-0.11161089702936894,-0.04430874029436885,-0.0015901170472188083,-0.0012277455038218659,-0.0015149479675387793
2025/04/09 10:58:32.477634796,1744189112,474891008,piren,0.25308141589493965,-0.0061560086056497085,0.0013298178529368779,-0.000335492797658727,-0.00021459726808643542,-0.0005644456410958125
2025/04/09 10:58:32.620133658,1744189112,616863584,piren,0.2568686461862853,0.01175085888821652,0.00884797645769887,-0.002358633001376427,0.000881534132647197,-0.00012502245032229773
2025/04/09 10:58:32.691884090,1744189112,689284228,piren,0.2568686461862853,0.01175085888821652,0.00884797645769887,4.681621762329597e-05,0.0011485616123037099,0.0
2025/04/09 10:58:32.764346176,1744189112,762014896,piren,0.2626105306841509,0.0035731893061884193,0.004935821965130395,-0.00021227211045937177,0.001523044148975738,-0.00022476461051601837
2025/04/09 10:58:32.907170417,1744189112,905451253,piren,0.26690194199882167,-0.07074828107261144,-0.02893178572414384,8.745613017751525e-05,0.0014040668728716318,-0.00010060453885227465
2025/04/09 10:58:33.50687882,1744189113,47893497,piren,0.2708733076053249,-0.013003733066853769,-0.0048265102279194776,0.0020668750314238476,0.0009074218366582503,-0.00017672962110143773
2025/04/09 10:58:33.123248945,1744189113,121060099,piren,0.27431093874665746,0.09891066694340134,0.03926203737264132,-0.000766992486424601,0.00020399214151049344,-0.00016614365851197355
2025/04/09 10:58:33.197030717,1744189113,194725650,piren,0.2779534123585108,-0.00258697317672249,-0.00379650201412033,0.0004190552557556511,-0.00017333401613217964,0.0
2025/04/09 10:58:33.270162372,1744189113,268439533,piren,0.2809170197433104,0.12385573602591557,0.04660743544384587,0.0010480324001578046,-0.0008609525408625799,-0.00016310819438230666
2025/04/09 10:58:33.414517094,1744189113,411750355,piren,0.28291958113600224,0.05983215094461139,0.02332179799255137,0.0016368398243269192,-0.0014329697977759617,-7.050190923523586e-05
2025/04/09 10:58:33.557389975,1744189113,554226457,piren,0.28397086864483745,0.12202961235548082,0.04909311712934013,-0.0018422036298421727,-0.0014004947728395722,-0.00011603909990123962
2025/04/09 10:58:33.629502289,1744189113,627346498,piren,0.2843347981837723,-0.04446306995955729,-0.02065583909193755,-6.561148942129969e-05,-0.0010403225062431013,-0.00011897183900181035
2025/04/09 10:58:33.702175493,1744189113,699827043,piren,0.2843347981837723,-0.04446306995955729,-0.02065583909193755,2.2217834417203712e-05,-0.000770339028443481,0.0
2025/04/09 10:58:33.775397479,1744189113,773211173,piren,0.2877238217078683,-0.05694244706915106,-0.022367681902235433,-0.00037210587678383766,-0.00012908772319043178,-0.00014241240563665699
2025/04/09 10:58:33.849724153,1744189113,845845298,piren,0.2915299414055879,0.06163835313786784,0.02544785926508062,-0.0021047000862073084,0.0002322069791566433,0.0
2025/04/09 10:58:33.923720903,1744189113,919785933,piren,0.2930650039134433,-0.0839236986989372,-0.03584828957876553,-0.0008089516864401179,0.0008836419465789066,-0.00011216377328743059
2025/04/09 10:58:34.65820763,1744189114,62794741,piren,0.29500164339683566,-0.18287737445362018,-0.07864892053925976,0.0009219469172509474,0.0014109121568102892,-0.00011539249739117589
2025/04/09 10:58:34.211080590,1744189114,208876114,piren,0.2997601636742273,-0.01861247510582964,-0.008597791684745018,-0.000885776513472051,0.0012225099579074637,-6.110619197473225e-05
2025/04/09 10:58:34.355707406,1744189114,352308414,piren,0.30374706337533997,-0.09365687672116202,-0.03950979902072218,0.0010518437505688198,0.0001910482741689624,-0.00012102363231068361
2025/04/09 10:58:34.496685254,1744189114,495037354,piren,0.3072707315046954,0.000927280593804411,0.002795897240220044,-0.0001518221158875056,-0.00042041751344713504,-0.0012367390866286226
2025/04/09 10:58:34.570839427,1744189114,568399296,piren,0.30940727265742674,0.02399364118027641,0.014643979211997489,-6.885773719212738e-05,-0.0009485695117094858,-0.00010135469461750428
2025/04/09 10:58:34.713691132,1744189114,711142989,piren,0.31075031040800233,0.03521281975695181,0.020441210998092967,0.001584351546989727,-0.0013315032950216414,-3.942045458708732e-05
2025/04/09 10:58:34.817324983,1744189114,814564551,piren,0.31219846940562085,0.1375636031262265,0.06045457732578016,0.0008014855284181891,-0.0011877569972618255,-6.457987010800101e-05
2025/04/09 10:58:34.960332262,1744189114,958032976,piren,0.3129775761590735,0.07915173460810271,0.037337076675829986,0.0011013090816641095,-0.0007253313880073185,-6.197857476531486e-05
2025/04/09 10:58:35.36056894,1744189115,32810574,piren,0.3163151194050442,0.15038228622911354,0.06441124732760181,-0.0007226065054911185,-0.00011765903758457801,-6.705586248976415e-05
2025/04/09 10:58:35.109866707,1744189115,107113716,piren,0.3182865153069997,-0.03320955312838214,-0.014935228991820093,0.0010201975641239678,0.0004964141036141815,-6.165340524631354e-05
2025/04/09 10:58:35.255171686,1744189115,252160779,piren,0.3211664355288576,0.06691719050968367,0.02632900978704926,0.00030434355555872445,0.0011598062103225651,-6.377652608905529e-05
2025/04/09 10:58:35.401160436,1744189115,396810775,piren,0.32306180666687395,0.12117385445421769,0.048961942890862614,0.00025797971029643726,0.0012685523495084856,-0.00036288239058201115
2025/04/09 10:58:35.476080214,1744189115,473647059,piren,0.32537538705728364,0.1511354353988727,0.0612455330157819,0.000495989672287468,0.0010909893321846159,-6.817288938665793e-05
2025/04/09 10:58:35.618568952,1744189115,616555840,piren,0.3275019061070452,0.15716557702949013,0.063486782928726,0.00025704430018063203,0.0003888678588847143,-3.0420382585598805e-05
2025/04/09 10:58:35.764796528,1744189115,760747621,piren,0.3314132508059629,0.028543695188726848,0.01332797077111652,0.00104363136696197,-0.0005551591030343799,-4.871126564833844e-05
2025/04/09 10:58:35.908290419,1744189115,906344967,piren,0.33410093495012916,-0.06475921130759248,-0.0233812083061017,0.0016372847985013737,-0.0011736092766352348,-0.00019120820963949072
2025/04/09 10:58:36.56120330,1744189116,53461091,piren,0.3353040837384924,-0.01308187960407936,-0.0028941612580200386,0.0012561808819615955,-0.0010826329756486557,7.855416207127428e-05
2025/04/09 10:58:36.201831307,1744189116,199896004,piren,0.3373753472564204,0.03768768581612589,0.0165385011632524,-0.0008762420126877503,-0.0007620980812162235,0.00015209947740002283
2025/04/09 10:58:36.275677346,1744189116,273748381,piren,0.3384869391675238,-0.1226803127025059,-0.05038280342005086,0.0017012563732935041,-0.0003414447687322416,8.293174013274232e-05
2025/04/09 10:58:36.420558652,1744189116,418300227,piren,0.34073095002077025,-0.05277591081221632,-0.0205942568813561,0.00013019025959933636,0.00043596057611850034,4.020043575017018e-05
2025/04/09 10:58:36.565139834,1744189116,562990362,piren,0.34317783947535646,0.04200721904762671,0.01662864748102039,-0.0015641634154315257,0.0009633437601172111,7.022404370791202e-05
2025/04/09 10:58:36.710032965,1744189116,708387928,piren,0.3472711722310578,-0.08766273032815748,-0.036285518934316405,-0.00020191464785419933,0.0009650721852818134,3.878432732045732e-05
2025/04/09 10:58:36.856183977,1744189116,853375549,piren,0.3512909337496694,-0.10779565234697744,-0.04254853687362959,-0.0006791816412301585,0.0005022984004269016,6.483653301019823e-05
2025/04/09 10:58:37.1630506,1744189116,999341364,piren,0.3537723446325799,-0.20337693316696545,-0.08494287872893863,0.0004908080258545561,1.7959841655125526e-06,0.00029265824325225395
2025/04/09 10:58:37.75950057,1744189117,73809760,piren,0.35601293089780484,-0.11957126991606033,-0.04782722411107613,-0.0001202496555270789,-0.0004509976754508949,7.933128980086235e-05
2025/04/09 10:58:37.151802734,1744189117,149183087,piren,0.357193912952107,-0.15070130708836674,-0.06088892504949782,0.0008082625762588958,-0.0006329141030891816,0.0
2025/04/09 10:58:37.227470328,1744189117,225385285,piren,0.3580688323620962,-0.021487515468471413,-0.006947454552365354,-0.0010274528748038195,-0.0009059513025597776,7.000274560374098e-05
2025/04/09 10:58:37.328667320,1744189117,326143531,piren,0.36005018546325124,-0.05207804025599305,-0.018985250395398903,-0.00030228527618416897,-0.0009999093493527937,0.0001237122244598555
2025/04/09 10:58:37.417744413,1744189117,411646226,piren,0.3624679160108372,-0.019893652555175306,-0.004473660265664774,0.0009305220763879307,-0.0008160760103782707,0.0
2025/04/09 10:58:37.566408090,1744189117,562990703,piren,0.3632878583260209,-0.013999562692880302,-0.0017272754112045144,0.0004777109218105147,-0.00022416598000937613,0.00029312793411015854
2025/04/09 10:58:37.712375247,1744189117,710427623,piren,0.36392170010622077,-0.004959310267441636,0.0018036811100419943,-0.0010814044604707188,0.0005132820424778773,0.00010033057108126829
2025/04/09 10:58:37.859794274,1744189117,857421398,piren,0.3664109169594668,0.01636054275172593,0.010092764385932613,-0.001520006118934337,0.0009576027074487718,0.00020999750330672983
2025/04/09 10:58:38.8384015,1744189118,6473234,piren,0.367627057133359,0.031326945885256474,0.01547082479223761,-0.0008115610624001593,0.0009087557458453775,0.00010401743944382
2025/04/09 10:58:38.155973155,1744189118,153941543,piren,0.3678607833139723,0.027372329174112576,0.013046726401407655,-0.0018941800904115772,0.0006173053782724388,0.00019151388225031166
2025/04/09 10:58:38.231539414,1744189118,229505410,piren,0.3666568706175441,0.039621786123506364,0.017493667382615714,-0.0004971828303406603,0.00020094462387323657,0.0001855001175222524
2025/04/09 10:58:38.310191295,1744189118,307709542,piren,0.3666568706175441,0.039621786123506364,0.017493667382615714,-0.0020096659589241184,-0.00027510882701185785,0.0
2025/04/09 10:58:38.460081527,1744189118,457305092,piren,0.36246932979365754,-0.12404063847789164,-0.05580057519515932,0.0005457667360869599,-0.000816552889671052,0.0003823990505778502
2025/04/09 10:58:38.605547664,1744189118,603307457,piren,0.35837178194387903,-0.05037105544311178,-0.022730390700972616,0.0015167736971707598,-0.0009200184925697336,0.000849582108993461
2025/04/09 10:58:38.754741942,1744189118,749905805,piren,0.3532286247005233,0.06323614818947955,0.02501750381862003,0.0013194464033072612,-0.0008272128058133864,0.00033356221672599916
2025/04/09 10:58:38.831423473,1744189118,828097140,piren,0.3478376401571497,0.1379415151140156,0.056297401252140916,0.0007475428671255417,-0.0005482734354483658,-3.875814258612333e-06
2025/04/09 10:58:38.906474923,1744189118,903522810,piren,0.34273751758360066,0.18033656744651033,0.07412526040490881,0.0006110233954296408,-0.00033647713668169906,0.0
2025/04/09 10:58:38.981587877,1744189118,979169943,piren,0.3364618714254904,0.015875111977947193,0.004146122873789154,-4.113516917812091e-05,9.033610604127573e-05,-4.901616825509875e-05
2025/04/09 10:58:39.56668795,1744189119,53952641,piren,0.33173837392714645,-0.028741767638849523,-0.012427460053912681,0.00014763397971498399,0.00030106129005081316,0.0
2025/04/09 10:58:39.134587982,1744189119,131548670,piren,0.3262570197346578,0.0015831547395910063,0.0020012053934817687,-0.0007473447316026249,0.00032314612994516353,0.00024959084290045744
2025/04/09 10:58:39.209788947,1744189119,207244265,piren,0.32266142300422884,0.02724539630771596,0.013601889529631421,0.00031837250327157283,0.0012794995167400445,0.0
2025/04/09 10:58:39.356601388,1744189119,354817296,piren,0.31723448704096896,-0.09722621365999748,-0.042349554741287244,-0.002316943942476484,0.0012425830863452406,0.0006756440130182416
2025/04/09 10:58:39.505309737,1744189119,503431760,piren,0.3116650178752026,-0.14031355852116667,-0.06093152698667544,-0.0015082164908128055,0.0008153196104730002,0.0005075547644646408
2025/04/09 10:58:39.583589530,1744189119,580564127,piren,0.30660501333691187,-0.168803403634548,-0.07377826386356318,-0.0010883318349957727,0.00016992826043751066,8.668853764452266e-05
2025/04/09 10:58:39.660033898,1744189119,657863427,piren,0.3018312708404211,-0.0601323563204469,-0.025609233885228302,-0.0003838357124408297,-0.000534155191818956,0.0
2025/04/09 10:58:39.761759223,1744189119,758939451,piren,0.2964905193216056,0.008189762499522635,0.004890423524821302,3.23141794955805e-05,-0.0011731255139362507,-0.0012636408992172832
2025/04/09 10:58:39.911244524,1744189119,909201422,piren,0.29152792045642867,0.17168117495507337,0.06933546852533368,-0.0007960913655940568,-0.0014910282582806657,-0.00036633453508308337
2025/04/09 10:58:40.61035368,1744189120,57538127,piren,0.2819056222279415,0.03577976388619297,0.013227553577571244,8.862627905628969e-05,-0.0015356593855699056,-0.00043986110879262616
2025/04/09 10:58:40.212828787,1744189120,210122837,piren,0.27979382941166486,0.08180362569769292,0.0351082003413002,0.001027889864120688,-0.0015086822056716283,0.000940442312166392
2025/04/09 10:58:40.362726802,1744189120,359794705,piren,0.2630002413503008,0.06811065172569121,0.03154940760844099,0.001152623170592859,0.002142840011864536,0.002469216534320413
2025/04/09 10:58:40.512237543,1744189120,509889925,piren,0.24662434045262682,0.17288472419909245,0.07033621049934852,4.07091481148631e-05,0.0026143150248794343,0.0006770179458997794
2025/04/09 10:58:40.660873074,1744189120,658463198,piren,0.2324808643740654,0.10883297481013776,0.04565540234217352,6.994266926407488e-05,0.0021762777034784356,0.001632826416428578
2025/04/09 10:58:40.813444019,1744189120,811348052,piren,0.22440707155888062,-0.06880022494433524,-0.03044564714128084,-0.0005986148463635859,-0.0006932650537018219,0.0015132080692503171
2025/04/09 10:58:40.964338356,1744189120,962031471,piren,0.21715528710101367,0.06665292919542387,0.022250129658317602,-0.0019453770515188882,-0.0010880225798046345,0.0036578450486053743
2025/04/09 10:58:41.119833552,1744189121,113765880,piren,0.19953384931873203,0.03565894258294882,0.013259842820119955,1.5045399731431367e-05,0.00040124021231866837,0.0013896817952538333
2025/04/09 10:58:41.264344094,1744189121,261943582,piren,0.18840704944536824,0.1079722682567526,0.04146662631029949,0.00012441412842162136,-0.0007949887816197228,0.0011639822444720125
2025/04/09 10:58:41.413694933,1744189121,410603960,piren,0.18582305187396755,0.04988603239116764,0.021071486739618533,0.0012358871553830378,-0.0011718713841995993,0.001423019906590752
2025/04/09 10:58:41.563682283,1744189121,560278373,piren,0.1766966065622911,0.0950808921642865,0.03813298757771521,0.0007266158889177911,-0.0019547996230723083,0.002324090436292699
2025/04/09 10:58:41.711863795,1744189121,709893014,piren,0.17050620620630083,0.004079743635019423,0.00396233798907461,0.00319121306005253,-0.000488240979909972,0.015502173473310952
2025/04/09 10:58:41.861960431,1744189121,859254033,piren,0.16016982278956687,0.03534172598965504,0.015621645698249592,0.0020332520882496053,0.0011570284991427279,0.00801402802181078
2025/04/09 10:58:42.14490635,1744189122,12370086,piren,0.14979281592914062,0.01651886261406524,0.008279009188772064,0.00035571568098834557,0.003438857831460866,0.0021885997710605473
2025/04/09 10:58:42.166768473,1744189122,162830225,piren,0.13961881045388522,-0.053126661125407745,-0.01962498358380627,-0.0016669010923897705,0.001972617367072939,0.002841770324579911
2025/04/09 10:58:42.344683912,1744189122,337257002,piren,0.1356977835725958,-0.19095410300242383,-0.07927861037884147,-0.0005557797390901049,0.0008456152205759198,0.002151717947541583
2025/04/09 10:58:42.417565530,1744189122,415105748,piren,0.1329297391526326,-0.28269156873657353,-0.12022908564732253,-0.001034800696555351,0.00043665386027910073,0.0030693593599568376
2025/04/09 10:58:42.567005336,1744189122,564464916,piren,0.1251873087355763,-0.25960382238331564,-0.10950272232657374,-0.0009766224065134086,0.000191265557028057,0.0011406297621826015
2025/04/09 10:58:42.717086808,1744189122,713049875,piren,0.11382665447745254,-0.25551084164158144,-0.1090358293195588,-0.0010304960521108856,-9.164956360928078e-05,-0.0010090610884892575
2025/04/09 10:58:42.865401459,1744189122,863075299,piren,0.11536690899556575,-0.21653037484779905,-0.09241020765537575,0.002074809729816667,-0.0029834225833070623,-0.00295613449040914
2025/04/09 10:58:43.18554936,1744189123,14550941,piren,0.11413075944660718,0.03445799149148934,0.012766197751687344,0.0018931269406818087,-0.004385150460670564,-0.0020268485640091787
2025/04/09 10:58:43.175647937,1744189123,168087057,piren,0.11113527073089258,0.17886860942039584,0.07491609407750922,0.00033523231408313025,-0.003710912893648221,-0.0032916894485890674
2025/04/09 10:58:43.321301006,1744189123,318711967,piren,0.10663312959563895,0.2829523374342434,0.11759259788427955,-0.0002910588722642422,-0.0010494781420981108,-0.0023264407508653915
2025/04/09 10:58:43.471603949,1744189123,469323260,piren,0.10081925453582712,0.19728150964283397,0.08684161837368984,-0.0011753888959089985,0.0001329404988787891,-0.001982895075693565
2025/04/09 10:58:43.622507256,1744189123,619500426,piren,0.09359624756079951,0.007094607001316977,0.006765757071109574,0.0005891413368698036,0.0028759177177021854,-0.0005000875184567638
2025/04/09 10:58:43.773247125,1744189123,770133704,piren,0.09331586265016098,-0.021255022564492684,-0.0031345871162005642,-0.001993475984074942,-0.0019284809134701476,0.002863473357834544
2025/04/09 10:58:43.923540412,1744189123,920328939,piren,0.08649389649544914,-0.00527207745099164,0.0034366281419981838,0.00036465034296621007,0.0027392389912741133,0.004563471655128086
2025/04/09 10:58:44.72783535,1744189124,70926395,piren,0.08102873748780452,-0.022628568951268753,-0.005439587295492658,-0.00074636078360452,0.007204080108105297,0.004546666230742613
2025/04/09 10:58:44.152345459,1744189124,149234941,piren,0.08144294568924138,-0.07762349534114124,-0.0308092346745247,0.00024102767930924936,0.0068817145047484025,0.0
2025/04/09 10:58:44.232287686,1744189124,228137857,piren,0.08454077043156771,-0.04610846526588917,-0.019239960262986515,0.0017046993652850844,0.00513110784508523,0.004228429024120505
2025/04/09 10:58:44.310542671,1744189124,308090479,piren,0.08549044676601639,0.08548170952922103,0.03019698377267347,0.000576855709283857,0.002238015255750012,0.004111486806324628
2025/04/09 10:58:44.462627039,1744189124,460164297,piren,0.08546892248705276,0.00912994543168591,-0.0010833037341242066,5.0191615853641244e-05,-0.0032919190974615244,0.003739913550820537
2025/04/09 10:58:44.618129968,1744189124,611910430,piren,0.09323324671490824,-0.08673916255170384,-0.041282373851522454,0.000658088611058471,-0.006786160471520886,0.002753429560842917
2025/04/09 10:58:44.791377578,1744189124,789203175,piren,0.08596286500173861,-0.056715187164810194,-0.025390045874756514,-0.0002513845586335493,-0.005671662268210865,0.003498005247199625
2025/04/09 10:58:44.870052351,1744189124,865750170,piren,0.0808870111535272,-0.019905563018392934,-0.0074933930252423335,-3.094927938352792e-05,-0.003729642593224515,0.0
2025/04/09 10:58:45.28902865,1744189125,19599506,piren,0.07775168983312156,-0.012971270238859654,-0.002975240698402992,6.029820792663609e-05,0.0005167598841277225,0.001916087794041109
2025/04/09 10:58:45.101505508,1744189125,97907351,piren,0.07511740600498357,0.10794468421900003,0.04443258488652376,-0.0020012039585167,0.0019546733472791907,0.0
2025/04/09 10:58:45.180080558,1744189125,177490930,piren,0.07429376828513355,-0.03424169664977031,-0.016606970960846033,-0.0009919248744388683,0.0043006021346408815,0.0036099750631144244
2025/04/09 10:58:45.256432826,1744189125,254046983,piren,0.07495112630540475,-0.13434194780970843,-0.06083419065288097,0.0014049437904749462,0.005561668145203599,0.0
2025/04/09 10:58:45.407323303,1744189125,405078467,piren,0.07505374465886248,0.025705038556770005,0.005267946634500198,0.0007716136551443834,0.005069659302164593,0.01667709035890129
2025/04/09 10:58:45.560528996,1744189125,557718562,piren,0.08061551686305407,0.01037662634062056,0.002440265550143017,0.0013897452995947895,0.0019114836877679362,0.007247342377207476
2025/04/09 10:58:45.712797729,1744189125,710469163,piren,0.08066033192471891,0.08209374165157808,0.032042321112440396,0.000718847972745982,-0.0019416208504816586,0.0014669349420620536
2025/04/09 10:58:45.865590381,1744189125,862799545,piren,0.0805472344644842,0.12176814742115223,0.04880619782037819,0.0017594180376851345,-0.004675620884548822,0.0026372509323878716
2025/04/09 10:58:46.18044054,1744189126,15544520,piren,0.0799022510316719,0.05194259380618772,0.022001753620143994,0.000752323714306658,-0.004831076354297388,0.0014667655190048756
2025/04/09 10:58:46.170748690,1744189126,168453113,piren,0.0792043058950186,0.12761580731885172,0.05133579266290099,0.0003703276706824727,-0.0030258672880386704,0.0022764701276849616
2025/04/09 10:58:46.248264345,1744189126,245160037,piren,0.0792601311618911,0.046141964053412296,0.020167466975442215,0.0010812936598742382,-0.0018378167144259532,0.0
2025/04/09 10:58:46.327195566,1744189126,323809613,piren,0.07922065078109894,0.08509099481238902,0.03579189000265302,-0.0006230504851317023,0.0011956914432547196,0.0028055728281634797
2025/04/09 10:58:46.404377017,1744189126,402168892,piren,0.080452736120924,0.01893435607025734,0.009933311970900936,-0.0011183531701013038,0.0023043670728288665,0.0
2025/04/09 10:58:46.486010020,1744189126,479649071,piren,0.08246011628516511,0.01874491926519025,0.009861027519572905,-0.0005625348429558305,0.0043093864929196046,0.002563623521021958
2025/04/09 10:58:46.560130469,1744189126,556999231,piren,0.08294177337033956,-0.02755562467800788,-0.009659615634129459,-0.001223582500556062,0.005010291783538472,0.0
2025/04/09 10:58:46.712788225,1744189126,709999628,piren,0.08592215535413755,-0.05915379014186415,-0.024045655061693615,0.000588979807832918,0.003942919532884878,0.011348940638665947
2025/04/09 10:58:46.868766429,1744189126,866040984,piren,0.0895820479108353,0.03193747331615581,0.010124508615749483,-0.0008381800006494573,0.0009391734747330987,0.004191923304587404
2025/04/09 10:58:47.23752148,1744189127,20031824,piren,0.09313503620337554,0.0067887921689808,5.7450898603839465e-05,0.0009455070477074305,-0.0024976863611927387,0.001045618443719258
2025/04/09 10:58:47.102458141,1744189127,99224617,piren,0.09585444681606545,-0.026700518607368353,-0.013415122609202178,0.0009355089308821235,-0.0033854166556929605,0.0
2025/04/09 10:58:47.179915542,1744189127,177770996,piren,0.09752585248825212,-0.07150145268324282,-0.03159333928594235,0.001136738780007112,-0.004441940204295575,0.0018795781366905276
2025/04/09 10:58:47.257979309,1744189127,255837499,piren,0.0969219095190057,0.04854922366061967,0.015714690861043656,0.000977484241495851,-0.004474826850973703,0.0
2025/04/09 10:58:47.436738683,1744189127,433920546,piren,0.09728882076669847,-0.00095677783379048,-0.0018550907156927726,-0.0007103867872803227,-0.0026993375782226867,0.0008926037040991865
2025/04/09 10:58:47.514224795,1744189127,512055353,piren,0.09767999303626325,-0.01504752947998983,-0.005578725151284222,-0.001050586007012713,-0.0006987105634381425,0.001414921996456407
2025/04/09 10:58:47.669094677,1744189127,665187752,piren,0.09935681849137849,-0.11097781102794302,-0.04647426578046057,0.00026019511116988223,0.0024079972517798347,0.0015267657568099476
2025/04/09 10:58:47.821119908,1744189127,819280136,piren,0.10098955387338733,0.0285854391735475,0.008924973476153834,-3.971395058477184e-05,0.004146849408544214,0.0008690637043458954
2025/04/09 10:58:47.901370757,1744189127,898542261,piren,0.10351499833127505,0.10600938607881202,0.0400010750733533,4.282787306321572e-05,0.004251977591526719,0.0
2025/04/09 10:58:47.981611728,1744189127,978637625,piren,0.1065477337868289,0.03819293858054976,0.013673158658553047,-0.0008420081311407859,0.0036311807353373612,0.0013400193920971644
2025/04/09 10:58:48.61587381,1744189128,57953415,piren,0.11004252600946543,-0.11005466025940308,-0.05134655356538813,-0.00039645622900929335,0.0029880050665709104,0.0
2025/04/09 10:58:48.141558392,1744189128,137923958,piren,0.11205435781698739,-0.11722610237766361,-0.05229996503311929,0.0004828023238344398,0.001337479458800295,0.0010822154237631716
2025/04/09 10:58:48.220069330,1744189128,217539218,piren,0.11364033281961397,-0.1101503382477867,-0.04783844900812388,-4.822829117056998e-05,-0.0005709899294163493,0.0012447710196708812
2025/04/09 10:58:48.374571132,1744189128,371352009,piren,0.11538064005640095,-0.026265812973998395,-0.011372663069606312,-0.0005615280737654316,-0.0030278158181207666,0.0008491707694063273
2025/04/09 10:58:48.451998049,1744189128,448975724,piren,0.11694868905447052,0.004348484635601418,0.0027597875328742045,-3.370112749638295e-05,-0.0035871396735335103,0.0
2025/04/09 10:58:48.531709830,1744189128,528398654,piren,0.11804515662497593,0.018940679088472315,0.009945616261174541,0.0003817424046056703,-0.004001203362356697,0.0007057280042100783
2025/04/09 10:58:48.610728933,1744189128,607409421,piren,0.11842239872271434,0.022098003982681837,0.012093640244577576,0.001228356139789541,-0.00344208369155282,0.0
2025/04/09 10:58:48.764709928,1744189128,761269273,piren,0.11824675816860704,0.07087379526724275,0.032101486415538096,0.00126093647412206,-0.001118448842048787,0.0012765951996210239
2025/04/09 10:58:48.919591612,1744189128,916807907,piren,0.11978457380232625,0.031202798675939482,0.015555392174000905,3.521925437865425e-05,0.0017220452954126806,0.0004497341032911618
2025/04/09 10:58:49.75375316,1744189129,72889375,piren,0.12257957631895819,0.04241620080924716,0.019259908269317894,-0.0009247092239373899,0.003621841483102084,0.0005523711036184628
2025/04/09 10:58:49.156617993,1744189129,152849726,piren,0.12635595184988246,-0.0888197110302835,-0.04029062647148711,-0.0005587141190356875,0.003829609277084991,0.0
2025/04/09 10:58:49.236458357,1744189129,234314163,piren,0.12957987905592758,-0.17016359765993996,-0.07792010175255076,0.000816096959850896,0.00357452496537163,0.0006776010253368032
2025/04/09 10:58:49.316423623,1744189129,313823828,piren,0.1308804862534545,0.010740114563531328,-0.0032106567562641963,-0.0009274299007229285,0.0024988748006769357,0.0006916467112989893
2025/04/09 10:58:49.470865481,1744189129,468526951,piren,0.1344551415276784,-0.058726398948375336,-0.031232591487649494,0.00018053568472308593,-8.874953764287621e-05,0.00040585600543704324
2025/04/09 10:58:49.624435403,1744189129,622007970,piren,0.13788776784549567,0.0803553504330003,0.0278809216083407,-0.00010649128006621986,-0.0026226245474143418,0.00013147809846781038
2025/04/09 10:58:49.704892026,1744189129,701193184,piren,0.141466690774496,-0.039938277152078566,-0.022139452753210075,0.0008443976916129467,-0.003551390415392018,0.0
2025/04/09 10:58:49.859363369,1744189129,857130381,piren,0.1423395159776193,0.10214183757020606,0.038734993638010536,0.0008195480717762401,-0.0034108672121215757,0.0005727519133314518
2025/04/09 10:58:49.963143742,1744189129,960086409,piren,0.14284941981632088,0.18692844764559507,0.07547257104794775,0.00021861373275424965,-0.0022803491386498283,0.0007797485361458552
2025/04/09 10:58:50.120795941,1744189130,117939184,piren,0.14429306270963038,0.10681830608491422,0.0468526716874618,0.0009854816741877383,0.00027273663722423013,3.262834231113257e-05
2025/04/09 10:58:50.277164198,1744189130,274778629,piren,0.14571909335932118,0.15543743933485443,0.06598005068742133,-0.0003157988090954364,0.0028006085750375406,0.00019152849203467415
2025/04/09 10:58:50.358836277,1744189130,354315515,piren,0.1481062268524512,-0.041456180868136405,-0.017708509199133637,0.0009039416096986175,0.0034703075762689372,0.0
2025/04/09 10:58:50.436331058,1744189130,433742177,piren,0.14961561835116313,-0.06210639728515246,-0.023636485397561125,0.0008542847400573786,0.005219779186707157,-0.00012522219994218962
2025/04/09 10:58:50.518817618,1744189130,513893111,piren,0.1514644256886187,0.04967224695974352,0.02062224357676257,-0.0011050579685210216,0.0043281612664428145,-0.0014243044812565955
2025/04/09 10:58:50.672305827,1744189130,670074963,piren,0.15517032762668362,-0.09931748844915175,-0.04393952198728847,0.00025230115668644086,0.0013096627452091718,-0.001081364977900554
2025/04/09 10:58:50.753316754,1744189130,749477850,piren,0.15845087976222214,-0.10781377227040223,-0.04531328907229827,7.336739075040466e-06,-3.886514199346164e-05,0.0
2025/04/09 10:58:50.831296822,1744189130,829303708,piren,0.16066643565382047,-0.08634980104730032,-0.03463799499980268,-0.0014347994928196035,-0.002579018082038732,-0.001219232516139442
2025/04/09 10:58:50.912075618,1744189130,909832993,piren,0.16267985501967824,-0.12491299305497788,-0.050834335811735014,-0.0010866253992476043,-0.004516067219140778,0.0
2025/04/09 10:58:51.69181398,1744189131,67177560,piren,0.1643483649472274,-0.1784429676454246,-0.07514248181734359,-0.0001926219391423062,-0.005183620227566584,-0.0020399434409386743
2025/04/09 10:58:51.228114021,1744189131,225051072,piren,0.16482402020810705,-0.20159787167813276,-0.08612676838002635,-0.0009116534494119328,-0.0031574817958630102,-0.0005697896377572223
2025/04/09 10:58:51.384521406,1744189131,382155669,piren,0.16495779654305814,-0.052273497817214715,-0.019912769006905445,0.0002621729651791808,0.00025017903195928066,-0.0009929526768389758
2025/04/09 10:58:51.464882718,1744189131,462326997,piren,0.16684654999912718,-0.09644555999702872,-0.04082091865039879,0.0008317706658708056,0.0024953383824988843,0.0
2025/04/09 10:58:51.623809581,1744189131,621345753,piren,0.16817652204613304,0.03205197849470012,0.015270012247263466,-0.0001244144469208256,0.004509287741937057,-0.0009110404824842486
2025/04/09 10:58:51.706141559,1744189131,702447168,piren,0.1692710337728841,0.12333323195789404,0.054430524359646223,0.0012420588123592338,0.004713506174348176,0.0
2025/04/09 10:58:51.786701902,1744189131,784005210,piren,0.17042227025081053,0.2346365413315189,0.09844246110839633,-0.0007009386518669647,0.004273129593761678,-0.001774052011616627
2025/04/09 10:58:51.866901783,1744189131,864408094,piren,0.17236256413279993,0.201062262606637,0.08505695660136722,0.00014112756865375498,0.0028398530528880713,0.0
2025/04/09 10:58:52.23733463,1744189132,21473131,piren,0.1745524869229485,0.1447742326115977,0.06149692948778067,-0.0005715276216457393,6.928115301269562e-05,-0.0007590835949231226
2025/04/09 10:58:52.133267717,1744189132,129882942,piren,0.17687959701966072,-0.014656468208478102,-0.009561975458227248,0.0005901280146909769,-0.001655364625479024,-0.0014844541263014563
2025/04/09 10:58:52.213246192,1744189132,211098538,piren,0.17714242773922712,0.10197928494717329,0.03794421218023423,-0.000627131537998056,-0.002964782223713417,0.0
2025/04/09 10:58:52.370890705,1744189132,368535508,piren,0.17887093706949606,-0.028257690372721245,-0.015664166231333994,0.0009904519327094785,-0.0040436602112592125,-0.0036508975437985806
2025/04/09 10:58:52.529130681,1744189132,526438313,piren,0.1810557800336938,0.006685874304047552,0.0027194422030846245,0.0008590455767658984,-0.0030831405061907497,-0.0008457517074957171
2025/04/09 10:58:52.611066706,1744189132,606494507,piren,0.18299021600905696,0.06200298078306246,0.027511799169800424,0.0016858267278366578,-0.0014326750051776931,0.0
2025/04/09 10:58:52.768514489,1744189132,765519424,piren,0.18403079766708294,0.12964862181520315,0.054583851986343815,0.0013649175523871135,0.0014904442401567843,-0.0025302639041127153
2025/04/09 10:58:52.926807234,1744189132,923986100,piren,0.18576806669211698,0.12872622708696238,0.0544169426524985,0.0010263532130647195,0.0035591529004339495,-0.0006575538030518832
2025/04/09 10:58:53.7947511,1744189133,5465529,piren,0.1871322145651903,0.12938790306375178,0.05432756307687334,0.0013266139189750713,0.003897373115765857,0.0
2025/04/09 10:58:53.89458566,1744189133,87472924,piren,0.18751906607940336,0.1514081447324761,0.06108739107699364,2.3500373854705886e-05,0.00397358861506502,-0.0013580197779095233
2025/04/09 10:58:53.170302262,1744189133,168198640,piren,0.18987536456356802,-0.030163503455015395,-0.01501211895739367,0.00030983581231370675,0.0030305096725815783,0.0
2025/04/09 10:58:53.328365087,1744189133,326055929,piren,0.19286338498645827,-0.038908468824366514,-0.01714395548901024,-0.0006200935069221128,0.0006866662626854702,-0.000775386851577349
2025/04/09 10:58:53.409917837,1744189133,407940307,piren,0.19482838846474815,-0.06352223816597959,-0.026211837585025252,0.0005805465571312125,-0.0011991428091911397,-0.0018886990711272057
2025/04/09 10:58:53.568799764,1744189133,565598057,piren,0.19754944878168326,0.025715752210088816,0.008968991383532979,-0.0005811808846110447,-0.0038187196274533032,-0.0011348324535483201
2025/04/09 10:58:53.725937084,1744189133,723757023,piren,0.19847774737013432,0.036562988728291224,0.014979529115858694,-9.720659868094938e-06,-0.004395039741876397,-0.0006163819929144897
2025/04/09 10:58:53.809053677,1744189133,804769937,piren,0.1997618970361146,-0.14026527661039923,-0.06151199754655778,-0.00017444193174008063,-0.004048571078167844,0.0
2025/04/09 10:58:53.889677179,1744189133,887183505,piren,0.1992912473527668,-0.12115229611486115,-0.04984120292383231,-0.0010280807218630776,-0.0025238945931688314,-0.0009243090871392412
2025/04/09 10:58:53.972846681,1744189133,970233179,piren,0.19988405700378287,-0.12131373214547325,-0.04769049480715416,-0.0008713097618874399,-0.00044570486082105983,0.0
2025/04/09 10:58:54.136134726,1744189134,133225979,piren,0.20072835682558443,-0.10814684869819845,-0.040744859493095045,0.0011759270491933647,0.002450615676845851,-0.0005468928027307988
2025/04/09 10:58:54.219550764,1744189134,215069639,piren,0.20102971848496062,-0.01858107036109774,-0.004407367739055271,0.0005614454785958288,0.003737207226118503,-0.001042446466281141
2025/04/09 10:58:54.326971928,1744189134,323155771,piren,0.20194139045020174,-0.011131062889672617,-0.0020284123600030988,0.0005353099628564992,0.004130843149292661,-0.001098830473484383
2025/04/09 10:58:54.407858635,1744189134,405545701,piren,0.2029371144209109,-0.0010907328120092347,0.0013708528190446178,-0.0005203928953623952,0.003592511170957735,0.0
2025/04/09 10:58:54.568657364,1744189134,565959455,piren,0.20576729797644483,-0.15500439735069535,-0.07087093701475908,0.0008363211931967543,0.0015173264352169057,-0.0022324872540055115
2025/04/09 10:58:54.729769603,1744189134,727273202,piren,0.206873765260707,0.04410563021824512,0.011023940715398764,-0.0013384063709387286,-0.001298218898400688,-0.0005382426471699389
2025/04/09 10:58:54.812099819,1744189134,809880076,piren,0.20837720924887443,-0.02723463576849186,-0.01764480011741327,1.1465039795027489e-05,-0.002932316221198419,0.0
2025/04/09 10:58:54.974045213,1744189134,971481031,piren,0.20982216486277147,0.010428468616372845,0.0024003436058262634,-0.00012386824965195844,-0.004141935845304075,-0.002048319677554324
2025/04/09 10:58:55.63659754,1744189135,54160918,piren,0.20903940517264355,0.1557856630117831,0.06195223108866876,0.0008958411609180373,-0.003982093024364015,-0.006961755843056729
2025/04/09 10:58:55.148199918,1744189135,144657694,piren,0.20787051716461075,0.21336266891544167,0.08718666980985616,-0.0020669498347604975,-0.003057422206958408,-0.001021450641152978
2025/04/09 10:58:55.232248344,1744189135,229602105,piren,0.20924328575697482,0.050548051038639685,0.02047199507019329,8.809841556788065e-05,-0.0013747325766678964,-0.0013374933306573335
2025/04/09 10:58:55.314707649,1744189135,312659841,piren,0.20892024429863348,0.1451093803204449,0.05932747897595874,-0.001517551844533672,0.0005927440023434393,-0.0009577845250265218
2025/04/09 10:58:55.475888822,1744189135,473910464,piren,0.2101160211492698,-0.02596233603253581,-0.012053341688767379,0.0006193775508296349,0.0032110866201243166,-0.0006919933024412833
2025/04/09 10:58:55.559425106,1744189135,555259483,piren,0.20958828477523647,-0.038067827479836475,-0.013930786158077798,-0.0007198594903068555,0.0038837869383169534,0.0
2025/04/09 10:58:55.720657520,1744189135,718082987,piren,0.21264546309012086,-0.006925385640989544,0.0005917120157900597,0.0009364850117189889,0.003440837564737136,-0.004669568427710232
2025/04/09 10:58:55.807804739,1744189135,801839289,piren,0.2147874221084295,-0.01748325518337965,-0.004209085239542807,5.309696513924229e-05,0.001963019349219408,-0.0018193786453781803
2025/04/09 10:58:55.966712899,1744189135,964818023,piren,0.21513719589675032,0.11154233822080553,0.04383112443055495,0.0008604203863507982,-0.0008600645233780388,-0.0005418845889253777
2025/04/09 10:58:56.132291422,1744189136,127286579,piren,0.21554896411198582,-0.07177741017467357,-0.035792583409252926,-0.0005124177984187249,-0.0031325437999717193,-0.00037634538192002766
2025/04/09 10:58:56.214361162,1744189136,209677102,piren,0.21504504260551596,0.006377660705901719,-0.0008202232084048022,-0.001788326521680307,-0.0037344727549524317,0.0
2025/04/09 10:58:56.375961510,1744189136,372989092,piren,0.2147773552205764,-0.05366969006568157,-0.0227097932980427,-0.0020691625448561405,-0.002987959430962858,-0.0013124513420600366
2025/04/09 10:58:56.461796796,1744189136,456133352,piren,0.2156761467609159,-0.14539433536410884,-0.06133342556093197,0.0015227346466071391,-0.0016227397610639044,-0.003312042147990775
2025/04/09 10:58:56.566707177,1744189136,564404635,piren,0.21566469000881636,-0.010329333229720739,-0.004149606448415645,0.00010399034057520023,0.00010346845060173624,-0.0006772494194030563
2025/04/09 10:58:56.730723975,1744189136,726799636,piren,0.21572800368016953,-0.013028156626342912,-0.0029067786978514993,0.00020858259848774912,0.002349177328292303,-0.00033385222532274504
2025/04/09 10:58:56.812071415,1744189136,810052115,piren,0.2160097483439132,0.10984645277921938,0.04529860094080795,0.000636866447362027,0.0032556377896510646,0.0
2025/04/09 10:58:56.976263949,1744189136,973698551,piren,0.21652562552089888,0.05590765319147888,0.024386573392084606,0.0015760374171773358,0.0030965081392467964,-0.0013019599169385295
2025/04/09 10:58:57.141095548,1744189137,137844982,piren,0.21827944737751762,0.12595096456434388,0.05073880906521928,-4.776369672811695e-06,0.0013952204618164102,-0.0003226370955636712
2025/04/09 10:58:57.224680840,1744189137,221394665,piren,0.2193705512441285,0.06287346929616346,0.025968165068545154,0.0016018267258898764,-0.0001996354511421443,-0.0005104214465504698
2025/04/09 10:58:57.307362402,1744189137,304394116,piren,0.21977219408277063,-0.003451152011303707,-0.0006917496937624244,0.0002546038397965792,-0.0016914127232632848,0.0
2025/04/09 10:58:57.469032012,1744189137,466878959,piren,0.21928865547783982,0.09244796529383079,0.03549321793081012,-0.00038288015789807,-0.0028908224595842504,-0.0010055670853618554
2025/04/09 10:58:57.632368022,1744189137,629946830,piren,0.21718963105417982,-0.09326171783209333,-0.042905421716717684,-0.00048219572394868544,-0.0027615045654563876,-0.00025613021948670494
2025/04/09 10:58:57.716831369,1744189137,712784361,piren,0.21609347675994298,-0.08941905829774527,-0.03744209800716897,-0.0008206958780586544,-0.0018777127627826252,0.0
2025/04/09 10:58:57.878918922,1744189137,876413539,piren,0.21633436562278816,-0.07461312866389648,-0.02875154265942358,-0.0007986044632848337,0.0006171453462572463,-0.0008408041004667537
2025/04/09 10:58:57.962511473,1744189137,959930077,piren,0.21663963762580365,-0.061297217711808974,-0.0219317440132769,-0.0008746817914648235,0.00180237957778017,-0.0025725491678809547
2025/04/09 10:58:58.126838235,1744189138,123366368,piren,0.21796071842891265,-0.043143073666716145,-0.014373812781001706,0.0009675175066942649,0.0025281304970839144,-0.00020238794080484925
2025/04/09 10:58:58.208711499,1744189138,206275489,piren,0.2180727925214798,0.07178530987930484,0.02960353920502859,-0.0004371212395034173,0.002435420671307858,0.0
2025/04/09 10:58:58.371769686,1744189138,368949429,piren,0.2187154133453079,0.037657284332634884,0.01590831080313114,0.0012439160482563955,0.001282070328637962,-0.0005523945150531848
2025/04/09 10:58:58.533500116,1744189138,531801992,piren,0.21898548053468417,-0.00590695546516231,-0.00208282621374737,0.00016843558039411133,-0.00047608571681440493,-0.0001361930095165427
2025/04/09 10:58:58.617294850,1744189138,614806144,piren,0.22004686898990272,0.1040022939142082,0.03916515298277657,-0.00012356700797736605,-0.0015289232676729558,-0.0002836370009803957
2025/04/09 10:58:58.728237948,1744189138,724396203,piren,0.2203626136019922,0.010800117921461655,0.0023621449303605005,0.0015941065081165602,-0.0022180985530258087,-0.0002307550451886267
2025/04/09 10:58:58.812806637,1744189138,809859085,piren,0.21945795139877206,-0.027947014579650334,-0.011843631981228895,0.00012059040340117265,-0.002355326989342609,0.0
2025/04/09 10:58:58.976592721,1744189138,974115972,piren,0.21799398646653587,0.08203798004469631,0.030813385633617733,0.0007062841011785934,-0.0014569069850716159,-0.00042515025642492443
2025/04/09 10:58:59.60937402,1744189139,57914695,piren,0.21548805638694846,0.006809661863007077,0.0024082931805427914,0.0003797205035478179,-0.0005288573150047243,-0.0006717911596527458
2025/04/09 10:58:59.224969166,1744189139,222341715,piren,0.21612707940926174,0.08661990800592234,0.03362294248781983,-0.0017326849508867235,0.0005852857584238322,-4.790742659658457e-05
2025/04/09 10:58:59.310647879,1744189139,306657970,piren,0.21682112447783783,-0.08316044100302036,-0.037685387143873636,0.0015249420973325572,0.001975719259574574,0.0
2025/04/09 10:58:59.472095762,1744189139,469929715,piren,0.21704327562329143,0.014411302968300385,0.003092817082968269,-0.0014872473359266343,0.0023619252234573897,0.00022764491587026067
2025/04/09 10:58:59.555303497,1744189139,553106620,piren,0.2176040317981462,-0.0033113321593654654,-0.0015216914041228597,-0.00016788107455807384,0.002197845422206951,-0.0003945630401933092
2025/04/09 10:58:59.640636878,1744189139,637619478,piren,0.21752554679146685,-0.03025708541185935,-0.01111271181641018,-0.0019207644503099303,0.0015211153629252204,-7.754959171075183e-05
2025/04/09 10:58:59.727054388,1744189139,721417447,piren,0.21740350134623457,-0.13813257911024351,-0.05816034723554497,0.002158247881520725,0.0005218134891359046,-7.819793517951092e-05
2025/04/09 10:58:59.889416052,1744189139,886116664,piren,0.2175622655707686,-0.003571074122010909,-0.0031184833714760427,-0.000539900353474605,-0.0010615442169879643,-5.7306556315458947e-05
2025/04/09 10:58:59.975548249,1744189139,971253618,piren,0.21740107188284144,-0.02644592153228674,-0.010483760068278468,0.0013673199396112801,-0.0018519393508779696,0.0
2025/04/09 10:59:00.60504409,1744189140,56216344,piren,0.21697663474119525,-0.0348769558776448,-0.01244803057508963,0.0014130611585768098,-0.002216214836211434,-0.000426702369006818
2025/04/09 10:59:00.223913768,1744189140,221429558,piren,0.21519490727851023,0.08526873915047783,0.03490727832298472,-0.0005801147669566814,-0.0016447851235175386,-2.820364453091797e-05
2025/04/09 10:59:00.309452312,1744189140,306827224,piren,0.2137811556171984,-0.06037862817761466,-0.02719228509012974,0.0009796431063087028,-0.000842687132226369,0.0
2025/04/09 10:59:00.473459137,1744189140,471014639,piren,0.212298847793045,-0.05082802310603343,-0.02037214111426375,-0.0008326655135693591,0.0006456582890445576,-0.00011253624224760436
2025/04/09 10:59:00.641429381,1744189140,636051427,piren,0.2109316015516926,-0.017532126998549724,-0.005018850153018261,0.0004675966775436031,0.0017279350721159542,-3.415455378420624e-05
2025/04/09 10:59:00.723157740,1744189140,720780980,piren,0.21042092773268467,-0.01472855623756092,-0.0032824961183429034,-0.0010872820603881818,0.0019705257403832147,-6.40660793241281e-05
2025/04/09 10:59:00.808682090,1744189140,805703547,piren,0.21173470526650834,0.00808078057793776,0.006154519703756423,-0.0014374516777063068,0.001752101436473724,0.0
2025/04/09 10:59:00.918941819,1744189140,915420793,piren,0.21287137499202816,-0.09181132911817345,-0.039389464329753515,0.00036594564861683354,0.0011151801652015238,-0.000127488364123858
2025/04/09 10:59:01.83280434,1744189141,81298604,piren,0.21271869399915902,-0.04924948882740043,-0.020641512711084737,-0.0010093330309840535,-0.00020476125077988053,-4.5621210047589527e-05
2025/04/09 10:59:01.168772640,1744189141,166288412,piren,0.2122979285707517,0.0023315700237608594,0.0015441870268283718,0.0006554287882677745,-0.0010552758740992089,0.0
2025/04/09 10:59:01.334695614,1744189141,332557561,piren,0.21165688182250067,0.015050267001878663,0.007412194884144842,-0.00044460756595716933,-0.0018600938889177187,-0.00015051437563899834
2025/04/09 10:59:01.419621395,1744189141,416672001,piren,0.21200288663976624,0.04092866904188579,0.018618420978497998,-0.0006103994557103406,-0.0018415710513439668,-0.0003524217872131278
2025/04/09 10:59:01.503762983,1744189141,501693076,piren,0.21151427721324598,-0.06142095135378528,-0.027256370734253414,0.0011693939789368163,-0.001367712075091594,0.0
2025/04/09 10:59:01.670242396,1744189141,667259079,piren,0.21003992764694904,-0.02442422150461513,-0.010137769916306941,-0.0004155021649264,-8.909014442345043e-05,-0.0002519049742817295
2025/04/09 10:59:01.835415177,1744189141,833408157,piren,0.2079207325694826,0.022465257524799227,0.010370514679267424,0.0008970174876528038,0.0010291822407785228,-0.00018164794863393245
2025/04/09 10:59:01.921464667,1744189141,918551962,piren,0.20681011691599469,0.031835951904712625,0.014656478355306797,-0.00022324997587427434,0.0015142866450051989,-0.0003852768074522162
2025/04/09 10:59:02.88823004,1744189142,85622680,piren,0.20678131573149602,0.04766882480553161,0.021067853440604672,-2.9789212345579206e-05,0.001570618497603938,-0.0003542704418196119
2025/04/09 10:59:02.172453363,1744189142,170416705,piren,0.20615880681593826,0.03828495810548614,0.016739083098819357,0.0001260354553081367,0.0011783692348358583,0.0
2025/04/09 10:59:02.257617937,1744189142,254801039,piren,0.2057390633781326,0.15644866225952592,0.06150555712688157,-0.0009121674100277404,0.0005720275030441245,-0.0014333514031785396
2025/04/09 10:59:02.424150230,1744189142,422402398,piren,0.20535774190398134,0.05193496859956122,0.01888706278816668,0.0013445214821154862,-0.0005567214398267692,-0.00013919670198217564
2025/04/09 10:59:02.509449951,1744189142,506996211,piren,0.20444557182822812,0.08586705190445991,0.03351002637387031,-0.0006812012146770908,-0.0016140785241291142,0.0
2025/04/09 10:59:02.679828011,1744189142,673184411,piren,0.20318254780659137,0.04482551013056672,0.018245059798462342,0.0012612147192924085,-0.0014179429243631628,0.00011554530390387427
2025/04/09 10:59:02.762105365,1744189142,758980014,piren,0.19978392881980672,0.11403905132101408,0.044903415940260816,-0.00015552278735168922,-0.0007718526738479545,6.54543512604951e-05
