time,header_stamp_secs,header_stamp_nsecs,header_frame_id,child_frame_id,pose_position_x,pose_position_y,pose_position_z,pose_orientation_x,pose_orientation_y,pose_orientation_z,pose_orientation_w,twist_linear_x,twist_linear_y,twist_linear_z,twist_angular_x,twist_angular_y,twist_angular_z,gps_status
2025/04/09 09:49:46.675013956,1744184986,627028073,piren,vessel_center,-479.9985222039739,-300.00219534388026,2.3315542472465807,-0.0007981704144731937,0.0004028195470696222,-7.410182330972292e-05,0.99999959758458,0.0001265285015052251,-3.425040867997142e-05,9.277129530869652e-07,-4.4767363402381816e-05,4.406015330180355e-06,9.103532317322412e-06,0
2025/04/09 09:49:46.841745303,1744184986,838166422,piren,vessel_center,-479.99848985089875,-300.0022014506036,2.331553833024817,-0.0007979333460042543,0.00040317295745541203,-7.431368315854787e-05,0.9999995976156282,0.0001419102976797768,-3.252220290024399e-05,-4.0733056869041404e-07,-7.704911073641284e-05,4.495311471664672e-06,7.295197365392593e-06,0
2025/04/09 09:49:46.909633891,1744184986,904214031,piren,vessel_center,-479.998464265435,-300.0022028124629,2.331553271437552,-0.0007970962405942414,0.00040333595240617693,-7.509025739820651e-05,0.9999995981594924,0.00018540444302749903,-3.248367261195073e-05,-1.6172246355796194e-06,-7.672501225002396e-05,3.7012421877875823e-06,1.0035896419000306e-05,0
2025/04/09 09:49:46.966161185,1744184986,963404526,piren,vessel_center,-479.9984278764523,-300.00220398808534,2.3315522301059035,-0.0007963793317493547,0.0004029300350856127,-7.509102322459703e-05,0.9999995988942622,0.0002234496107576598,-2.7592358310092655e-05,-3.558031498001215e-06,-6.603640078414822e-05,1.8532625464719297e-06,0.0,0
2025/04/09 09:49:47.71561042,1744184987,68686947,piren,vessel_center,-479.9983843571561,-300.00220514705376,2.3315509373578767,-0.0007954879302098643,0.0004033984046003442,-7.293199576641753e-05,0.9999995995747218,0.0002693337919482184,-2.3890350666723513e-05,-5.621701194285125e-06,-4.3567441977228834e-05,-3.4892773440551393e-07,4.5099632437623365e-05,0
2025/04/09 09:49:47.175323657,1744184987,172919154,piren,vessel_center,-479.99835749512755,-300.0022099169505,2.331549379690281,-0.0007947617712419922,0.00040267757759761876,-7.268991672982066e-05,0.9999996004602559,0.0002726798989897981,-2.949238091760764e-05,-7.907218406571106e-06,-1.3449866856195914e-05,-1.4244939568103869e-06,4.327023813522727e-05,0
2025/04/09 09:49:47.381669082,1744184987,277705152,piren,vessel_center,-479.9983319819014,-300.0022169908136,2.331547705092897,-0.000795488281291829,0.0004030049554577807,-7.22224829692007e-05,0.9999995997845765,0.00026835282033068155,-3.861330706032151e-05,-9.85927714380236e-06,1.8810537029042876e-05,-2.8001429763535974e-06,4.551972668226141e-05,0
2025/04/09 09:49:47.441829458,1744184987,438916226,piren,vessel_center,-479.9982956829488,-300.00221587040073,2.3315466903126687,-0.0007429834514600912,0.0004029631351730144,-7.12146450830333e-05,0.9999996402623237,0.0002582834506939145,-2.3065661889366873e-05,-8.780681204483444e-06,5.4013803992700973e-05,-3.9533853822501016e-06,4.0083725080550637e-05,0
2025/04/09 09:49:47.495137906,1744184987,492959930,piren,vessel_center,-479.9982741568951,-300.00230589743325,2.331510001860592,-0.0008028770927063476,0.000402426638717233,-7.2461443190061e-05,0.9999995940951745,0.0002775286190172375,-0.00022059407547177088,-8.934740986296557e-05,6.549679203892846e-05,-3.6703563185179054e-06,1.4639363672748196e-05,0
2025/04/09 09:49:47.549490216,1744184987,546813390,piren,vessel_center,-479.9982734495159,-300.00226621263045,2.3315257042756574,-0.0008006037378618365,0.0004028013917053923,-7.246192181116929e-05,0.9999995957669001,0.0002469226005815182,-0.00010682019128554075,-4.409034422123054e-05,7.192971513395155e-05,-3.2570361177014703e-06,0.0,0
2025/04/09 09:49:47.604913851,1744184987,601480831,piren,vessel_center,-479.99827222444924,-300.0022404167543,2.3315357404081043,-0.0007976610063723764,0.00040224327237481643,-7.367065795924391e-05,0.9999995982548707,0.0002222956751666681,-3.765689666552917e-05,-1.690137200979675e-05,7.509610420834389e-05,-2.6889040726983377e-06,6.994263907780655e-06,0
2025/04/09 09:49:47.666851870,1744184987,657246786,piren,vessel_center,-479.9982743175683,-300.0022384473221,2.3315404215293274,-0.00079652504825407,0.00040243740992672663,-7.36709053986155e-05,0.9999995990822078,0.00016780246201057543,-2.483611565340526e-05,-2.706397791512223e-06,7.019273524898055e-05,-6.817309444675708e-07,0.0,0
2025/04/09 09:49:47.772229471,1744184987,769967705,piren,vessel_center,-479.99826479151915,-300.00223621511503,2.3315435393069635,-0.0007962195632441222,0.00040248448541799567,-7.177389387437146e-05,0.999999599444497,0.00015124494116213846,-1.4290840544807553e-05,4.831354164254002e-06,5.2642354603783554e-05,1.2697264263944722e-06,3.682727422416665e-05,0
2025/04/09 09:49:47.878199510,1744184987,875704168,piren,vessel_center,-479.99825688628425,-300.00223473938075,2.331545793745626,-0.0007971993583739964,0.0004029781113129934,-7.152093743710715e-05,0.9999995984832096,0.00013641432869923684,-7.949581867895732e-06,8.806885450469529e-06,2.573957515453053e-05,2.853432881321844e-06,3.5283394694153995e-05,0
2025/04/09 09:49:47.986515666,1744184987,983476589,piren,vessel_center,-479.9982536715232,-300.00223557596047,2.331548203939902,-0.0007976875944389997,0.00040249229726030975,-7.130972905357893e-05,0.9999995983046068,0.00011230739874014781,-7.987702337876373e-06,1.2146021393151065e-05,-5.54377752183673e-06,3.5818609489787175e-06,3.333973835635142e-05,0
2025/04/09 09:49:48.41571144,1744184988,39229267,piren,vessel_center,-479.998244166944,-300.00223055333464,2.3315499030391322,-0.0007985676830180088,0.00040310353382627136,-7.20083340136176e-05,0.9999995973059171,0.00012072960034863009,4.0787109813130764e-06,1.4548608248661045e-05,-2.1228950402420162e-05,3.4859472452903452e-06,3.317520666083957e-05,0
2025/04/09 09:49:48.96642577,1744184988,94455358,piren,vessel_center,-479.998233379684,-300.0022233919329,2.331551672044557,-0.0007976880443467464,0.00040277715573438534,-7.200908055919066e-05,0.9999995981394388,0.00013132849562686553,1.9552396543341625e-05,1.6869009181747875e-05,-3.55447604450065e-05,3.308583093755451e-06,0.0,0
2025/04/09 09:49:48.151016484,1744184988,148900025,piren,vessel_center,-479.9982230050299,-300.00222525033644,2.331552277392432,-0.0007980604006709512,0.0004025279135397846,-7.20677811755808e-05,0.9999995979384745,0.00013951367341184616,1.3207717757078523e-05,1.6304009576246604e-05,-4.8477967837097944e-05,3.030935416295821e-06,3.109542527612224e-05,0
2025/04/09 09:49:48.206214900,1744184988,203876066,piren,vessel_center,-479.99820872302274,-300.00221961004974,2.3315528954585987,-0.0007971728582771023,0.00040302791816897914,-7.150389624563605e-05,0.9999995984854815,0.0001558032918183637,2.4280531897867498e-05,1.5871844272170412e-05,-5.887172494053602e-05,2.4220411743480652e-06,5.3267247390856065e-06,0
2025/04/09 09:49:48.261129209,1744184988,257187255,piren,vessel_center,-479.99818097717326,-300.00222588947355,2.331552676095163,-0.000797198905859258,0.0004027650409230682,-7.150416766661938e-05,0.9999995985706096,0.00019952307993668748,7.5273145742279514e-06,1.3556030835333124e-05,-6.677240014324867e-05,1.7505332187338999e-06,0.0,0
2025/04/09 09:49:48.314762560,1744184988,312330485,piren,vessel_center,-479.9981508617894,-300.00220731084755,2.3315528193477726,-0.0007961259622280579,0.0004025789556399911,-7.220500896009757e-05,0.9999995994499565,0.00022600030129075842,4.7293717580297546e-05,1.1125687325958914e-05,-7.288921450156886e-05,4.532188421599196e-07,6.669817469486892e-06,0
2025/04/09 09:49:48.418318835,1744184988,415358400,piren,vessel_center,-479.99810964427013,-300.0022182399229,2.3315520958605793,-0.0007960980694091795,0.00040251317950688653,-7.186383487001463e-05,0.9999995995232165,0.000266390505612497,1.2285939010590836e-05,6.996413767852253e-06,-6.586441352626217e-05,-6.14699688421918e-07,5.315588773603411e-06,0
2025/04/09 09:49:48.526145815,1744184988,521179727,piren,vessel_center,-479.99806749693073,-300.00221927552957,2.3315513570101674,-0.0007965388904455467,0.00040251118915864397,-7.174628139113246e-05,0.9999995991814246,0.0002979598102684288,7.119892598249307e-06,3.723126255168289e-06,-4.7106226842312064e-05,-1.7082911497249573e-06,5.2279155258813715e-06,0
2025/04/09 09:49:48.635482067,1744184988,633110361,piren,vessel_center,-479.9980323337399,-300.00222563827793,2.331550943020823,-0.0007967379769943633,0.0004025044138346729,-7.163711627098983e-05,0.9999995990333779,0.00031487147484773984,-8.485073157961422e-06,2.0377838473149486e-06,-2.0114539529130703e-05,-2.5208492168814393e-06,4.899687683764299e-06,0
2025/04/09 09:49:48.692614441,1744184988,688861638,piren,vessel_center,-479.9980254775011,-300.00222341996704,2.3315506619465354,-0.0007958299003846237,0.00040269181475552737,-7.163722558020785e-05,0.9999995996810098,0.00029521028804999175,-2.6132766376655196e-06,1.1870806008016862e-06,-4.835826873171255e-06,-2.6959556290162783e-06,0.0,0
2025/04/09 09:49:48.747235901,1744184988,745021079,piren,vessel_center,-479.99800562154684,-300.00222445078805,2.3315498241141066,-0.0007967908427596591,0.0004025223079008216,-7.132281699409265e-05,0.9999995990065198,0.00030360087371270153,-4.590327170907228e-06,-8.213159046579e-07,1.0172965144285293e-05,-2.4590882346009925e-06,2.0408990087609593e-05,0
2025/04/09 09:49:48.806235413,1744184988,799642688,piren,vessel_center,-479.99799689826693,-300.0022196383853,2.3315498912603276,-0.0007955870571511133,0.00040270217678403506,-7.098570391985078e-05,0.9999995999165305,0.000289094446498046,6.619599935485341e-06,-5.803570940645165e-07,2.5105080028782708e-05,-2.467365940824909e-06,4.709415208694796e-06,0
2025/04/09 09:49:48.855566011,1744184988,853565927,piren,vessel_center,-479.9979792477955,-300.00222852042504,2.33154909954574,-0.0007966761773579762,0.0004025163375127237,-7.098530604260555e-05,0.9999995991242961,0.00029493730221481047,-1.3891964317470962e-05,-2.2734742147025378e-06,3.833191664068453e-05,-2.594645020870512e-06,0.0,0
2025/04/09 09:49:48.909933414,1744184988,906958789,piren,vessel_center,-479.99796244140384,-300.00222492062977,2.3315492259776462,-0.0007964259229562049,0.00040248263620069836,-7.135852290161525e-05,0.9999995993106388,0.0002657594660377693,-2.7578372280082544e-06,-1.479648242990357e-06,5.9409544455006334e-05,-1.261941851080328e-06,4.60806281279716e-06,0
2025/04/09 09:49:49.14545661,1744184989,12064509,piren,vessel_center,-479.9979525642694,-300.00222349781757,2.3315491837661124,-0.0007971261279429029,0.00040241811188467257,-7.108706162692586e-05,0.9999995987980341,0.00022785857108835293,1.0254494102731697e-06,-1.2402256147782744e-06,6.96325100613636e-05,-3.940742482251608e-07,4.463457115323123e-06,0
2025/04/09 09:49:49.90635842,1744184989,88512884,piren,vessel_center,-479.9979549891603,-300.0022135198473,2.33154971017758,-0.0007985947646203303,0.00040259356648928525,-7.110073512670766e-05,0.9999995975546728,0.00020194145322427026,2.310745999265363e-05,4.137135314979258e-08,6.964972532750944e-05,1.1185441562672709e-07,5.185685121137457e-06,0
2025/04/09 09:49:49.144161051,1744184989,142094162,piren,vessel_center,-479.99795038511957,-300.0022103034966,2.3315511072503625,-0.0007991456012006226,0.00040275377590143414,-7.11004007527025e-05,0.9999995970501375,0.00018925194362970466,2.763304573844961e-05,3.1417372055540443e-06,6.696589198036036e-05,3.773744507136513e-07,0.0,0
2025/04/09 09:49:49.200704908,1744184989,196258825,piren,vessel_center,-479.997953165644,-300.0022160616453,2.331552485151104,-0.000797270880547929,0.00040243909293343405,-7.10864611752095e-05,0.9999995986742368,0.000162115873399733,1.1775391431266501e-05,5.856306276770077e-06,6.165681335516377e-05,9.714720302675626e-07,4.224125644437835e-06,0
2025/04/09 09:49:49.252529000,1744184989,250031024,piren,vessel_center,-479.99795406497526,-300.00221895511027,2.3315521539713018,-0.000798702085234982,0.00040258286780072154,-7.108583200513463e-05,0.9999995974743281,0.00014112694175316242,3.965335418153149e-06,4.434258019487651e-06,5.285163634997223e-05,1.462468274354183e-06,0.0,0
2025/04/09 09:49:49.307136132,1744184989,304700939,piren,vessel_center,-479.9979535603123,-300.00221882764646,2.3315530357170893,-0.0007985248048163605,0.0004023499667549281,-7.086019373867699e-05,0.9999995977256558,0.00011011824594794995,3.3458456075926683e-06,5.38445373182244e-06,2.9190745747704214e-05,2.459543519456522e-06,4.0041659600587425e-06,0
2025/04/09 09:49:49.411647896,1744184989,409667392,piren,vessel_center,-479.99794769315895,-300.0022140482582,2.3315535329821424,-0.0007979722857621923,0.00040245653619637786,-7.061861436071449e-05,0.9999995981409088,9.849350967676251e-05,1.321840582049062e-05,5.283595461109506e-06,5.168776206805738e-07,2.453936835555127e-06,3.994521641430113e-06,0
2025/04/09 09:49:49.516690731,1744184989,514626063,piren,vessel_center,-479.99793765002124,-300.0022185247355,2.3315534580869857,-0.0007971488374035673,0.00040294068285095077,-7.050584334215073e-05,0.999999598610651,9.875997579917416e-05,3.097478386656763e-07,3.934067296158354e-06,-2.800498715850607e-05,2.349819007411004e-06,3.866465670595762e-06,0
2025/04/09 09:49:49.620333739,1744184989,617903012,piren,vessel_center,-479.9979218318007,-300.00222204793505,2.331552746693168,-0.0007970438100251024,0.0004026441808044732,-7.040018299479226e-05,0.9999995988212409,0.00011180282222091441,-7.5899058626497245e-06,1.4721299694440621e-06,-5.11713491445197e-05,1.262858179790369e-06,3.750952846188032e-06,0
2025/04/09 09:49:49.725702551,1744184989,723614354,piren,vessel_center,-479.9978949494088,-300.00223212299835,2.331552059719058,-0.0007972730415409289,0.0004024118512984361,-7.02983076096415e-05,0.9999995987391931,0.0001464803261115488,-2.8279904108520534e-05,-3.8475228100649094e-07,-6.500401799676792e-05,3.026686301168005e-08,3.573822191164265e-06,0
2025/04/09 09:49:49.832209552,1744184989,830230148,piren,vessel_center,-479.99786421008895,-300.00223471391075,2.331551663347337,-0.0007971066211908937,0.0004026042412264256,-7.020423042529861e-05,0.9999995988010323,0.00018515761444183986,-2.831181518532376e-05,-1.1881953566319006e-06,-6.708314789932791e-05,-6.107249748723858e-07,4.196773128191348e-06,0
2025/04/09 09:49:49.887842613,1744184989,885116134,piren,vessel_center,-479.9978243315623,-300.002230176638,2.3315512774401084,-0.00079629919293176,0.00040268827792340223,-7.020444295366043e-05,0.999999599410461,0.00025326245204275287,-1.5081421406383565e-05,-1.9142559162179176e-06,-6.342933889985058e-05,-1.146179426717112e-06,0.0,0
2025/04/09 09:49:49.944577051,1744184989,941016091,piren,vessel_center,-479.9978020454875,-300.0022299862698,2.331550441016549,-0.000796730309856333,0.0004028058740866773,-6.992767129865285e-05,0.9999995990391006,0.0002740507747603882,-1.294669664249214e-05,-3.555985719343631e-06,-5.717432290243058e-05,-1.8191383356854535e-06,1.783543723965429e-05,0
2025/04/09 09:49:49.998597340,1744184989,996499734,piren,vessel_center,-479.9977817332778,-300.0022301646811,2.331550148297315,-0.0007957391191036197,0.0004024927274783544,-6.96128968821858e-05,0.9999995999763717,0.0002867597737350191,-1.1810847854311402e-05,-3.7856936083204357e-06,-4.8053119607970056e-05,-2.341042407393124e-06,3.065247469857763e-06,0
2025/04/09 09:49:50.55937309,1744184990,52221766,piren,vessel_center,-479.9977637245715,-300.002230778897,2.331549262213307,-0.0007962171443390576,0.0004022296773409873,-6.961282261988094e-05,0.9999995997017203,0.0002933435703199105,-1.1798620334692356e-05,-5.313534457356447e-06,-3.71117667021988e-05,-2.1866017511506283e-06,0.0,0
2025/04/09 09:49:50.111006430,1744184990,108727996,piren,vessel_center,-479.9977359205002,-300.00223522422425,2.331548811444144,-0.0007956396154418059,0.0004024851504666811,-7.002416277850859e-05,0.9999996000298814,0.0002889209816203841,-1.9015112411315025e-05,-5.115930921333508e-06,-1.0556309207533017e-05,-1.7533995418463697e-06,3.1569481887571383e-06,0
2025/04/09 09:49:50.217654227,1744184990,215281827,piren,vessel_center,-479.9977038739349,-300.0022376985542,2.331548133819682,-0.0007961582899726341,0.00040232252303397777,-6.983569774909003e-05,0.99999959969569,0.0002953345922379124,-2.0248913687927238e-05,-5.474365818740786e-06,1.7624816387462575e-05,-1.4615670101539403e-06,3.100993565657492e-06,0
2025/04/09 09:49:50.322464241,1744184990,320360253,piren,vessel_center,-479.9976743647723,-300.0022428899674,2.331548075899722,-0.0007970910733157623,0.00040215189381624525,-6.975292737802208e-05,0.9999995990270217,0.0003014357485881813,-2.7708578499831314e-05,-4.500499307040947e-06,4.233454184382842e-05,-3.7154205086493666e-07,3.6233485870455304e-06,0
2025/04/09 09:49:50.426128766,1744184990,423879873,piren,vessel_center,-479.9976611011878,-300.00224300233407,2.331548718414877,-0.0008031983940840229,0.0004023606281907025,-6.964455059323821e-05,0.9999995940638683,0.0002633858958689128,-2.1750915675246327e-05,-2.0642440309461353e-06,5.763712863636333e-05,1.0377858968653821e-06,2.9349424507615344e-06,0
2025/04/09 09:49:50.531659977,1744184990,529469665,piren,vessel_center,-479.99764496369437,-300.0022324120089,2.331553553610747,-0.00080440441500926,0.00040287277474932825,-6.957962096438891e-05,0.9999995928927876,0.0002388219076693243,6.776810824059242e-06,9.155726498961506e-06,6.360401730294213e-05,1.4178907616844122e-06,2.748231153387936e-06,0
2025/04/09 09:49:50.637395549,1744184990,635486155,piren,vessel_center,-479.9976363903528,-300.0022246958112,2.331558220295087,-0.0007986656953130366,0.0004024827267608091,-6.950797920036535e-05,0.9999995976546204,0.0002041526616267841,2.2401594242447927e-05,1.7467827633283854e-05,5.997707188713505e-05,1.620632378582559e-06,2.747103908536342e-06,0
2025/04/09 09:49:50.693156745,1744184990,689968598,piren,vessel_center,-479.9976425934481,-300.0022173059856,2.3315571582668158,-0.00079654092485181,0.0004024747484709394,-6.95089055339658e-05,0.9999995993524917,0.00016777874398036903,3.634726467707095e-05,1.3174801755029102e-05,5.371893880160506e-05,1.6369709229847117e-06,0.0,0
2025/04/09 09:49:50.747083656,1744184990,744926791,piren,vessel_center,-479.9976402155927,-300.0022233392383,2.331554873822356,-0.0007973156278330378,0.00040250597444744607,-6.927354250353682e-05,0.9999995987388728,0.00015371903068632338,1.8747435342712734e-05,6.5785357835477725e-06,4.4445876300261947e-05,1.5642612881192745e-06,1.4506155139088255e-05,0
2025/04/09 09:49:50.802495166,1744184990,799794103,piren,vessel_center,-479.99764381682525,-300.00222889026446,2.3315537256823196,-0.000796142137070995,0.00040251697497442694,-6.905770954940752e-05,0.9999995996843275,0.00012869706079078998,4.334937512150092e-06,3.2985211726964055e-06,3.3645055804724096e-05,1.3930433605120723e-06,2.624277111409191e-06,0
2025/04/09 09:49:50.857379379,1744184990,855171574,piren,vessel_center,-479.9976433524345,-300.0022236647494,2.331552031930384,-0.0007968851655514765,0.00040258033078804006,-6.905746290701426e-05,0.9999995990670082,0.00010361053223284064,1.3924804307217883e-05,-7.60707451290704e-07,7.66059980499252e-06,1.2792146196926357e-06,0.0,0
2025/04/09 09:49:50.965883698,1744184990,962878150,piren,vessel_center,-479.99763290288615,-300.0022239701773,2.33155126446074,-0.0007972078031968625,0.0004026337155435439,-6.881027550984627e-05,0.9999995988053973,0.00010362703283141702,1.0505648151858069e-05,-2.143042180107363e-06,-1.9458543660985326e-05,2.5579928175195904e-07,1.3497636180707738e-05,0
2025/04/09 09:49:51.73396047,1744184991,70742440,piren,vessel_center,-479.99761332242304,-300.0022301410052,2.3315509551761915,-0.000797151926402715,0.00040272289260531285,-6.877033269762636e-05,0.9999995988167792,0.00012385678724064592,-3.762749747428286e-06,-2.370020142932366e-06,-4.289997699011061e-05,-1.0636647276445778e-06,1.2241056208806474e-05,0
2025/04/09 09:49:51.183204275,1744184991,180503036,piren,vessel_center,-479.9975767082232,-300.002226994358,2.3315507269432527,-0.000796662293443563,0.00040245261533162536,-6.863369961798043e-05,0.9999995993251687,0.00017383754834560778,3.7765633808625283e-06,-2.3411762346927155e-06,-5.84284491558649e-05,-1.8260172962550145e-06,1.2565905739454382e-05,0
2025/04/09 09:49:51.239918977,1744184991,237412112,piren,vessel_center,-479.99755550777013,-300.00223510289754,2.3315503255758414,-0.0007966460115477907,0.0004021335077503806,-6.886299954406001e-05,0.9999995994507506,0.00020047694833926318,-1.4690072339097794e-05,-2.957424394394342e-06,-6.237690586442222e-05,-1.3657120388117165e-06,1.257733870208523e-05,0
2025/04/09 09:49:51.295382212,1744184991,292989094,piren,vessel_center,-479.9975375092163,-300.00224016815537,2.3315500429687313,-0.0007958023890301644,0.0004021982019973372,-6.886324825851582e-05,0.9999996000964285,0.00021826215829611858,-2.43220140416348e-05,-3.2577917229150207e-06,-6.3311955952116e-05,-9.825730051287348e-07,0.0,0
2025/04/09 09:49:51.351822570,1744184991,349620481,piren,vessel_center,-479.9975181610224,-300.0022372923899,2.331549259966625,-0.000795779811776312,0.00040227565493685345,-6.890188901653019e-05,0.9999996000805793,0.00023650755233581397,-1.517160312660836e-05,-4.6285389417579144e-06,-6.151379222397325e-05,-6.811404213043681e-07,1.1633741505933444e-05,0
2025/04/09 09:49:51.432474890,1744184991,428421929,piren,vessel_center,-479.997482147538,-300.0022414127908,2.3315485406723493,-0.0007959277772910191,0.0004023954681260426,-6.864202977517134e-05,0.9999995999324861,0.0002617536815251409,-2.0814953540783433e-05,-5.15484068598821e-06,-4.963962670388732e-05,-3.067984743061183e-07,2.068885150054443e-06,0
2025/04/09 09:49:51.539718396,1744184991,536645265,piren,vessel_center,-479.99744783770706,-300.00224059737764,2.331548187949976,-0.0007964151900422363,0.0004025043465696644,-6.890243981515002e-05,0.9999995994826948,0.00028434876749094506,-1.4734842534115712e-05,-4.881964187346716e-06,-2.8999634294507415e-05,-2.3160802151384726e-07,2.140256208236534e-06,0
2025/04/09 09:49:51.596303440,1744184991,593351947,piren,vessel_center,-479.9974310025501,-300.00223517999757,2.3315484562641386,-0.0007957870288239304,0.00040254380659464177,-6.888525180591359e-05,0.9999995999680754,0.00029121878742450314,-1.106068930047157e-06,-3.76068153306503e-06,-1.64059450300017e-05,-2.979020540160345e-07,2.133109986814763e-06,0
2025/04/09 09:49:51.651104273,1744184991,648787681,piren,vessel_center,-479.99740913228624,-300.0022382995538,2.3315482146286404,-0.0007966455400897243,0.00040259687468967433,-6.888484611338775e-05,0.9999995992631787,0.00030621269584123033,-7.91185907447344e-06,-3.8636517208192115e-06,-3.414591293780901e-06,-4.3191512041511533e-07,0.0,0
2025/04/09 09:49:51.708762153,1744184991,706376945,piren,vessel_center,-479.99738514675823,-300.00224431757783,2.3315485271911256,-0.0007967091599477993,0.00040227803034086085,-6.883286759252549e-05,0.9999995993443883,0.0002885179563691675,-1.9452991682290853e-05,-2.2730325008370526e-06,2.2475312986816536e-05,-7.449291310167047e-07,2.025532899600086e-06,0
2025/04/09 09:49:51.816238263,1744184991,814126005,piren,vessel_center,-479.9973669223865,-300.002251112759,2.3315488833644946,-0.0007966505140278979,0.000402382079338226,-6.87165097043382e-05,0.9999995993572508,0.0002643475562763964,-3.0194720966127174e-05,-9.719139229804113e-07,4.410231522490558e-05,-8.910148054179902e-08,1.9549764969836426e-06,0
2025/04/09 09:49:51.925247744,1744184991,922400216,piren,vessel_center,-479.9973413461876,-300.0022421621386,2.3315491541837097,-0.0007964424193472517,0.0004024451286133952,-6.866204553814842e-05,0.9999995995013772,0.0002619936008614498,-3.5401129022908285e-06,-1.5236648009304188e-07,5.767500088732756e-05,3.1510864839159354e-07,1.925901605360239e-06,0
2025/04/09 09:49:52.32715901,1744184992,30656570,piren,vessel_center,-479.9973314224729,-300.00224120327084,2.331549234670445,-0.0007971794074864765,0.0004024941733374712,-6.860756406279275e-05,0.999999598898137,0.00022496141054950233,-6.101867254152318e-07,6.091319045369802e-08,6.077377613710061e-05,4.846054312220875e-07,1.8484400848283551e-06,0
2025/04/09 09:49:52.140605065,1744184992,138713349,piren,vessel_center,-479.99732793755965,-300.0022310797684,2.3315498152681733,-0.0007979857211806349,0.00040253679213670497,-6.855747574687428e-05,0.9999995982413155,0.0001822820779125944,2.2026225633718593e-05,1.3376470411839364e-06,5.293012414126593e-05,4.391963235811289e-07,1.7557785406094979e-06,0
2025/04/09 09:49:52.196587684,1744184992,194104084,piren,vessel_center,-479.99733643102104,-300.00223484052754,2.3315507806774463,-0.0007967725190055487,0.00040254843074884905,-6.856370443745153e-05,0.9999995992035858,0.0001473138167057808,1.1723572379461429e-05,3.365157501151566e-06,4.5589651699162476e-05,3.4636688296775665e-07,2.1259466476788048e-06,0
2025/04/09 09:49:52.253568269,1744184992,251523515,piren,vessel_center,-479.997336889244,-300.0022325949812,2.33155073642213,-0.000797015131694722,0.00040258192397054303,-6.856358317086215e-05,0.9999995989967744,0.0001128206569320067,1.4050115487672327e-05,2.502123428855634e-06,2.46180277378432e-05,3.780551040362829e-08,0.0,0
2025/04/09 09:49:52.362846607,1744184992,360986286,piren,vessel_center,-479.99732717248946,-300.0022282700588,2.3315508191253804,-0.0007968497263275261,0.00040220921035702525,-6.813117938032529e-05,0.9999995993081233,0.00010910908958982722,2.0510448667020127e-05,2.124682766664159e-06,-5.300626057902076e-07,1.2772256593653113e-07,9.253073469035481e-06,0
2025/04/09 09:49:52.471803318,1744184992,469123063,piren,vessel_center,-479.99731368537874,-300.0022276908023,2.331550734140203,-0.0007962642456017424,0.00040223498657574055,-6.804492526014276e-05,0.9999995997699974,0.00011429622368274826,1.713793858497537e-05,1.4530645368336306e-06,-2.5317902512973767e-05,8.59826846333822e-07,8.753893547492563e-06,0
2025/04/09 09:49:52.582120920,1744184992,578139992,piren,vessel_center,-479.9972808628782,-300.00222963161343,2.33155022506111,0.0011147274725744716,8.926696660432999e-05,-6.841532809281464e-05,0.9999993723665098,0.00016163508189499074,8.984592250536833e-06,-3.933427221886739e-09,0.0004063809741514532,0.00016803465692873798,8.548531827572783e-06,0
2025/04/09 09:49:52.692707027,1744184992,690129495,piren,vessel_center,-479.99776148046385,-300.0054059480495,2.3302079472685784,0.006409688554440551,0.00013454424372711206,-6.790906043698917e-05,0.9999794463781949,-0.000943016579685656,-0.00705380170456893,-0.0029838100870880724,0.0025366708104346395,0.0004973911631531808,2.489890133218485e-05,0
2025/04/09 09:49:52.749887139,1744184992,747408043,piren,vessel_center,-479.9979661527474,-300.0165240149923,2.325463726488166,0.005080946825075448,0.0001238118588434676,-6.255311458838863e-05,0.9999870822851125,-0.0012864087377237698,-0.030929956577255967,-0.01317515976799703,0.002397172056639286,0.0006897225053523574,0.0001952465729194364,0
2025/04/09 09:49:52.810081534,1744184992,806098312,piren,vessel_center,-479.9980483266142,-300.02210184847996,2.3230787522423144,0.015333493557510588,0.00015366770113557223,-5.999064112296487e-05,0.9998824214689858,-0.0013305848489835004,-0.03999757726696744,-0.017057669825928327,0.003612588349684509,0.0007722583870220794,5.852107804335962e-05,0
2025/04/09 09:49:52.865304238,1744184992,862994397,piren,vessel_center,-479.99776721342414,-300.04406097887255,2.31341474637496,-0.012311597813488145,0.0001508676550837647,-5.668366356883972e-05,0.9999241964195046,-0.00043480904341770994,-0.08065886972249219,-0.03506328497987793,0.005419981282899395,0.0008062870264358709,0.0,0
2025/04/09 09:49:52.976673685,1744184992,973466330,piren,vessel_center,-479.9970068999174,-300.01465529841744,2.3255062058948894,0.029650886479899732,2.1612105933704238e-05,-5.219494635379001e-05,0.9995603142079824,0.0013528671969198222,0.0027960054665075312,-0.00032177251288784126,0.0053975490889009835,0.0007136599069790593,0.0002165384358844998,0
2025/04/09 09:49:53.90210340,1744184993,84031058,piren,vessel_center,-479.99573665940864,-300.06031253355957,2.304825376363262,0.006258184561964299,0.00018424583445656242,-5.142579633174281e-05,0.9999803990753261,0.003872395113103328,-0.09930610365709044,-0.046213337209677026,0.006147390846413182,0.00029111561671215904,0.00021880813993174544,0
2025/04/09 09:49:53.143202097,1744184993,141519460,piren,vessel_center,-479.9939493306755,-300.05445039415,2.307876571164811,0.029499922354090047,0.0001719015293612533,-5.4649119504683626e-05,0.999564766308037,0.00739285881199982,-0.07468812723891433,-0.03403879011736931,0.004356197300825203,8.21681278953665e-05,0.0003747119496547899,0
2025/04/09 09:49:53.200429736,1744184993,197779060,piren,vessel_center,-479.99200481245293,-300.08816697136007,2.2925968842407087,0.0006092707514715721,-0.00047086709585189015,-5.923013166787675e-05,0.9999997017825161,0.0108951538174552,-0.1413446389743055,-0.06422496950033446,0.004957715286356602,0.0002113571448732882,-0.00018574487311751403,0
2025/04/09 09:49:53.256958558,1744184993,254895390,piren,vessel_center,-479.98940227608296,-300.0688084150913,2.30145172261017,0.004431850604838795,-0.0005131414401157624,-5.695704329881645e-05,0.9999900460214463,0.014216095651818311,-0.06636842895854869,-0.030026648697758188,0.001410639997140664,0.0006352003413193289,0.0,0
2025/04/09 09:49:53.367959549,1744184993,364749024,piren,vessel_center,-479.9850544361187,-300.0579818264367,2.306645626744972,0.0032286365678914812,-0.0005360234304791135,-0.00042563603061279487,0.9999945536945508,0.020691878968045845,-0.027427065567507902,-0.01175146958846808,-0.0019938034639562507,0.000866697720440794,-0.006418995750160022,0
2025/04/09 09:49:53.474823669,1744184993,472616568,piren,vessel_center,-479.97880618639954,-300.04666167696587,2.3120091153418585,0.014002629728355314,0.0002675422508575607,-0.0007790407279103035,0.9999016190992887,0.029939200314902395,0.003882523010588834,0.0028041933498338684,-0.0035834018660544273,0.00036479694203617955,-0.011226211665715215,0
2025/04/09 09:49:53.583581865,1744184993,581202998,piren,vessel_center,-479.969178251648,-300.05556084906465,2.3085095300837764,0.03563549344134736,0.00018149059350144268,-0.0010527472449013686,0.9993642831278264,0.044625310497758676,-0.01676650191279777,-0.005602386776314942,-0.006805748387485481,-0.0004976070896427049,-0.014279971459406621,0
2025/04/09 09:49:53.694829204,1744184993,692450704,piren,vessel_center,-479.95496170631947,-300.1271086289463,2.2753333294174745,-0.02337590860686962,0.00012384807477657835,-0.0012232538211998756,0.9997259900635507,0.06619730784213976,-0.16411534741350775,-0.07433885558093513,-0.006278083343216828,-0.001287782556105372,-0.0015918606674823561,0
2025/04/09 09:49:53.751641061,1744184993,749244460,piren,vessel_center,-479.94363484088177,-300.05563716651966,2.3057263678998914,-0.0036585080123631834,-9.221624883336705e-05,-0.0012256252612648213,0.9999925523012688,0.0766105868011437,0.03131834272785483,0.009783119655986855,-0.006884213066335953,-0.0014574786424989576,0.0,0
2025/04/09 09:49:53.860865056,1744184993,859153583,piren,vessel_center,-479.9308392613049,-300.0311878851371,2.3176399968603123,0.004296860208865141,-0.00014271185425585945,-0.001245620165763154,0.9999899824778621,0.08788534591753891,0.0786410712626551,0.03406971941686607,-0.005745644183654853,-0.0012794555071520713,-0.014573083815071785,0
2025/04/09 09:49:53.941677679,1744184993,937481627,piren,vessel_center,-479.92290526292174,-300.0285316644804,2.320159408534245,-0.02188706327192721,0.00011242194785607512,-0.0011211400645133626,0.9997598145892803,0.09550062154476113,0.07557979911766809,0.035785455185416246,-0.004467474690507188,-0.0012042379370881438,-0.016748169443269522,0
2025/04/09 09:49:53.997301299,1744184993,994401336,piren,vessel_center,-479.91468109036845,-299.982942957658,2.33941427691334,-0.008164678683173603,0.0002711087732390619,-0.0013229066738265423,0.9999657566336789,0.10304946489004582,0.16840954302279015,0.07455900628123921,-0.002711589536612745,-0.0011569302415456635,-0.003414550119143736,0
2025/04/09 09:49:54.54395110,1744184994,51544356,piren,vessel_center,-479.9065359799091,-299.9740738486837,2.3441398173740455,-0.02588973670996663,0.00013631609348459383,-0.0013207481625661138,0.9996639228137136,0.10916930833095652,0.16853836182676815,0.07639174728599642,-0.0013165794014352024,-0.0009168961936771586,0.0,0
2025/04/09 09:49:54.111146106,1744184994,109164235,piren,vessel_center,-479.893142588064,-299.9334063164862,2.3610196841624957,0.0016154385641894767,0.0007215846339487374,-0.0010134884356727274,0.9999979212553655,0.11447530314394502,0.2211591193028201,0.09679082726704479,0.00045659357626366557,-0.0007284833154930448,-0.003657288147487456,0
2025/04/09 09:49:54.221095582,1744184994,218337402,piren,vessel_center,-479.87842896532715,-299.950945409498,2.354963651163134,-0.0010609901801553465,0.00047211988298497773,-0.0012459532786788985,0.9999985495004886,0.12150800587191957,0.13258206395053124,0.06162554000049546,0.00513844795974127,-0.000943401234815928,-0.0037465623171673286,0
2025/04/09 09:49:54.331263414,1744184994,329108432,piren,vessel_center,-479.864379915605,-299.963709755859,2.350721459561853,-0.024195868128446967,0.00047161733683019847,-0.0013191736667626862,0.9997062555188075,0.12533517495830898,0.07429320256151217,0.038291676628068524,0.007088350042465533,-0.0005195632719811635,-0.0033350175992159343,0
2025/04/09 09:49:54.444628466,1744184994,441035461,piren,vessel_center,-479.8504305056016,-299.93685931131785,2.361712637255852,0.022091168816307256,-0.0006082993964372756,-0.0013507151743954485,0.9997548628542356,0.1284410123025737,0.11743279776669655,0.05419688209772054,0.006271300702309761,-0.00033753114609362067,-0.0026741826896171453,0
2025/04/09 09:49:54.503078720,1744184994,499103557,piren,vessel_center,-479.8449117283969,-299.99848826776037,2.335709752421591,-0.027764805522313144,0.0004546164073479275,-0.0013522075141475381,0.9996134655120793,0.12648047708853488,-0.03259459321261571,-0.009618694470781855,0.0070594984819123035,0.00035039401318703194,0.0,0
2025/04/09 09:49:54.558886717,1744184994,556891956,piren,vessel_center,-479.8369507010617,-299.9590588624113,2.351528544757663,-0.023341914259903753,0.00033464078221066417,-0.0014225774915257348,0.9997264722550417,0.12982736773533365,0.05873368857978706,0.026629317519242197,0.008035209483376016,0.0006864147310504868,-0.009242988485945736,0
2025/04/09 09:49:54.619021172,1744184994,614033538,piren,vessel_center,-479.82339448866145,-299.93709366921104,2.360789563521098,0.0017697159451912868,0.0004862106761351198,-0.0016495660280741791,0.9999969553136503,0.13379971746994673,0.09571791480252644,0.041846783937172775,0.004519925710891866,0.0012365465715919075,-0.0020119303355012642,0
2025/04/09 09:49:54.726161695,1744184994,724275631,piren,vessel_center,-479.8076556795536,-299.96274444079603,2.3512168215234013,0.027454670104555934,0.0004716723986813899,-0.0014855081920098438,0.9996218344354078,0.1381576944973404,0.01680102462923999,0.010993501548595436,0.0013519628578093628,0.0013612245317317373,-0.001865944010520521,0
2025/04/09 09:49:54.842685066,1744184994,833953057,piren,vessel_center,-479.7912272425022,-300.02702870038837,2.3237642307296205,0.030822426634110306,0.0004923093537031761,-0.0015153588852966217,0.9995236061921369,0.1436035733592235,-0.12985161708065757,-0.05249318528832218,-0.0017396452367617616,0.0012542727444150327,-0.0016123126785261312,0
2025/04/09 09:49:54.893661973,1744184994,891203965,piren,vessel_center,-479.78181066696317,-300.07896697001615,2.3011226522389707,0.03681858130944054,0.00046733302592762155,-0.0015157463464058156,0.9993207073723712,0.14860359381391394,-0.23090667445544535,-0.09700277089656217,-0.0015050091049663766,0.001063340475682356,0.0,0
2025/04/09 09:49:54.950559546,1744184994,948062802,piren,vessel_center,-479.77211137353424,-300.12543491183527,2.280261722351461,-0.021034374834632698,0.0005250596250589218,-0.001590021106159262,0.9997773508239663,0.15331873794730203,-0.30803102988056674,-0.1323812164925799,-0.0012008657974341566,0.0007976781966815733,-0.007444246866640561,0
2025/04/09 09:49:55.8456440,1744184995,6286162,piren,vessel_center,-479.76183386483376,-300.0616567131564,2.307772984092289,0.0037429960677942725,0.0005722063897912352,-0.0017204968693236792,0.9999913511880023,0.1584098794412512,-0.13061979933058834,-0.05591018710546662,-0.004448189925645798,0.0005253522113249663,-0.0011829494366455357,0
2025/04/09 09:49:55.66016727,1744184995,62843224,piren,vessel_center,-479.7428135995693,-300.06100778860394,2.3095112762222967,0.03197144704110052,0.00022168545784109823,-0.0017179645622703017,0.999487281573617,0.16513632137844073,-0.09986602316030227,-0.03950027007740124,-0.007430177215101547,0.002586561039474134,0.0,0
2025/04/09 09:49:55.176090242,1744184995,173543179,piren,vessel_center,-479.7230185955674,-300.1053603028719,2.290196990063455,0.016920908888130522,0.0011273574922644157,-0.002292696782344075,0.999853567003163,0.17216146043906522,-0.1760843139111327,-0.07358417777123177,-0.007898139780697727,0.001221020384685188,-0.01465527236514687,0
2025/04/09 09:49:55.232948627,1744184995,230943208,piren,vessel_center,-479.71153871679184,-300.107369894055,2.2902350784799057,0.01473528688362207,0.0015473723237949793,-0.002396173071724629,0.9998873613132427,0.18196013566548574,-0.16447853763997924,-0.06678325360902887,-0.006994632988064982,8.892780125702507e-05,-0.02853598365087037,0
2025/04/09 09:49:55.288827342,1744184995,286729999,piren,vessel_center,-479.6982929170625,-300.1058359517503,2.29171856734269,-0.017831106281587444,0.0016323762083774423,-0.002343128454824344,0.9998369350777823,0.19130269542988573,-0.14290390356331925,-0.05611048335412446,-0.005347246908137479,-0.0014090937176726224,0.0,0
2025/04/09 09:49:55.346922022,1744184995,343835993,piren,vessel_center,-479.6849100549081,-300.04984257793285,2.3156448954913027,-0.033239139340806106,0.001045797326717723,-0.0026281018787570574,0.9994434246140944,0.19934928704319646,-0.0022475114422374487,0.003431096533788973,-0.007435668675899995,-0.002318938894059074,-0.030851817461964037,0
2025/04/09 09:49:55.403922575,1744184995,401364288,piren,vessel_center,-479.67342269056917,-299.98332165933783,2.3423854459141364,0.015057973671699008,0.0006746397343534202,-0.003134114695160603,0.9998814827844392,0.2027767362009854,0.14584961559976392,0.06248360699207382,-0.006234592280908297,-0.0028033622019683025,-0.005388682651411654,0
2025/04/09 09:49:55.462162008,1744184995,457469446,piren,vessel_center,-479.6526453763741,-300.013487705084,2.33100549588664,0.021272219398545827,0.0007371575287872135,-0.0031478611756753185,0.9997684933276586,0.20356851198421283,0.04616463220295401,0.023207806979827564,-0.0037221774623841597,-0.0036739262787842033,0.0,0
2025/04/09 09:49:55.570872709,1744184995,568970025,piren,vessel_center,-479.63075164111257,-300.05012490112324,2.3164545397327068,0.013900849238183013,0.0008291798265096822,-0.003759006310129904,0.9998959689501868,0.20660939867702838,-0.045605410193729476,-0.014331861676181515,0.00022719187360522572,-0.0038618296267627027,-0.029978405668863825,0
2025/04/09 09:49:55.684923334,1744184995,681751776,piren,vessel_center,-479.6089222839406,-300.0679109266093,2.310321464751673,0.020565009774265477,0.0003656146311590975,-0.004275261001649446,0.999779310069124,0.20857141294609394,-0.07485942015241533,-0.02473350551246524,0.0024314212185230846,-0.002709162031338832,-0.032914542744460776,0
2025/04/09 09:49:55.744032821,1744184995,739263658,piren,vessel_center,-479.5998431206309,-300.090019448053,2.3014576951375045,0.001002637722739167,0.0004195370916661355,-0.0035870170304948146,0.999992975982856,0.20509605893739719,-0.11550701831301892,-0.04162870040838283,0.004114367779271632,-0.0018920356191118332,-0.03087465450449507,0
2025/04/09 09:49:55.800816673,1744184995,797676173,piren,vessel_center,-479.58981208425524,-300.0730863448978,2.3096950992662517,-0.02932060002461215,0.0004913610146603312,-0.003886351199708931,0.999562382872076,0.20459222358103946,-0.06503229187037476,-0.01869306735541135,0.005689792248208821,-0.0007349224041138737,-0.006166952865827295,0
2025/04/09 09:49:55.858398651,1744184995,855219829,piren,vessel_center,-479.56924040694025,-300.01162500736336,2.334878484677063,-0.000357247106214615,0.000508025820604623,-0.003898944964621525,0.9999922062258453,0.20433216879632712,0.08647240937139059,0.04159408782171946,0.006173400061012395,0.0010872811250054913,0.0,0
2025/04/09 09:49:55.971894946,1744184995,967220615,piren,vessel_center,-479.5481380889453,-300.01157029627046,2.336053443303509,0.02908356107198178,0.0004906374101274176,-0.0045478503266104765,0.9995665174502951,0.20550942378877154,0.06724421774401917,0.03489801674074032,0.005466885853053841,0.002557959795155216,-0.03067296809622834,0
2025/04/09 09:49:56.83355393,1744184996,80499276,piren,vessel_center,-479.5272870830805,-300.06140654923695,2.3143056363276755,-0.025387014657901243,0.0008932932533563753,-0.005060492738340493,0.9996644901801646,0.20574556534184013,-0.05860343353137948,-0.021265986041469044,0.007092554090201021,0.003150804496950431,-0.032958070084761905,0
2025/04/09 09:49:56.141126206,1744184996,139147932,piren,vessel_center,-479.5166276986532,-300.00828558805864,2.335993672592265,0.0024793735349728486,0.0005809705496791459,-0.004606900618762047,0.9999861457274213,0.20605506666261136,0.06611715606977697,0.029352161655429983,0.0047062577511795545,0.003476788876827713,-0.03827613866754446,0
2025/04/09 09:49:56.199982435,1744184996,196698477,piren,vessel_center,-479.50637647466425,-300.0173412575463,2.333020462171309,0.0293428139067432,0.00047766122197740666,-0.004616325608865563,0.9995586329223836,0.20606776579206781,0.03868427891470703,0.019500491606288382,0.002105909604334964,0.003513935519255416,0.0,0
2025/04/09 09:49:56.257392999,1744184996,255246699,piren,vessel_center,-479.4958812478039,-300.0683163044562,2.310541452132258,-0.02902321018589054,0.0002608913767967144,-0.004589410496718585,0.9995681680193141,0.2059472064507645,-0.07900754729735096,-0.03267711264609699,0.0023572896497819516,0.003358683821127086,-0.036927971639203125,0
2025/04/09 09:49:56.314978407,1744184996,312985729,piren,vessel_center,-479.475226899191,-300.0087970002846,2.3346016768071753,0.005937702932401099,0.0007770366978572899,-0.005349267233701195,0.9999677620993186,0.21036298346793955,0.06918765602108609,0.02737852074975665,-0.0008979163964631354,0.0024949501301961964,-0.007294072964166497,0
2025/04/09 09:49:56.396184929,1744184996,394134992,piren,vessel_center,-479.4627243489996,-300.02308028274956,2.329594896621254,0.012948605906020228,0.0007447879332867897,-0.004529649231957799,0.9999056261337169,0.21482479726491874,0.029756537679668633,0.013209812778458972,-0.003185752663236998,0.0016386039997869574,-0.007629058036075388,0
2025/04/09 09:49:56.455298621,1744184996,453045972,piren,vessel_center,-479.4375732510892,-300.04421140780846,2.321241715908323,-0.029713075349160532,0.0008310938875510708,-0.0044975264757926925,0.9995480051962711,0.2216699194951616,-0.02400444726395077,-0.008372446606943862,-0.004844107116795528,0.00019948165280598865,0.0,0
2025/04/09 09:49:56.570126129,1744184996,567201880,piren,vessel_center,-479.41110868016403,-299.98944374443226,2.343219397568892,0.03252516693917695,0.0005683249479286349,-0.0061774979398310755,0.9994516641846847,0.23077040972661964,0.10310878615309807,0.04235406097968118,-0.00687562256836569,-0.0016061794664622975,-0.03589823389038503,0
2025/04/09 09:49:56.684393057,1744184996,682312775,piren,vessel_center,-479.384597724796,-300.0505797766012,2.3166864217998038,-0.025600924609168494,0.0009090893618835083,-0.006725683845682117,0.9996492041673899,0.23643338890424276,-0.05656976852037554,-0.02639350539807464,-0.005572255690816327,-0.0027655806732135436,-0.03731935965562338,0
2025/04/09 09:49:56.743657529,1744184996,741298427,piren,vessel_center,-479.3704605302003,-300.0014739441764,2.3374751281764667,-0.027881518549648907,0.0007897031398813597,-0.006078809339699091,0.9995924396319373,0.24076081504522337,0.059049995691066545,0.022833703791681495,-0.005980347549516044,-0.003126734357683454,-0.041151453211803676,0
2025/04/09 09:49:56.804037217,1744184996,801298128,piren,vessel_center,-479.34490362883037,-299.96126771170447,2.3543876645751554,-0.026163795480732884,0.0006005325926069987,-0.006561138372571867,0.9996359570513176,0.2483756997204182,0.1363466723882542,0.05575782540319688,-0.004127075017864743,-0.003190974021961382,-0.009266049114159632,0
2025/04/09 09:49:56.916563268,1744184996,914560580,piren,vessel_center,-479.31760903795873,-299.9335700252159,2.3664176905517467,0.03024170400578787,0.00029546880077716215,-0.0060290773202190265,0.9995243880284668,0.2533860341451145,0.16735480302331815,0.07000141911297555,-0.003949418510546893,-0.002402101321830677,-0.008088336071254074,0
2025/04/09 09:49:57.30734602,1744184997,28407072,piren,vessel_center,-479.2909104141418,-300.0086094848601,2.335073048832354,-0.028581623103804858,0.0005171037426285308,-0.0062371704367647565,0.9995718689165949,0.25596698605368146,-0.0369056474135501,-0.015341435023749503,0.00032550980228456905,-0.001490029135929587,-0.008393988670506045,0
2025/04/09 09:49:57.88674428,1744184997,86652667,piren,vessel_center,-479.27644755683946,-299.97017008161504,2.351442646440864,0.013875252656788944,0.0004874656130973284,-0.006257724580936851,0.9998840335879233,0.2597996273940225,0.052612294378423394,0.02273871483626936,0.0015930526865142048,-0.001388085768284833,0.0,0
2025/04/09 09:49:57.147628636,1744184997,145353725,piren,vessel_center,-479.26249569851774,-300.014346197557,2.33442650115779,0.032670185336560895,-5.421716026940228e-05,-0.006914753744550102,0.9994422655817726,0.26059977676809465,-0.05169064953611231,-0.01772517338752711,0.0024393928486975266,-0.00044061657078282206,-0.041793037458084416,0
2025/04/09 09:49:57.205602856,1744184997,203482842,piren,vessel_center,-479.2510833765332,-300.07690511893105,2.3075732332574344,-0.0054458353991462885,0.0001279657022853488,-0.00748300753288987,0.9999571646324893,0.2577903016332584,-0.18514421502595685,-0.07549229761479109,0.004365988150352114,0.0005591421514825859,-0.0073817596822663735,0
2025/04/09 09:49:57.262946971,1744184997,260982712,piren,vessel_center,-479.2255085448866,-300.06414438489105,2.3144881567907754,9.827553028529249e-05,-0.0003320838525527328,-0.007483519737583617,0.9999719381035511,0.25614307619453025,-0.11477889253083011,-0.042996610286078984,0.0056522764431327305,0.0038868918996461804,0.0,0
2025/04/09 09:49:57.375671330,1744184997,372770092,piren,vessel_center,-479.2001542749817,-300.06037486451334,2.317197283503305,0.0006683686279869362,0.000649213801606714,-0.008148078204203808,0.9999663697477007,0.25448101370411674,-0.08040571979463455,-0.02723759503866864,0.006792942483150786,0.004785085081949168,-0.036670842566869054,0
2025/04/09 09:49:57.487531190,1744184997,485140828,piren,vessel_center,-479.1751904532696,-300.0558572633325,2.319733806309753,-0.027813494796325184,0.001068529194201719,-0.008858847043888951,0.9995733032557587,0.2578742419158061,-0.05390718256685394,-0.016024920734241145,0.007330242320055184,0.004036558387712486,-0.04568331168288847,0
2025/04/09 09:49:57.546111528,1744184997,544335334,piren,vessel_center,-479.16118633768707,-300.00159794279864,2.341110055415693,0.0021426154249972796,0.0008413371938122326,-0.00844984869553956,0.9999616499685823,0.2588300882112435,0.07299694385710646,0.03336096233755144,0.006141317988479635,0.003301545090068692,-0.05082728343950565,0
2025/04/09 09:49:57.607567435,1744184997,602566596,piren,vessel_center,-479.14824959640896,-300.0133604135082,2.336698584160665,0.0015967335831648273,0.0008552701176439568,-0.009004127097923724,0.9999578214355318,0.25805258571372175,0.038526792897119244,0.019750388074184014,0.005004417518906136,0.002373788284278693,-0.009759921420608114,0
2025/04/09 09:49:57.665271757,1744184997,661831249,piren,vessel_center,-479.1223822430782,-300.01984865205384,2.3344492397423737,-0.013911297048820766,0.0009420926904626813,-0.008990867176344688,0.9998623668201537,0.25733258776931506,0.015415186685186578,0.010295693740302396,0.001788839417983955,0.0002493571384673555,0.0,0
2025/04/09 09:49:57.780526466,1744184997,778302001,piren,vessel_center,-479.0946145675282,-299.9995949936861,2.342953963000005,0.026768988430269362,0.001013655450025489,-0.009976286822944722,0.9995913502338218,0.2614405558460476,0.05697943950317532,0.026893193100485262,-0.0008254696924618373,-0.0021295186782824493,-0.049040542848368375,0
2025/04/09 09:49:57.894816155,1744184997,892587129,piren,vessel_center,-479.066948437223,-300.05220911353354,2.320048393501702,-0.02984214174628539,0.0008298607009746517,-0.010765873995528988,0.999496300075355,0.26433460061293773,-0.0727284845875143,-0.03004297087969169,-0.0029163564294045303,-0.0034409249149504615,-0.05364222905474202,0
2025/04/09 09:49:57.952796053,1744184997,950508210,piren,vessel_center,-479.05347327679925,-299.9971145461761,2.342098750698642,0.0007066058127240271,0.0005351811515629305,-0.009752887038937702,0.9999520465921184,0.264346761078923,0.05795486450879289,0.022365984113506925,-0.004472801647503796,-0.0038432746747560113,-0.051532646872822614,0
2025/04/09 09:49:58.12414765,1744184998,10705310,piren,vessel_center,-479.0256773024072,-300.0080528923714,2.3387130423022784,0.0014787037843588613,-0.00022115587193825915,-0.010564158823812307,0.999943079916824,0.26606540905131626,0.02047759149609229,0.009759897806510636,-0.005966298023315244,-0.0038328579880468074,-0.010600800809704079,0
2025/04/09 09:49:58.125585950,1744184998,123430900,piren,vessel_center,-479.00045507451557,-300.0193897173166,2.335103108857342,0.029449632319431544,0.00018403278164504967,-0.009682504761526068,0.9995193516834622,0.26818922739944356,-0.0088701797452355,-0.0002418194035408161,-0.0077074941303104235,-0.0028608656902188692,-0.013437258858273682,0
2025/04/09 09:49:58.183872057,1744184998,181536288,piren,vessel_center,-478.98708066576324,-300.0198320669619,2.3350910494932187,0.03306303723495636,0.0003080074700437324,-0.009692546829346968,0.999406221331526,0.26818922739944356,-0.0088701797452355,-0.0002418194035408161,-0.006588822499136329,-0.0025374204457903025,0.0,0
2025/04/09 09:49:58.243464573,1744184998,240759761,piren,vessel_center,-478.97040805745496,-300.08097022245715,2.3082260085119617,0.02176336062286517,8.045006874913353e-05,-0.01071107601569813,0.9997057679701421,0.274881432593611,-0.1437489374602588,-0.05992351671905686,-0.006614441373213609,-0.0017713045942067253,-0.06151804810686294,0
2025/04/09 09:49:58.302939698,1744184998,299234722,piren,vessel_center,-478.9549986456504,-300.10605104771275,2.2980651317687126,0.0022077926189880766,0.00021380326365580784,-0.011686512998383152,0.9999292501741585,0.27831772011177236,-0.18337828720968863,-0.07578925486515166,-0.0059643634012408455,-0.000789977357347766,-0.01140340494086458,0
2025/04/09 09:49:58.362139420,1744184998,356871304,piren,vessel_center,-478.9251521023592,-300.09689476927895,2.3031191553895156,0.00028877816705683587,0.0003347210194519697,-0.011686078053897209,0.9999316177362968,0.28234017984232196,-0.1219729357697357,-0.047588676595917916,-0.0034361140632616,0.0010647329882299368,0.0,0
2025/04/09 09:49:58.473706623,1744184998,469988114,piren,vessel_center,-478.8933825284404,-300.08377115621573,2.3095250379023327,0.0004821582534587718,0.0002563102310651342,-0.012961985039600101,0.9999158408447769,0.2896848441633665,-0.06547687897618706,-0.022689114735772748,-0.0006632750379522641,0.002787664776055518,-0.06168443483417603,0
2025/04/09 09:49:58.586051312,1744184998,584130582,piren,vessel_center,-478.8625919590214,-300.0717833407481,2.3150940545908694,-0.00044591713497499824,0.0006349713304585816,-0.013847974706355324,0.9999038111567784,0.293170071128452,-0.024154160058196428,-0.005225116076327425,0.0019087148155917573,0.0035918368500829734,-0.06471996439931006,0
2025/04/09 09:49:58.646256836,1744184998,644114821,piren,vessel_center,-478.84842580754787,-300.0589234912216,2.320606850951421,0.003075975057204468,0.0007401996998637185,-0.012783000304707262,0.9999132889331264,0.2913462073406208,0.0071707536720172355,0.007620576684536444,0.004167915097099366,0.003523192774810915,-0.06933469721349043,0
2025/04/09 09:49:58.704990902,1744184998,702176607,piren,vessel_center,-478.83361786462115,-300.05545219567585,2.3220617992957666,-0.02191071852891113,0.001092279095389687,-0.013514689685223217,0.9996679851343829,0.2919989818413341,0.01409167041770197,0.01001041712740816,0.0060096527601078585,0.0032487962588745385,-0.014040568351489235,0
2025/04/09 09:49:58.763667931,1744184998,761373880,piren,vessel_center,-478.8035975908824,-300.01008876368974,2.340139051654126,-0.02455255219316093,0.001052364730465706,-0.013519375857103411,0.9996065681985641,0.2932403452727157,0.11177165445960817,0.047949998543861706,0.00611825203574704,0.0023242590326274055,0.0,0
2025/04/09 09:49:58.877895987,1744184998,875786238,piren,vessel_center,-478.7727158351013,-299.97008689795143,2.355822341598266,0.02860106144108329,0.0003543459650810299,-0.015129854446319408,0.9994763335006056,0.2958147003664634,0.17549913127513755,0.07200517508918147,0.005263777677508073,0.0008899118410465892,-0.07129459542044876,0
2025/04/09 09:49:59.16968404,1744184999,14913842,piren,vessel_center,-478.73037713702877,-300.02372937931085,2.332086731546283,-0.02548001856533713,0.0009093274218418195,-0.017017379939852872,0.9995300648592481,0.290133862344146,-0.0029161196331638772,-0.00503411871651499,0.006468607814494269,-0.001400649006971452,-0.008189946512951931,0
2025/04/09 09:49:59.132118370,1744184999,130032511,piren,vessel_center,-478.70551626701604,-299.98487416551234,2.3478394274799412,-0.004745573022729288,0.000566149534315943,-0.01388035722507481,0.9998922415414049,0.2867197942020538,0.08402879946156684,0.03099399775376975,0.0011309514868958564,-0.0022184082576600637,-0.017515554299590713,0
2025/04/09 09:49:59.191821938,1744184999,188999721,piren,vessel_center,-478.6909046302412,-299.99254932008927,2.3457038209723007,0.02509033291724397,7.008464054149702e-05,-0.01389206332773599,0.9995886558273575,0.2874377401719811,0.05766380610807613,0.02281474945695644,-0.0008094814303387288,-0.002433454106077711,0.0,0
2025/04/09 09:49:59.250570316,1744184999,248214534,piren,vessel_center,-478.6773850217289,-300.0479971859619,2.3221355237494885,-0.0007269975527362826,0.0003873788978549665,-0.015336317396048588,0.9998820524346237,0.2849405689188642,-0.07209903520310905,-0.0321494077841867,-0.00032198221861235213,-0.002529120660567053,-0.07858172128281123,0
2025/04/09 09:49:59.309064095,1744184999,307173875,piren,vessel_center,-478.64830946802255,-300.0474246553339,2.323405510413424,0.005570983066715835,0.00042346653131385056,-0.016986775110871887,0.9998401043642428,0.28570713379831425,-0.05466926577341798,-0.022122179414465516,-0.0026018622408987223,-0.00210518410443637,-0.015207894891012042,0
2025/04/09 09:49:59.423581254,1744184999,421319503,piren,vessel_center,-478.6192778795575,-300.0566959130791,2.3203942893684757,-0.003291134512248493,0.0003545495772554212,-0.01553652698940961,0.9998738215681652,0.2861746664782458,-0.06301780481630845,-0.023854843259271643,-0.0057508967180475165,-0.00152142536714906,-0.01533630769224754,0
2025/04/09 09:49:59.538213948,1744184999,536183871,piren,vessel_center,-478.58745229539875,-300.0485338322365,2.3245851978605003,-0.009394774922450793,0.0006288757833045617,-0.016038703485203053,0.9998270363967557,0.2918217029218794,-0.030544569985022058,-0.009114859193328453,-0.0061013518595101415,-9.693292860488687e-05,-0.015676539976572652,0
2025/04/09 09:49:59.597205309,1744184999,594511769,piren,vessel_center,-478.57030555481685,-300.0298909596555,2.3326955094146897,0.030624930064230536,6.042267866307938e-05,-0.016052762900620222,0.9994020306217701,0.2976237515800221,0.014270027652492391,0.009919099036828756,-0.006719650788033178,0.00034236800917908345,0.0,0
2025/04/09 09:49:59.657549598,1744184999,655584499,piren,vessel_center,-478.53942127309034,-300.0825275175328,2.3093099651113604,0.0021338096340490784,0.0004375718938512174,-0.019749115881296145,0.9998025944201138,0.29948419082224964,-0.10591480782691137,-0.0442800870852673,-0.005317922149413289,0.001026626901356066,-0.08844108208012924,0
2025/04/09 09:49:59.773825074,1744184999,771490732,piren,vessel_center,-478.50601050546686,-300.0769139407643,2.312349131735826,-0.0016995760910489923,0.0006110208002994081,-0.021113740429704108,0.9997754488182631,0.3054097722000278,-0.06925026965395732,-0.027412131550785312,-0.005101669533820711,0.001526159985716261,-0.09337343220451486,0
2025/04/09 09:49:59.890632781,1744184999,888563887,piren,vessel_center,-478.4746502467015,-300.06381871927874,2.318296201529013,0.03142984340597234,-0.0008981500809689709,-0.02103974985018022,0.9992840873326013,0.3130713972476314,-0.026082345984877568,-0.008627837864328337,-0.002664723790959082,0.0022082501304067047,-0.0909133361061763,0
2025/04/09 09:49:59.950997918,1744184999,947992472,piren,vessel_center,-478.46307748044404,-300.1068388185406,2.298514533346036,0.0052834141984260076,0.0005630969467005122,-0.02004360775434423,0.9997849880071348,0.3038519706481565,-0.11878101253569143,-0.051628485035125966,0.0002410971378007756,0.0021797932127827126,-0.10417137847649878,0
2025/04/09 09:50:00.10973301,1744185000,8689076,piren,vessel_center,-478.43044976576016,-300.09798485700577,2.302768184429884,-0.03103340142730396,0.0014816524277983583,-0.02171925457223425,0.9992812450370323,0.3082415162032702,-0.07246894749391644,-0.030598097040201232,0.0016137020339571837,0.0013856100327162362,-0.020115332694067456,0
2025/04/09 09:50:00.126227106,1744185000,124277376,piren,vessel_center,-478.39628277564464,-300.02769711807076,2.3307690168082167,0.02605206307587307,0.00035831175886065047,-0.019869227237590652,0.9994630435544655,0.3151851883869767,0.09996756363557363,0.03848303455283024,0.0018859175159675328,0.0003228714652854584,-0.020887256674255766,0
2025/04/09 09:50:00.186186243,1744185000,183863771,piren,vessel_center,-478.3812848463601,-300.07075480427545,2.3123083165353937,0.03120401280169769,0.00022442383720746965,-0.019870347779645522,0.9993154799652254,0.3136232628609377,-0.006796109279730053,-0.006806556275012941,0.004231558254891776,-0.00033345632488720767,0.0,0
2025/04/09 09:50:00.245634868,1744185000,243787620,piren,vessel_center,-478.366287442509,-300.11017099693265,2.2949376852333456,0.005133131065975064,0.0006659677447383344,-0.021745421420102638,0.9997501408350412,0.3112693334146115,-0.09363373147762064,-0.044641975367269764,0.006595473123351786,-0.0009304167734480158,-0.11313554681061104,0
2025/04/09 09:50:00.306086813,1744185000,304033018,piren,vessel_center,-478.33517431944495,-300.0977095345689,2.301323170553628,-0.03119236577498798,0.0014691463376981175,-0.024051397130192054,0.9992229021707236,0.3104864836817796,-0.04989136819704032,-0.02290115436861248,0.006035964010973471,-0.0019187538091643913,-0.022118267647935716,0
2025/04/09 09:50:00.423197990,1744185000,420139401,piren,vessel_center,-478.3028120217874,-300.01825811287296,2.333545485420992,0.01753696692587892,0.00031357811361803264,-0.02201725343844926,0.9996037199864927,0.3123575171471657,0.1186633740253914,0.04599636738407242,0.004087895319702125,-0.002286630742964077,-0.022280402988065724,0
2025/04/09 09:50:00.538723809,1744185000,536150113,piren,vessel_center,-478.2730008619554,-300.04869323391927,2.3216050781781616,3.0248878132725097e-05,0.000640332294127035,-0.02272853649037486,0.9997414679248652,0.3075823467437203,0.03385590475222709,0.01283879734796814,0.003966100744829939,-0.002173945436682963,-0.022358628980615212,0
