time,header_stamp_secs,header_stamp_nsecs,header_frame_id,pose_position_x,pose_position_y,pose_position_z,pose_orientation_x,pose_orientation_y,pose_orientation_z,pose_orientation_w
2025/04/09 09:49:46.628457013,1744184986,627028073,piren,-479.9985222039739,-300.00219534388026,2.3315542472465807,-0.0007981704144731937,0.0004028195470696222,-7.410182330972292e-05,0.99999959758458
2025/04/09 09:49:46.839593385,1744184986,838166422,piren,-479.99848985089875,-300.0022014506036,2.331553833024817,-0.0007979333460042543,0.00040317295745541203,-7.431368315854787e-05,0.9999995976156282
2025/04/09 09:49:46.907573372,1744184986,904214031,piren,-479.998464265435,-300.0022028124629,2.331553271437552,-0.0007970962405942414,0.00040333595240617693,-7.509025739820651e-05,0.9999995981594924
2025/04/09 09:49:46.964476240,1744184986,963404526,piren,-479.9984278764523,-300.00220398808534,2.3315522301059035,-0.0007963793317493547,0.0004029300350856127,-7.509102322459703e-05,0.9999995988942622
2025/04/09 09:49:47.69967933,1744184987,68686947,piren,-479.9983843571561,-300.00220514705376,2.3315509373578767,-0.0007954879302098643,0.0004033984046003442,-7.293199576641753e-05,0.9999995995747218
2025/04/09 09:49:47.173418610,1744184987,172919154,piren,-479.99835749512755,-300.0022099169505,2.331549379690281,-0.0007947617712419922,0.00040267757759761876,-7.268991672982066e-05,0.9999996004602559
2025/04/09 09:49:47.278653142,1744184987,277705152,piren,-479.9983319819014,-300.0022169908136,2.331547705092897,-0.000795488281291829,0.0004030049554577807,-7.22224829692007e-05,0.9999995997845765
2025/04/09 09:49:47.439440118,1744184987,438916226,piren,-479.9982956829488,-300.00221587040073,2.3315466903126687,-0.0007429834514600912,0.0004029631351730144,-7.12146450830333e-05,0.9999996402623237
2025/04/09 09:49:47.494294195,1744184987,492959930,piren,-479.9982741568951,-300.00230589743325,2.331510001860592,-0.0008028770927063476,0.000402426638717233,-7.2461443190061e-05,0.9999995940951745
2025/04/09 09:49:47.547257727,1744184987,546813390,piren,-479.9982734495159,-300.00226621263045,2.3315257042756574,-0.0008006037378618365,0.0004028013917053923,-7.246192181116929e-05,0.9999995957669001
2025/04/09 09:49:47.604826188,1744184987,601480831,piren,-479.99827222444924,-300.0022404167543,2.3315357404081043,-0.0007976610063723764,0.00040224327237481643,-7.367065795924391e-05,0.9999995982548707
2025/04/09 09:49:47.666334665,1744184987,657246786,piren,-479.9982743175683,-300.0022384473221,2.3315404215293274,-0.00079652504825407,0.00040243740992672663,-7.36709053986155e-05,0.9999995990822078
2025/04/09 09:49:47.770301525,1744184987,769967705,piren,-479.99826479151915,-300.00223621511503,2.3315435393069635,-0.0007962195632441222,0.00040248448541799567,-7.177389387437146e-05,0.999999599444497
2025/04/09 09:49:47.876204941,1744184987,875704168,piren,-479.99825688628425,-300.00223473938075,2.331545793745626,-0.0007971993583739964,0.0004029781113129934,-7.152093743710715e-05,0.9999995984832096
2025/04/09 09:49:47.983950591,1744184987,983476589,piren,-479.9982536715232,-300.00223557596047,2.331548203939902,-0.0007976875944389997,0.00040249229726030975,-7.130972905357893e-05,0.9999995983046068
2025/04/09 09:49:48.39661783,1744184988,39229267,piren,-479.998244166944,-300.00223055333464,2.3315499030391322,-0.0007985676830180088,0.00040310353382627136,-7.20083340136176e-05,0.9999995973059171
2025/04/09 09:49:48.95490411,1744184988,94455358,piren,-479.998233379684,-300.0022233919329,2.331551672044557,-0.0007976880443467464,0.00040277715573438534,-7.200908055919066e-05,0.9999995981394388
2025/04/09 09:49:48.149333358,1744184988,148900025,piren,-479.9982230050299,-300.00222525033644,2.331552277392432,-0.0007980604006709512,0.0004025279135397846,-7.20677811755808e-05,0.9999995979384745
2025/04/09 09:49:48.205199722,1744184988,203876066,piren,-479.99820872302274,-300.00221961004974,2.3315528954585987,-0.0007971728582771023,0.00040302791816897914,-7.150389624563605e-05,0.9999995984854815
2025/04/09 09:49:48.257600034,1744184988,257187255,piren,-479.99818097717326,-300.00222588947355,2.331552676095163,-0.000797198905859258,0.0004027650409230682,-7.150416766661938e-05,0.9999995985706096
2025/04/09 09:49:48.312761200,1744184988,312330485,piren,-479.9981508617894,-300.00220731084755,2.3315528193477726,-0.0007961259622280579,0.0004025789556399911,-7.220500896009757e-05,0.9999995994499565
2025/04/09 09:49:48.415814163,1744184988,415358400,piren,-479.99810964427013,-300.0022182399229,2.3315520958605793,-0.0007960980694091795,0.00040251317950688653,-7.186383487001463e-05,0.9999995995232165
2025/04/09 09:49:48.522295276,1744184988,521179727,piren,-479.99806749693073,-300.00221927552957,2.3315513570101674,-0.0007965388904455467,0.00040251118915864397,-7.174628139113246e-05,0.9999995991814246
2025/04/09 09:49:48.633518493,1744184988,633110361,piren,-479.9980323337399,-300.00222563827793,2.331550943020823,-0.0007967379769943633,0.0004025044138346729,-7.163711627098983e-05,0.9999995990333779
2025/04/09 09:49:48.690547854,1744184988,688861638,piren,-479.9980254775011,-300.00222341996704,2.3315506619465354,-0.0007958299003846237,0.00040269181475552737,-7.163722558020785e-05,0.9999995996810098
2025/04/09 09:49:48.745395332,1744184988,745021079,piren,-479.99800562154684,-300.00222445078805,2.3315498241141066,-0.0007967908427596591,0.0004025223079008216,-7.132281699409265e-05,0.9999995990065198
2025/04/09 09:49:48.800056403,1744184988,799642688,piren,-479.99799689826693,-300.0022196383853,2.3315498912603276,-0.0007955870571511133,0.00040270217678403506,-7.098570391985078e-05,0.9999995999165305
2025/04/09 09:49:48.853849097,1744184988,853565927,piren,-479.9979792477955,-300.00222852042504,2.33154909954574,-0.0007966761773579762,0.0004025163375127237,-7.098530604260555e-05,0.9999995991242961
2025/04/09 09:49:48.908279089,1744184988,906958789,piren,-479.99796244140384,-300.00222492062977,2.3315492259776462,-0.0007964259229562049,0.00040248263620069836,-7.135852290161525e-05,0.9999995993106388
2025/04/09 09:49:49.14211357,1744184989,12064509,piren,-479.9979525642694,-300.00222349781757,2.3315491837661124,-0.0007971261279429029,0.00040241811188467257,-7.108706162692586e-05,0.9999995987980341
2025/04/09 09:49:49.88828097,1744184989,88512884,piren,-479.9979549891603,-300.0022135198473,2.33154971017758,-0.0007985947646203303,0.00040259356648928525,-7.110073512670766e-05,0.9999995975546728
2025/04/09 09:49:49.142516140,1744184989,142094162,piren,-479.99795038511957,-300.0022103034966,2.3315511072503625,-0.0007991456012006226,0.00040275377590143414,-7.11004007527025e-05,0.9999995970501375
2025/04/09 09:49:49.197790224,1744184989,196258825,piren,-479.997953165644,-300.0022160616453,2.331552485151104,-0.000797270880547929,0.00040243909293343405,-7.10864611752095e-05,0.9999995986742368
2025/04/09 09:49:49.251373995,1744184989,250031024,piren,-479.99795406497526,-300.00221895511027,2.3315521539713018,-0.000798702085234982,0.00040258286780072154,-7.108583200513463e-05,0.9999995974743281
2025/04/09 09:49:49.305016052,1744184989,304700939,piren,-479.9979535603123,-300.00221882764646,2.3315530357170893,-0.0007985248048163605,0.0004023499667549281,-7.086019373867699e-05,0.9999995977256558
2025/04/09 09:49:49.410045108,1744184989,409667392,piren,-479.99794769315895,-300.0022140482582,2.3315535329821424,-0.0007979722857621923,0.00040245653619637786,-7.061861436071449e-05,0.9999995981409088
2025/04/09 09:49:49.515899377,1744184989,514626063,piren,-479.99793765002124,-300.0022185247355,2.3315534580869857,-0.0007971488374035673,0.00040294068285095077,-7.050584334215073e-05,0.999999598610651
2025/04/09 09:49:49.619041640,1744184989,617903012,piren,-479.9979218318007,-300.00222204793505,2.331552746693168,-0.0007970438100251024,0.0004026441808044732,-7.040018299479226e-05,0.9999995988212409
2025/04/09 09:49:49.723973086,1744184989,723614354,piren,-479.9978949494088,-300.00223212299835,2.331552059719058,-0.0007972730415409289,0.0004024118512984361,-7.02983076096415e-05,0.9999995987391931
2025/04/09 09:49:49.830632171,1744184989,830230148,piren,-479.99786421008895,-300.00223471391075,2.331551663347337,-0.0007971066211908937,0.0004026042412264256,-7.020423042529861e-05,0.9999995988010323
2025/04/09 09:49:49.886380860,1744184989,885116134,piren,-479.9978243315623,-300.002230176638,2.3315512774401084,-0.00079629919293176,0.00040268827792340223,-7.020444295366043e-05,0.999999599410461
2025/04/09 09:49:49.941927702,1744184989,941016091,piren,-479.9978020454875,-300.0022299862698,2.331550441016549,-0.000796730309856333,0.0004028058740866773,-6.992767129865285e-05,0.9999995990391006
2025/04/09 09:49:49.996829126,1744184989,996499734,piren,-479.9977817332778,-300.0022301646811,2.331550148297315,-0.0007957391191036197,0.0004024927274783544,-6.96128968821858e-05,0.9999995999763717
2025/04/09 09:49:50.53380179,1744184990,52221766,piren,-479.9977637245715,-300.002230778897,2.331549262213307,-0.0007962171443390576,0.0004022296773409873,-6.961282261988094e-05,0.9999995997017203
2025/04/09 09:49:50.109888522,1744184990,108727996,piren,-479.9977359205002,-300.00223522422425,2.331548811444144,-0.0007956396154418059,0.0004024851504666811,-7.002416277850859e-05,0.9999996000298814
2025/04/09 09:49:50.216704538,1744184990,215281827,piren,-479.9977038739349,-300.0022376985542,2.331548133819682,-0.0007961582899726341,0.00040232252303397777,-6.983569774909003e-05,0.99999959969569
2025/04/09 09:49:50.320801227,1744184990,320360253,piren,-479.9976743647723,-300.0022428899674,2.331548075899722,-0.0007970910733157623,0.00040215189381624525,-6.975292737802208e-05,0.9999995990270217
2025/04/09 09:49:50.425069409,1744184990,423879873,piren,-479.9976611011878,-300.00224300233407,2.331548718414877,-0.0008031983940840229,0.0004023606281907025,-6.964455059323821e-05,0.9999995940638683
2025/04/09 09:49:50.529822955,1744184990,529469665,piren,-479.99764496369437,-300.0022324120089,2.331553553610747,-0.00080440441500926,0.00040287277474932825,-6.957962096438891e-05,0.9999995928927876
2025/04/09 09:49:50.636463233,1744184990,635486155,piren,-479.9976363903528,-300.0022246958112,2.331558220295087,-0.0007986656953130366,0.0004024827267608091,-6.950797920036535e-05,0.9999995976546204
2025/04/09 09:49:50.690326383,1744184990,689968598,piren,-479.9976425934481,-300.0022173059856,2.3315571582668158,-0.00079654092485181,0.0004024747484709394,-6.95089055339658e-05,0.9999995993524917
2025/04/09 09:49:50.745311654,1744184990,744926791,piren,-479.9976402155927,-300.0022233392383,2.331554873822356,-0.0007973156278330378,0.00040250597444744607,-6.927354250353682e-05,0.9999995987388728
2025/04/09 09:49:50.800170981,1744184990,799794103,piren,-479.99764381682525,-300.00222889026446,2.3315537256823196,-0.000796142137070995,0.00040251697497442694,-6.905770954940752e-05,0.9999995996843275
2025/04/09 09:49:50.857018857,1744184990,855171574,piren,-479.9976433524345,-300.0022236647494,2.331552031930384,-0.0007968851655514765,0.00040258033078804006,-6.905746290701426e-05,0.9999995990670082
2025/04/09 09:49:50.963864196,1744184990,962878150,piren,-479.99763290288615,-300.0022239701773,2.33155126446074,-0.0007972078031968625,0.0004026337155435439,-6.881027550984627e-05,0.9999995988053973
2025/04/09 09:49:51.71356912,1744184991,70742440,piren,-479.99761332242304,-300.0022301410052,2.3315509551761915,-0.000797151926402715,0.00040272289260531285,-6.877033269762636e-05,0.9999995988167792
2025/04/09 09:49:51.181906061,1744184991,180503036,piren,-479.9975767082232,-300.002226994358,2.3315507269432527,-0.000796662293443563,0.00040245261533162536,-6.863369961798043e-05,0.9999995993251687
2025/04/09 09:49:51.238418104,1744184991,237412112,piren,-479.99755550777013,-300.00223510289754,2.3315503255758414,-0.0007966460115477907,0.0004021335077503806,-6.886299954406001e-05,0.9999995994507506
2025/04/09 09:49:51.294272081,1744184991,292989094,piren,-479.9975375092163,-300.00224016815537,2.3315500429687313,-0.0007958023890301644,0.0004021982019973372,-6.886324825851582e-05,0.9999996000964285
2025/04/09 09:49:51.350103922,1744184991,349620481,piren,-479.9975181610224,-300.0022372923899,2.331549259966625,-0.000795779811776312,0.00040227565493685345,-6.890188901653019e-05,0.9999996000805793
2025/04/09 09:49:51.430138550,1744184991,428421929,piren,-479.997482147538,-300.0022414127908,2.3315485406723493,-0.0007959277772910191,0.0004023954681260426,-6.864202977517134e-05,0.9999995999324861
2025/04/09 09:49:51.538007990,1744184991,536645265,piren,-479.99744783770706,-300.00224059737764,2.331548187949976,-0.0007964151900422363,0.0004025043465696644,-6.890243981515002e-05,0.9999995994826948
2025/04/09 09:49:51.594593043,1744184991,593351947,piren,-479.9974310025501,-300.00223517999757,2.3315484562641386,-0.0007957870288239304,0.00040254380659464177,-6.888525180591359e-05,0.9999995999680754
2025/04/09 09:49:51.649021206,1744184991,648787681,piren,-479.99740913228624,-300.0022382995538,2.3315482146286404,-0.0007966455400897243,0.00040259687468967433,-6.888484611338775e-05,0.9999995992631787
2025/04/09 09:49:51.706688270,1744184991,706376945,piren,-479.99738514675823,-300.00224431757783,2.3315485271911256,-0.0007967091599477993,0.00040227803034086085,-6.883286759252549e-05,0.9999995993443883
2025/04/09 09:49:51.814427352,1744184991,814126005,piren,-479.9973669223865,-300.002251112759,2.3315488833644946,-0.0007966505140278979,0.000402382079338226,-6.87165097043382e-05,0.9999995993572508
2025/04/09 09:49:51.922816353,1744184991,922400216,piren,-479.9973413461876,-300.0022421621386,2.3315491541837097,-0.0007964424193472517,0.0004024451286133952,-6.866204553814842e-05,0.9999995995013772
2025/04/09 09:49:52.31848838,1744184992,30656570,piren,-479.9973314224729,-300.00224120327084,2.331549234670445,-0.0007971794074864765,0.0004024941733374712,-6.860756406279275e-05,0.999999598898137
2025/04/09 09:49:52.139123002,1744184992,138713349,piren,-479.99732793755965,-300.0022310797684,2.3315498152681733,-0.0007979857211806349,0.00040253679213670497,-6.855747574687428e-05,0.9999995982413155
2025/04/09 09:49:52.195341356,1744184992,194104084,piren,-479.99733643102104,-300.00223484052754,2.3315507806774463,-0.0007967725190055487,0.00040254843074884905,-6.856370443745153e-05,0.9999995992035858
2025/04/09 09:49:52.251897583,1744184992,251523515,piren,-479.997336889244,-300.0022325949812,2.33155073642213,-0.000797015131694722,0.00040258192397054303,-6.856358317086215e-05,0.9999995989967744
2025/04/09 09:49:52.362866339,1744184992,360986286,piren,-479.99732717248946,-300.0022282700588,2.3315508191253804,-0.0007968497263275261,0.00040220921035702525,-6.813117938032529e-05,0.9999995993081233
2025/04/09 09:49:52.469445237,1744184992,469123063,piren,-479.99731368537874,-300.0022276908023,2.331550734140203,-0.0007962642456017424,0.00040223498657574055,-6.804492526014276e-05,0.9999995997699974
2025/04/09 09:49:52.578577946,1744184992,578139992,piren,-479.9972808628782,-300.00222963161343,2.33155022506111,0.0011147274725744716,8.926696660432999e-05,-6.841532809281464e-05,0.9999993723665098
2025/04/09 09:49:52.690629580,1744184992,690129495,piren,-479.99776148046385,-300.0054059480495,2.3302079472685784,0.006409688554440551,0.00013454424372711206,-6.790906043698917e-05,0.9999794463781949
2025/04/09 09:49:52.747787966,1744184992,747408043,piren,-479.9979661527474,-300.0165240149923,2.325463726488166,0.005080946825075448,0.0001238118588434676,-6.255311458838863e-05,0.9999870822851125
2025/04/09 09:49:52.807512110,1744184992,806098312,piren,-479.9980483266142,-300.02210184847996,2.3230787522423144,0.015333493557510588,0.00015366770113557223,-5.999064112296487e-05,0.9998824214689858
2025/04/09 09:49:52.863361873,1744184992,862994397,piren,-479.99776721342414,-300.04406097887255,2.31341474637496,-0.012311597813488145,0.0001508676550837647,-5.668366356883972e-05,0.9999241964195046
2025/04/09 09:49:52.973890338,1744184992,973466330,piren,-479.9970068999174,-300.01465529841744,2.3255062058948894,0.029650886479899732,2.1612105933704238e-05,-5.219494635379001e-05,0.9995603142079824
2025/04/09 09:49:53.84441627,1744184993,84031058,piren,-479.99573665940864,-300.06031253355957,2.304825376363262,0.006258184561964299,0.00018424583445656242,-5.142579633174281e-05,0.9999803990753261
2025/04/09 09:49:53.141836494,1744184993,141519460,piren,-479.9939493306755,-300.05445039415,2.307876571164811,0.029499922354090047,0.0001719015293612533,-5.4649119504683626e-05,0.999564766308037
2025/04/09 09:49:53.198167449,1744184993,197779060,piren,-479.99200481245293,-300.08816697136007,2.2925968842407087,0.0006092707514715721,-0.00047086709585189015,-5.923013166787675e-05,0.9999997017825161
2025/04/09 09:49:53.255291039,1744184993,254895390,piren,-479.98940227608296,-300.0688084150913,2.30145172261017,0.004431850604838795,-0.0005131414401157624,-5.695704329881645e-05,0.9999900460214463
2025/04/09 09:49:53.365035622,1744184993,364749024,piren,-479.9850544361187,-300.0579818264367,2.306645626744972,0.0032286365678914812,-0.0005360234304791135,-0.00042563603061279487,0.9999945536945508
2025/04/09 09:49:53.472958355,1744184993,472616568,piren,-479.97880618639954,-300.04666167696587,2.3120091153418585,0.014002629728355314,0.0002675422508575607,-0.0007790407279103035,0.9999016190992887
2025/04/09 09:49:53.581574734,1744184993,581202998,piren,-479.969178251648,-300.05556084906465,2.3085095300837764,0.03563549344134736,0.00018149059350144268,-0.0010527472449013686,0.9993642831278264
2025/04/09 09:49:53.692794537,1744184993,692450704,piren,-479.95496170631947,-300.1271086289463,2.2753333294174745,-0.02337590860686962,0.00012384807477657835,-0.0012232538211998756,0.9997259900635507
2025/04/09 09:49:53.749522697,1744184993,749244460,piren,-479.94363484088177,-300.05563716651966,2.3057263678998914,-0.0036585080123631834,-9.221624883336705e-05,-0.0012256252612648213,0.9999925523012688
2025/04/09 09:49:53.859514331,1744184993,859153583,piren,-479.9308392613049,-300.0311878851371,2.3176399968603123,0.004296860208865141,-0.00014271185425585945,-0.001245620165763154,0.9999899824778621
2025/04/09 09:49:53.938638743,1744184993,937481627,piren,-479.92290526292174,-300.0285316644804,2.320159408534245,-0.02188706327192721,0.00011242194785607512,-0.0011211400645133626,0.9997598145892803
2025/04/09 09:49:53.994730563,1744184993,994401336,piren,-479.91468109036845,-299.982942957658,2.33941427691334,-0.008164678683173603,0.0002711087732390619,-0.0013229066738265423,0.9999657566336789
2025/04/09 09:49:54.54154298,1744184994,51544356,piren,-479.9065359799091,-299.9740738486837,2.3441398173740455,-0.02588973670996663,0.00013631609348459383,-0.0013207481625661138,0.9996639228137136
2025/04/09 09:49:54.109517499,1744184994,109164235,piren,-479.893142588064,-299.9334063164862,2.3610196841624957,0.0016154385641894767,0.0007215846339487374,-0.0010134884356727274,0.9999979212553655
2025/04/09 09:49:54.219673503,1744184994,218337402,piren,-479.87842896532715,-299.950945409498,2.354963651163134,-0.0010609901801553465,0.00047211988298497773,-0.0012459532786788985,0.9999985495004886
2025/04/09 09:49:54.330256412,1744184994,329108432,piren,-479.864379915605,-299.963709755859,2.350721459561853,-0.024195868128446967,0.00047161733683019847,-0.0013191736667626862,0.9997062555188075
2025/04/09 09:49:54.442129803,1744184994,441035461,piren,-479.8504305056016,-299.93685931131785,2.361712637255852,0.022091168816307256,-0.0006082993964372756,-0.0013507151743954485,0.9997548628542356
2025/04/09 09:49:54.502965400,1744184994,499103557,piren,-479.8449117283969,-299.99848826776037,2.335709752421591,-0.027764805522313144,0.0004546164073479275,-0.0013522075141475381,0.9996134655120793
2025/04/09 09:49:54.558323127,1744184994,556891956,piren,-479.8369507010617,-299.9590588624113,2.351528544757663,-0.023341914259903753,0.00033464078221066417,-0.0014225774915257348,0.9997264722550417
2025/04/09 09:49:54.615226130,1744184994,614033538,piren,-479.82339448866145,-299.93709366921104,2.360789563521098,0.0017697159451912868,0.0004862106761351198,-0.0016495660280741791,0.9999969553136503
2025/04/09 09:49:54.724586021,1744184994,724275631,piren,-479.8076556795536,-299.96274444079603,2.3512168215234013,0.027454670104555934,0.0004716723986813899,-0.0014855081920098438,0.9996218344354078
2025/04/09 09:49:54.834358496,1744184994,833953057,piren,-479.7912272425022,-300.02702870038837,2.3237642307296205,0.030822426634110306,0.0004923093537031761,-0.0015153588852966217,0.9995236061921369
2025/04/09 09:49:54.892477467,1744184994,891203965,piren,-479.78181066696317,-300.07896697001615,2.3011226522389707,0.03681858130944054,0.00046733302592762155,-0.0015157463464058156,0.9993207073723712
2025/04/09 09:49:54.949279026,1744184994,948062802,piren,-479.77211137353424,-300.12543491183527,2.280261722351461,-0.021034374834632698,0.0005250596250589218,-0.001590021106159262,0.9997773508239663
2025/04/09 09:49:55.7200337,1744184995,6286162,piren,-479.76183386483376,-300.0616567131564,2.307772984092289,0.0037429960677942725,0.0005722063897912352,-0.0017204968693236792,0.9999913511880023
2025/04/09 09:49:55.63221781,1744184995,62843224,piren,-479.7428135995693,-300.06100778860394,2.3095112762222967,0.03197144704110052,0.00022168545784109823,-0.0017179645622703017,0.999487281573617
2025/04/09 09:49:55.174005468,1744184995,173543179,piren,-479.7230185955674,-300.1053603028719,2.290196990063455,0.016920908888130522,0.0011273574922644157,-0.002292696782344075,0.999853567003163
2025/04/09 09:49:55.231373534,1744184995,230943208,piren,-479.71153871679184,-300.107369894055,2.2902350784799057,0.01473528688362207,0.0015473723237949793,-0.002396173071724629,0.9998873613132427
2025/04/09 09:49:55.287821039,1744184995,286729999,piren,-479.6982929170625,-300.1058359517503,2.29171856734269,-0.017831106281587444,0.0016323762083774423,-0.002343128454824344,0.9998369350777823
2025/04/09 09:49:55.345214982,1744184995,343835993,piren,-479.6849100549081,-300.04984257793285,2.3156448954913027,-0.033239139340806106,0.001045797326717723,-0.0026281018787570574,0.9994434246140944
2025/04/09 09:49:55.402478532,1744184995,401364288,piren,-479.67342269056917,-299.98332165933783,2.3423854459141364,0.015057973671699008,0.0006746397343534202,-0.003134114695160603,0.9998814827844392
2025/04/09 09:49:55.458740972,1744184995,457469446,piren,-479.6526453763741,-300.013487705084,2.33100549588664,0.021272219398545827,0.0007371575287872135,-0.0031478611756753185,0.9997684933276586
2025/04/09 09:49:55.569260875,1744184995,568970025,piren,-479.63075164111257,-300.05012490112324,2.3164545397327068,0.013900849238183013,0.0008291798265096822,-0.003759006310129904,0.9998959689501868
2025/04/09 09:49:55.682079895,1744184995,681751776,piren,-479.6089222839406,-300.0679109266093,2.310321464751673,0.020565009774265477,0.0003656146311590975,-0.004275261001649446,0.999779310069124
2025/04/09 09:49:55.740628391,1744184995,739263658,piren,-479.5998431206309,-300.090019448053,2.3014576951375045,0.001002637722739167,0.0004195370916661355,-0.0035870170304948146,0.999992975982856
2025/04/09 09:49:55.798029021,1744184995,797676173,piren,-479.58981208425524,-300.0730863448978,2.3096950992662517,-0.02932060002461215,0.0004913610146603312,-0.003886351199708931,0.999562382872076
2025/04/09 09:49:55.856030828,1744184995,855219829,piren,-479.56924040694025,-300.01162500736336,2.334878484677063,-0.000357247106214615,0.000508025820604623,-0.003898944964621525,0.9999922062258453
2025/04/09 09:49:55.968704034,1744184995,967220615,piren,-479.5481380889453,-300.01157029627046,2.336053443303509,0.02908356107198178,0.0004906374101274176,-0.0045478503266104765,0.9995665174502951
2025/04/09 09:49:56.81808526,1744184996,80499276,piren,-479.5272870830805,-300.06140654923695,2.3143056363276755,-0.025387014657901243,0.0008932932533563753,-0.005060492738340493,0.9996644901801646
2025/04/09 09:49:56.139522032,1744184996,139147932,piren,-479.5166276986532,-300.00828558805864,2.335993672592265,0.0024793735349728486,0.0005809705496791459,-0.004606900618762047,0.9999861457274213
2025/04/09 09:49:56.200000866,1744184996,196698477,piren,-479.50637647466425,-300.0173412575463,2.333020462171309,0.0293428139067432,0.00047766122197740666,-0.004616325608865563,0.9995586329223836
2025/04/09 09:49:56.256405288,1744184996,255246699,piren,-479.4958812478039,-300.0683163044562,2.310541452132258,-0.02902321018589054,0.0002608913767967144,-0.004589410496718585,0.9995681680193141
2025/04/09 09:49:56.313346933,1744184996,312985729,piren,-479.475226899191,-300.0087970002846,2.3346016768071753,0.005937702932401099,0.0007770366978572899,-0.005349267233701195,0.9999677620993186
2025/04/09 09:49:56.394903279,1744184996,394134992,piren,-479.4627243489996,-300.02308028274956,2.329594896621254,0.012948605906020228,0.0007447879332867897,-0.004529649231957799,0.9999056261337169
2025/04/09 09:49:56.454376938,1744184996,453045972,piren,-479.4375732510892,-300.04421140780846,2.321241715908323,-0.029713075349160532,0.0008310938875510708,-0.0044975264757926925,0.9995480051962711
2025/04/09 09:49:56.568604916,1744184996,567201880,piren,-479.41110868016403,-299.98944374443226,2.343219397568892,0.03252516693917695,0.0005683249479286349,-0.0061774979398310755,0.9994516641846847
2025/04/09 09:49:56.682720972,1744184996,682312775,piren,-479.384597724796,-300.0505797766012,2.3166864217998038,-0.025600924609168494,0.0009090893618835083,-0.006725683845682117,0.9996492041673899
2025/04/09 09:49:56.742651521,1744184996,741298427,piren,-479.3704605302003,-300.0014739441764,2.3374751281764667,-0.027881518549648907,0.0007897031398813597,-0.006078809339699091,0.9995924396319373
2025/04/09 09:49:56.801727781,1744184996,801298128,piren,-479.34490362883037,-299.96126771170447,2.3543876645751554,-0.026163795480732884,0.0006005325926069987,-0.006561138372571867,0.9996359570513176
2025/04/09 09:49:56.914888399,1744184996,914560580,piren,-479.31760903795873,-299.9335700252159,2.3664176905517467,0.03024170400578787,0.00029546880077716215,-0.0060290773202190265,0.9995243880284668
2025/04/09 09:49:57.28862010,1744184997,28407072,piren,-479.2909104141418,-300.0086094848601,2.335073048832354,-0.028581623103804858,0.0005171037426285308,-0.0062371704367647565,0.9995718689165949
2025/04/09 09:49:57.86999989,1744184997,86652667,piren,-479.27644755683946,-299.97017008161504,2.351442646440864,0.013875252656788944,0.0004874656130973284,-0.006257724580936851,0.9998840335879233
2025/04/09 09:49:57.147644920,1744184997,145353725,piren,-479.26249569851774,-300.014346197557,2.33442650115779,0.032670185336560895,-5.421716026940228e-05,-0.006914753744550102,0.9994422655817726
2025/04/09 09:49:57.203773290,1744184997,203482842,piren,-479.2510833765332,-300.07690511893105,2.3075732332574344,-0.0054458353991462885,0.0001279657022853488,-0.00748300753288987,0.9999571646324893
2025/04/09 09:49:57.261415239,1744184997,260982712,piren,-479.2255085448866,-300.06414438489105,2.3144881567907754,9.827553028529249e-05,-0.0003320838525527328,-0.007483519737583617,0.9999719381035511
2025/04/09 09:49:57.373169243,1744184997,372770092,piren,-479.2001542749817,-300.06037486451334,2.317197283503305,0.0006683686279869362,0.000649213801606714,-0.008148078204203808,0.9999663697477007
2025/04/09 09:49:57.485506534,1744184997,485140828,piren,-479.1751904532696,-300.0558572633325,2.319733806309753,-0.027813494796325184,0.001068529194201719,-0.008858847043888951,0.9995733032557587
2025/04/09 09:49:57.544716467,1744184997,544335334,piren,-479.16118633768707,-300.00159794279864,2.341110055415693,0.0021426154249972796,0.0008413371938122326,-0.00844984869553956,0.9999616499685823
2025/04/09 09:49:57.602958230,1744184997,602566596,piren,-479.14824959640896,-300.0133604135082,2.336698584160665,0.0015967335831648273,0.0008552701176439568,-0.009004127097923724,0.9999578214355318
2025/04/09 09:49:57.662108583,1744184997,661831249,piren,-479.1223822430782,-300.01984865205384,2.3344492397423737,-0.013911297048820766,0.0009420926904626813,-0.008990867176344688,0.9998623668201537
2025/04/09 09:49:57.779565065,1744184997,778302001,piren,-479.0946145675282,-299.9995949936861,2.342953963000005,0.026768988430269362,0.001013655450025489,-0.009976286822944722,0.9995913502338218
2025/04/09 09:49:57.893936232,1744184997,892587129,piren,-479.066948437223,-300.05220911353354,2.320048393501702,-0.02984214174628539,0.0008298607009746517,-0.010765873995528988,0.999496300075355
2025/04/09 09:49:57.950923600,1744184997,950508210,piren,-479.05347327679925,-299.9971145461761,2.342098750698642,0.0007066058127240271,0.0005351811515629305,-0.009752887038937702,0.9999520465921184
2025/04/09 09:49:58.11065607,1744184998,10705310,piren,-479.0256773024072,-300.0080528923714,2.3387130423022784,0.0014787037843588613,-0.00022115587193825915,-0.010564158823812307,0.999943079916824
2025/04/09 09:49:58.123848647,1744184998,123430900,piren,-479.00045507451557,-300.0193897173166,2.335103108857342,0.029449632319431544,0.00018403278164504967,-0.009682504761526068,0.9995193516834622
2025/04/09 09:49:58.182727789,1744184998,181536288,piren,-478.98708066576324,-300.0198320669619,2.3350910494932187,0.03306303723495636,0.0003080074700437324,-0.009692546829346968,0.999406221331526
2025/04/09 09:49:58.241862181,1744184998,240759761,piren,-478.97040805745496,-300.08097022245715,2.3082260085119617,0.02176336062286517,8.045006874913353e-05,-0.01071107601569813,0.9997057679701421
2025/04/09 09:49:58.302795774,1744184998,299234722,piren,-478.9549986456504,-300.10605104771275,2.2980651317687126,0.0022077926189880766,0.00021380326365580784,-0.011686512998383152,0.9999292501741585
2025/04/09 09:49:58.357326221,1744184998,356871304,piren,-478.9251521023592,-300.09689476927895,2.3031191553895156,0.00028877816705683587,0.0003347210194519697,-0.011686078053897209,0.9999316177362968
2025/04/09 09:49:58.471555763,1744184998,469988114,piren,-478.8933825284404,-300.08377115621573,2.3095250379023327,0.0004821582534587718,0.0002563102310651342,-0.012961985039600101,0.9999158408447769
2025/04/09 09:49:58.585714563,1744184998,584130582,piren,-478.8625919590214,-300.0717833407481,2.3150940545908694,-0.00044591713497499824,0.0006349713304585816,-0.013847974706355324,0.9999038111567784
2025/04/09 09:49:58.644770734,1744184998,644114821,piren,-478.84842580754787,-300.0589234912216,2.320606850951421,0.003075975057204468,0.0007401996998637185,-0.012783000304707262,0.9999132889331264
2025/04/09 09:49:58.703154141,1744184998,702176607,piren,-478.83361786462115,-300.05545219567585,2.3220617992957666,-0.02191071852891113,0.001092279095389687,-0.013514689685223217,0.9996679851343829
2025/04/09 09:49:58.761779917,1744184998,761373880,piren,-478.8035975908824,-300.01008876368974,2.340139051654126,-0.02455255219316093,0.001052364730465706,-0.013519375857103411,0.9996065681985641
2025/04/09 09:49:58.877083749,1744184998,875786238,piren,-478.7727158351013,-299.97008689795143,2.355822341598266,0.02860106144108329,0.0003543459650810299,-0.015129854446319408,0.9994763335006056
2025/04/09 09:49:59.15301577,1744184999,14913842,piren,-478.73037713702877,-300.02372937931085,2.332086731546283,-0.02548001856533713,0.0009093274218418195,-0.017017379939852872,0.9995300648592481
2025/04/09 09:49:59.131342229,1744184999,130032511,piren,-478.70551626701604,-299.98487416551234,2.3478394274799412,-0.004745573022729288,0.000566149534315943,-0.01388035722507481,0.9998922415414049
2025/04/09 09:49:59.189398122,1744184999,188999721,piren,-478.6909046302412,-299.99254932008927,2.3457038209723007,0.02509033291724397,7.008464054149702e-05,-0.01389206332773599,0.9995886558273575
2025/04/09 09:49:59.248740951,1744184999,248214534,piren,-478.6773850217289,-300.0479971859619,2.3221355237494885,-0.0007269975527362826,0.0003873788978549665,-0.015336317396048588,0.9998820524346237
2025/04/09 09:49:59.307482060,1744184999,307173875,piren,-478.64830946802255,-300.0474246553339,2.323405510413424,0.005570983066715835,0.00042346653131385056,-0.016986775110871887,0.9998401043642428
2025/04/09 09:49:59.421682001,1744184999,421319503,piren,-478.6192778795575,-300.0566959130791,2.3203942893684757,-0.003291134512248493,0.0003545495772554212,-0.01553652698940961,0.9998738215681652
2025/04/09 09:49:59.536538247,1744184999,536183871,piren,-478.58745229539875,-300.0485338322365,2.3245851978605003,-0.009394774922450793,0.0006288757833045617,-0.016038703485203053,0.9998270363967557
2025/04/09 09:49:59.594866479,1744184999,594511769,piren,-478.57030555481685,-300.0298909596555,2.3326955094146897,0.030624930064230536,6.042267866307938e-05,-0.016052762900620222,0.9994020306217701
2025/04/09 09:49:59.656729707,1744184999,655584499,piren,-478.53942127309034,-300.0825275175328,2.3093099651113604,0.0021338096340490784,0.0004375718938512174,-0.019749115881296145,0.9998025944201138
2025/04/09 09:49:59.771881114,1744184999,771490732,piren,-478.50601050546686,-300.0769139407643,2.312349131735826,-0.0016995760910489923,0.0006110208002994081,-0.021113740429704108,0.9997754488182631
2025/04/09 09:49:59.888902644,1744184999,888563887,piren,-478.4746502467015,-300.06381871927874,2.318296201529013,0.03142984340597234,-0.0008981500809689709,-0.02103974985018022,0.9992840873326013
2025/04/09 09:49:59.948279999,1744184999,947992472,piren,-478.46307748044404,-300.1068388185406,2.298514533346036,0.0052834141984260076,0.0005630969467005122,-0.02004360775434423,0.9997849880071348
2025/04/09 09:50:00.10072820,1744185000,8689076,piren,-478.43044976576016,-300.09798485700577,2.302768184429884,-0.03103340142730396,0.0014816524277983583,-0.02171925457223425,0.9992812450370323
2025/04/09 09:50:00.124813485,1744185000,124277376,piren,-478.39628277564464,-300.02769711807076,2.3307690168082167,0.02605206307587307,0.00035831175886065047,-0.019869227237590652,0.9994630435544655
2025/04/09 09:50:00.184679325,1744185000,183863771,piren,-478.3812848463601,-300.07075480427545,2.3123083165353937,0.03120401280169769,0.00022442383720746965,-0.019870347779645522,0.9993154799652254
2025/04/09 09:50:00.244206285,1744185000,243787620,piren,-478.366287442509,-300.11017099693265,2.2949376852333456,0.005133131065975064,0.0006659677447383344,-0.021745421420102638,0.9997501408350412
2025/04/09 09:50:00.304373340,1744185000,304033018,piren,-478.33517431944495,-300.0977095345689,2.301323170553628,-0.03119236577498798,0.0014691463376981175,-0.024051397130192054,0.9992229021707236
2025/04/09 09:50:00.420493648,1744185000,420139401,piren,-478.3028120217874,-300.01825811287296,2.333545485420992,0.01753696692587892,0.00031357811361803264,-0.02201725343844926,0.9996037199864927
2025/04/09 09:50:00.538181569,1744185000,536150113,piren,-478.2730008619554,-300.04869323391927,2.3216050781781616,3.0248878132725097e-05,0.000640332294127035,-0.02272853649037486,0.9997414679248652
2025/04/09 09:50:00.595187474,1744185000,594820706,piren,-478.25876677397343,-300.04375136778606,2.3250074998435104,0.001501741989231164,0.0006411149308062398,-0.022729644819891,0.9997403147762947
2025/04/09 09:50:00.656727225,1744185000,655333042,piren,-478.2435520011017,-300.04284050816847,2.326358858435446,0.02938635949729019,-0.00024271552590167844,-0.024628642659618373,0.9992646360826617
2025/04/09 09:50:00.715979326,1744185000,714671747,piren,-478.21745880891956,-300.087374593724,2.3067884834748154,0.028063811326497583,-0.0003910926548389272,-0.02676541767600942,0.9992476579692319
2025/04/09 09:50:00.832491057,1744185000,832007375,piren,-478.1892220701212,-300.1202516420583,2.292341816655717,-0.009891630140143463,0.000696243316084088,-0.02478067505058009,0.9996437310574469
2025/04/09 09:50:00.892727687,1744185000,891501575,piren,-478.1700479188283,-300.07780249178217,2.3109765906619906,0.026271262252947066,-0.00036077885732074783,-0.02478339364628627,0.9993475241464435
2025/04/09 09:50:00.952841827,1744185000,951663886,piren,-478.13824523711247,-300.10767567482065,2.297829173196473,0.01601025533373502,0.00018878919960598498,-0.029269698748732923,0.9994433054545642
2025/04/09 09:50:01.69933777,1744185001,69690265,piren,-478.1037903365133,-300.11366824213053,2.2955529462762656,0.002680255299319864,0.0004155342001427585,-0.030372867790409444,0.9995349581005385
2025/04/09 09:50:01.186990415,1744185001,186591323,piren,-478.067663161734,-300.09484358554005,2.303990599455875,0.0018219120389390351,0.0007011009115848041,-0.03098072435367951,0.9995180757808013
2025/04/09 09:50:01.247364052,1744185001,246968956,piren,-478.05182990369224,-300.0766096239898,2.3119033443394534,0.031585873398078314,-6.937034965446296e-05,-0.028682067482421088,0.9990894188181403
2025/04/09 09:50:01.308058734,1744185001,307690710,piren,-478.0199924256793,-300.1118100057267,2.29540972167965,-0.024941860916791823,0.0015846604770986255,-0.030058482697685362,0.9992356479044834
2025/04/09 09:50:01.424381141,1744185001,423958641,piren,-477.982658453297,-300.0452444195239,2.322608787355768,-0.027788244591698253,0.0015394270099134515,-0.027962986959732122,0.9992214544270369
2025/04/09 09:50:01.564799105,1744185001,564461212,piren,-477.9278349688064,-299.98422945477387,2.347309018604529,-0.0014098647976416717,0.0007943824029109504,-0.028810177760133306,0.9995835907493079
2025/04/09 09:50:01.682904139,1744185001,682444371,piren,-477.8951471401138,-299.98801228371946,2.3468025758857576,0.0010741444018971728,0.00035960860363393036,-0.030997944830908772,0.9995188063822091
2025/04/09 09:50:01.743735086,1744185001,743343879,piren,-477.8800851076049,-300.0012880432326,2.342084409700505,-0.03004933874988834,0.0012321245613043394,-0.030219975267790054,0.9990907227096917
2025/04/09 09:50:01.805115118,1744185001,804804215,piren,-477.8442460695213,-299.9551155260542,2.3602986349353325,-0.01944478628906755,0.0009542255021643567,-0.031242969673948906,0.9993222035889208
2025/04/09 09:50:01.923616350,1744185001,921753686,piren,-477.81079590676745,-299.93839634111623,2.367364422828976,0.0006796399189386638,0.000364006250132492,-0.02972851439927839,0.9995577127012939
2025/04/09 09:50:02.40348567,1744185002,39911088,piren,-477.7786163377805,-299.96194095988534,2.3582501607011466,0.004360048161485001,0.00023881468742851253,-0.029992171777763654,0.9995405957636877
2025/04/09 09:50:02.102080543,1744185002,100058783,piren,-477.76358960648514,-299.99183734913083,2.346206410467459,0.009237950810268642,5.047195996200687e-05,-0.029983910570544333,0.999507690227697
2025/04/09 09:50:02.161641551,1744185002,160533813,piren,-477.7313948721229,-300.020850879066,2.334176230019692,0.031083319314755158,-0.0007527059887844375,-0.02996671161504994,0.9990671933804312
2025/04/09 09:50:02.280040557,1744185002,278496891,piren,-477.700326199396,-300.0793637030113,2.3078409572473153,0.015940123467407225,-0.00021642972192858912,-0.03214330670649364,0.999356129443349
2025/04/09 09:50:02.395793343,1744185002,395462200,piren,-477.6665109041062,-300.0991946799111,2.2993484171536283,0.0026395831819752066,0.0004384609461570777,-0.0324898113837532,0.9994684850003387
2025/04/09 09:50:02.456532650,1744185002,456056978,piren,-477.64835506170334,-300.0842151136232,2.3060055388277663,0.0012899046164853826,0.0004364900734102876,-0.03157208969386682,0.9995005496621093
2025/04/09 09:50:02.517469300,1744185002,517181881,piren,-477.61424447936685,-300.07365017126045,2.3106274489623404,0.019498003446189936,-9.059915505771083e-06,-0.03212874849422609,0.9992935361042445
2025/04/09 09:50:02.636112287,1744185002,634818905,piren,-477.5785144015962,-300.09472110711914,2.301180869498919,-0.028020733321585826,0.0013977818025710527,-0.031174760506235587,0.999120122416485
2025/04/09 09:50:02.697103056,1744185002,695870282,piren,-477.5543339760598,-300.02688971253525,2.328428409564572,-0.027748715720901113,0.0014250125786885442,-0.03115424905971329,0.9991283155233449
2025/04/09 09:50:02.760022294,1744185002,759640841,piren,-477.5136320603658,-299.9770106635311,2.3484374040896485,0.0247841775796871,-0.00036576424159763776,-0.031187658222972058,0.9992061552716662
2025/04/09 09:50:02.879728567,1744185002,879316452,piren,-477.4798247645687,-300.0269273927368,2.3272227850635847,-0.0033890997677155964,0.0005572179474845903,-0.03227327069979757,0.9994731809854935
2025/04/09 09:50:02.943156113,1744185002,942192199,piren,-477.4615897666236,-300.0218576326531,2.3305602396959166,-0.007202609349761696,0.00039989143350859944,-0.031986195894193784,0.9994622783165027
2025/04/09 09:50:03.5264214,1744185003,4883280,piren,-477.42594047981095,-300.0099158199549,2.336403908281349,-0.03000270058229748,0.0009526132567456149,-0.03227220188530326,0.999028245582289
2025/04/09 09:50:03.126471606,1744185003,126159773,piren,-477.38864951272484,-299.9579252330421,2.35700816409296,0.025898534355146614,-0.0008308542072663128,-0.031629934229244344,0.9991637117410717
2025/04/09 09:50:03.249308709,1744185003,247181945,piren,-477.3647845345799,-300.06829395116984,2.310113834242057,0.003343817794864461,0.00035029385742183666,-0.03165050445479161,0.9994933425213623
2025/04/09 09:50:03.308794683,1744185003,308479377,piren,-477.3321092470963,-300.0673112835034,2.311412754093112,-0.004857950231626321,0.0008999198587396038,-0.03164046668834226,0.9994871041346851
2025/04/09 09:50:03.427496819,1744185003,426305393,piren,-477.3010801336584,-300.05000451651665,2.3192108984327633,-0.00439164605172877,0.00021453096005090417,-0.03159550678353383,0.9994910661794408
2025/04/09 09:50:03.486942003,1744185003,486562133,piren,-477.28564040576947,-300.0351875888372,2.325686140853103,-0.014032053411957752,4.4191285610292975e-05,-0.031601486665519755,0.9994020440066667
2025/04/09 09:50:03.549619959,1744185003,548455788,piren,-477.2533415509866,-300.00485178128844,2.3381349375470415,-0.009139786514882254,0.0007165931319619451,-0.03165573898226433,0.9994567849518219
2025/04/09 09:50:03.667261058,1744185003,666917974,piren,-477.2210888042947,-299.99047125223234,2.3439915601227552,-0.01980729726923534,0.0014657434396817774,-0.031725822774263036,0.9992992518461891
2025/04/09 09:50:03.787345583,1744185003,786856401,piren,-477.1876371829875,-299.949363019291,2.3597431438500327,0.01750077548492151,-0.00029789561393208443,-0.03152926228135243,0.9993495583306291
2025/04/09 09:50:03.849548516,1744185003,849207531,piren,-477.1762580076085,-300.00004470377803,2.338181431621878,-0.0044835599164094455,0.00026418517005369536,-0.03133638210091307,0.9994988039279974
2025/04/09 09:50:03.910860742,1744185003,910429790,piren,-477.1460792016636,-299.9996646662933,2.338610621178926,0.007709929078124801,-0.0002827226334650952,-0.031155939691414593,0.9994847595053502
2025/04/09 09:50:04.31408386,1744185004,31038238,piren,-477.11694638058833,-300.02016323672433,2.3302628643162704,-0.032849692825770944,0.0009583239151936501,-0.031153918087322343,0.998974180189025
2025/04/09 09:50:04.93426598,1744185004,92243624,piren,-477.0994524030323,-299.9668105403842,2.350917142558105,-0.008077598019269577,0.00025219989606780485,-0.03116644805398215,0.9994815362582492
2025/04/09 09:50:04.156615988,1744185004,154330877,piren,-477.08494658351617,-299.97094706769815,2.3500055140615674,0.02382032641383708,-0.0004747783614509001,-0.03084129397989094,0.9992403020398506
2025/04/09 09:50:04.218541415,1744185004,216376352,piren,-477.05805090795667,-300.0252948325026,2.326842338950668,-0.00704931743006775,0.0009459024458950706,-0.03046476954008658,0.9995105353167631
2025/04/09 09:50:04.301460393,1744185004,301134563,piren,-477.02822693492254,-300.01694007456047,2.331228011125405,0.027523885225693035,-0.0012035461513915959,-0.030696823043405166,0.9991489840227964
2025/04/09 09:50:04.422037905,1744185004,421638308,piren,-477.0031141348082,-300.07382885886216,2.3064620869734003,-0.007453312480322999,8.091855181341508e-05,-0.030474641022766,0.999507747763764
2025/04/09 09:50:04.542964671,1744185004,542428360,piren,-476.9746433878514,-300.0290977107853,2.326529552263925,0.024096918212271723,-0.0008027325584369848,-0.030292668196265055,0.9992502431356531
2025/04/09 09:50:04.604939922,1744185004,604554300,piren,-476.9505435388613,-300.06810437114694,2.3093858069516044,-0.006529650940547395,0.00028117614652730625,-0.03013963896340923,0.9995243302500069
2025/04/09 09:50:04.726492909,1744185004,726093631,piren,-476.9239680701989,-300.04700453334203,2.318473318881983,0.009132884253912269,-0.00014366835095058867,-0.02997673051959927,0.9995088620977629
2025/04/09 09:50:04.788795881,1744185004,787465132,piren,-476.91350331396205,-300.0538883230331,2.315625985252774,0.01789622762784659,0.0003858645341175611,-0.029986258475286114,0.9993900141826048
2025/04/09 09:50:04.851214929,1744185004,850904428,piren,-476.902331230435,-300.073036556385,2.3071036306248596,-0.008194548833053303,0.0012964750016221866,-0.0295438597009202,0.9995290535426998
2025/04/09 09:50:04.915583988,1744185004,915062574,piren,-476.87592195621835,-300.04534137146595,2.3186937703276973,-0.028555550547487568,0.0008761678513821054,-0.02891702164103926,0.9991734677833664
2025/04/09 09:50:05.40371185,1744185005,39843666,piren,-476.8506359842328,-299.98755859260643,2.3413214476755915,0.025865284390642316,-0.0006653752526248956,-0.02939259415692738,0.9992330157415189
2025/04/09 09:50:05.106257100,1744185005,104391203,piren,-476.8448638846785,-300.0375913007301,2.319518880579402,-0.003935240726388953,0.000254170022425648,-0.02935928027934555,0.9995611446727528
2025/04/09 09:50:05.168807518,1744185005,167862005,piren,-476.8230011064173,-300.0240313719233,2.325711967747724,0.0026157000463052408,0.000446498872009457,-0.029361759269124838,0.9995653284526466
2025/04/09 09:50:05.292590202,1744185005,292089802,piren,-476.80169272143974,-300.02446694665866,2.326057904660937,-0.004656451897396928,0.001038275488073315,-0.028209161897555873,0.9995906575317597
2025/04/09 09:50:05.359064897,1744185005,356695269,piren,-476.7798934451219,-300.0133965433023,2.331218997242296,-0.0064641938973426785,-5.469985332194497e-05,-0.027673071381467046,0.9995961246050826
2025/04/09 09:50:05.482327731,1744185005,481865905,piren,-476.75874455412594,-300.0017558135946,2.3364294955370153,0.014018182553326044,-0.0006216480881678229,-0.02753098910765276,0.9995224603530981
2025/04/09 09:50:05.546547382,1744185005,546076622,piren,-476.7501723168418,-300.02941509342185,2.3247747205354248,-0.005780873075741577,-2.2368156126156586e-05,-0.02791632966472962,0.9995935471701475
2025/04/09 09:50:05.611683524,1744185005,611327351,piren,-476.72884392185796,-300.0164659328166,2.3304263171824564,-0.01734194197841912,0.0002208164139362455,-0.027388964795249274,0.9994743883141644
2025/04/09 09:50:05.742705519,1744185005,742062254,piren,-476.706651308987,-299.98631346057863,2.34259993769459,-0.007528872182484838,0.0001360504731561145,-0.028078406785983723,0.9995773610112874
2025/04/09 09:50:05.807860736,1744185005,806249685,piren,-476.69730988704305,-299.9821653950212,2.3443685170460205,-0.03180364169797869,0.0008377532840380817,-0.02804923990915544,0.9991001284579542
2025/04/09 09:50:05.871293417,1744185005,870479998,piren,-476.67544934043593,-299.9350676607168,2.3620757847861866,-0.03571590844166015,0.001050283438533874,-0.02805098350406359,0.9989676737078835
2025/04/09 09:50:05.995441311,1744185005,994951967,piren,-476.65571206241333,-299.89290202052626,2.3774774001464256,-0.00046740443722016127,0.00037527936794638246,-0.026827588964026174,0.9996398957468962
2025/04/09 09:50:06.62417123,1744185006,60725926,piren,-476.63825726325587,-299.920896158952,2.366396609748801,-0.036618087986976855,0.0012568504033095129,-0.026470932418153528,0.9989778904941568
2025/04/09 09:50:06.183628011,1744185006,182385110,piren,-476.6199797393139,-299.8845863366034,2.3794815233075983,0.02489539876069451,-0.0008143406357848823,-0.02627753927035378,0.9993443084842031
2025/04/09 09:50:06.246814487,1744185006,246373801,piren,-476.61781868347566,-299.9665331024071,2.345214555531067,0.026557425320081825,-0.0008179313031727939,-0.026746890424570097,0.999289066287312
2025/04/09 09:50:06.309502457,1744185006,308997997,piren,-476.6067936499084,-300.0292743807319,2.3185379234408305,-0.004521425964672571,0.0008119681399643872,-0.026301085401930838,0.9996435116188501
2025/04/09 09:50:06.432106364,1744185006,431690080,piren,-476.5915469043246,-300.02648922402346,2.320922361301701,-0.03495702279705796,0.0018903868621499194,-0.026758942683501426,0.9990287243023288
2025/04/09 09:50:06.495566627,1744185006,495200108,piren,-476.58195939385035,-299.9662416284322,2.344948438666759,-0.007917265669987477,-0.0008482331381433892,-0.026815247043273413,0.9996086934050056
2025/04/09 09:50:06.559083566,1744185006,557613990,piren,-476.57157227428047,-299.96807545048694,2.3453803941946525,0.022973985307561045,-0.0015936577997068837,-0.025085905962028938,0.9994200085929688
2025/04/09 09:50:06.682123508,1744185006,680731403,piren,-476.5635054079415,-300.0212409203526,2.323168318251297,0.0002659274088601385,-0.0008359486320629074,-0.025252210613586207,0.9996807271982515
2025/04/09 09:50:06.748621256,1744185006,747079663,piren,-476.5579396222285,-300.0221465686766,2.323928704419061,0.009066034779302002,0.0002086001001253637,-0.025873162126243503,0.9996241008403949
2025/04/09 09:50:06.813970941,1744185006,812516017,piren,-476.5453249597767,-300.0393646030419,2.3173968834136565,0.023079466382038307,-0.00047588846321597,-0.02564332238031596,0.9994045886321467
2025/04/09 09:50:06.942027146,1744185006,941703390,piren,-476.5328794380489,-300.0753058287978,2.3019123669142676,-0.006894463018413275,-0.0005718577144243321,-0.026057587978573684,0.9996365046691628
2025/04/09 09:50:07.34730270,1744185007,33363607,piren,-476.51950065639477,-300.0517310621932,2.3122665298577,-0.003194837714158238,0.0003857604464156258,-0.025996261553993906,0.9996568604206518
2025/04/09 09:50:07.99193047,1744185007,97624062,piren,-476.51130414685537,-300.0343969658758,2.319911777851834,0.005936852672196182,6.465967466094501e-05,-0.025997948440686914,0.9996443649000132
2025/04/09 09:50:07.162399902,1744185007,162004968,piren,-476.497900740218,-300.03803914333895,2.318663961827489,0.029144996185247175,-0.0005191425465446236,-0.025247049728363814,0.9992561664400135
2025/04/09 09:50:07.287430051,1744185007,287044569,piren,-476.4869912652572,-300.07877290583747,2.3001843693224813,-0.0009179526214767816,0.0004922908360057151,-0.025167409674409672,0.9996827079143652
2025/04/09 09:50:07.351905818,1744185007,350547833,piren,-476.47882721367336,-300.0568983837195,2.309955210875492,-0.020872654271204633,0.0007662353884129843,-0.025457992429111724,0.999457670843785
2025/04/09 09:50:07.414823676,1744185007,414486346,piren,-476.4641558489739,-300.00900366793667,2.329665799326913,-0.03835137868907384,0.0007363717853970276,-0.0251645299740295,0.9989471337064976
2025/04/09 09:50:07.538531705,1744185007,538218710,piren,-476.45027113027163,-299.9408253156775,2.3559450661690344,-0.0025500912688398497,0.0028266982248911607,-0.025523328378523526,0.999666977808184
2025/04/09 09:50:07.602306776,1744185007,602014365,piren,-476.4423723684024,-299.9561259962121,2.3509429853891715,0.018918552217041053,-0.0002913564187842977,-0.025531979580644574,0.9994949332098397
2025/04/09 09:50:07.667219789,1744185007,665824931,piren,-476.4366153870159,-299.99964180384757,2.3329865197966733,-0.03294754660137311,0.0007745358544220897,-0.025297750772884306,0.9991365687797608
2025/04/09 09:50:07.792487884,1744185007,792002410,piren,-476.42590692569956,-299.94747142742466,2.353683954857503,0.01509717595689254,0.001993506713180911,-0.02534598868829111,0.9995627454374859
2025/04/09 09:50:07.858786026,1744185007,856671573,piren,-476.41645253660386,-299.98815763543587,2.3375476498935996,-0.003433129203128269,-0.00297411004787724,-0.024336019139071588,0.9996935162667409
2025/04/09 09:50:07.984926159,1744185007,984567962,piren,-476.4148936547451,-299.99055678460155,2.33743808550754,-0.0007717272583436787,0.00023061504093398207,-0.02327715186365375,0.9997287259326192
2025/04/09 09:50:08.51589019,1744185008,50307506,piren,-476.4103982179593,-299.99722128438503,2.3354083173783047,0.028217782068493746,-0.0007421594924263584,-0.023843893629127175,0.9993171041821639
2025/04/09 09:50:08.115046253,1744185008,113936783,piren,-476.404957337818,-300.04983682944214,2.3122034437931087,-0.03252492682016156,-4.393007611173722e-05,-0.02346387356258478,0.9991954632817999
2025/04/09 09:50:08.239382742,1744185008,238182999,piren,-476.3947995195037,-299.9883492254033,2.336224871052421,-0.0005627193913411758,-0.00012385829555165047,-0.024147561374100655,0.9997082390806297
2025/04/09 09:50:08.306467019,1744185008,302551756,piren,-476.3910507782526,-299.99363337834114,2.33476666620159,0.0032817494262596812,0.00033439428624191397,-0.024147875821582187,0.9997029550793926
2025/04/09 09:50:08.366437258,1744185008,366107809,piren,-476.38194933035606,-300.0028119668474,2.3312294495287547,-0.029438674018187574,0.0003663781903588538,-0.024069841035771134,0.9992766748961898
2025/04/09 09:50:08.490788694,1744185008,490494211,piren,-476.3717632320799,-299.9546833239833,2.3498754165772726,-0.003109776508500514,0.003071594484296258,-0.024060466336692937,0.9997009495629441
2025/04/09 09:50:08.555839185,1744185008,555417846,piren,-476.3575960474063,-299.9620057865287,2.347505087657585,-0.02203318936813651,0.0008919013662394264,-0.023261924153536243,0.9994861809764535
2025/04/09 09:50:08.682671372,1744185008,682200086,piren,-476.34740878669373,-299.9376221479272,2.3575167224614124,-0.027789179462755907,0.0014957566894229497,-0.0225835309477352,0.9993575478009087
2025/04/09 09:50:08.747761885,1744185008,747379757,piren,-476.3404386868725,-299.9133253470138,2.367206732607212,-0.0361153099874523,0.0008778925237732336,-0.022955665746289655,0.99908355561453
2025/04/09 09:50:08.812670019,1744185008,812365259,piren,-476.330515951696,-299.8778082237615,2.3808163502017368,0.00037004170774699896,-2.1606532996821466e-05,-0.022502148427425397,0.9997467258853326
2025/04/09 09:50:08.939454809,1744185008,938276740,piren,-476.32433498455583,-299.91483427715133,2.3671558767710943,-0.022680244532483917,0.00023337649889525452,-0.023084048375834602,0.999476202194899
2025/04/09 09:50:09.3814955,1744185009,3363572,piren,-476.32185337424977,-299.9100134352062,2.36974039720253,0.000268530860299671,0.0004144696182052231,-0.022952796088706928,0.9997364278937839
2025/04/09 09:50:09.68228948,1744185009,67075252,piren,-476.3155257055595,-299.94363890337644,2.3572546529454823,-0.005641998923180757,0.0022662964510998217,-0.022938694065575332,0.999718384377877
2025/04/09 09:50:09.193641603,1744185009,193274519,piren,-476.3063137346581,-299.9611304477526,2.351140995922322,0.030917849525404942,-0.0037340816176828816,-0.020611902994533356,0.9993024030142932
2025/04/09 09:50:09.259445793,1744185009,257704831,piren,-476.30802622062095,-300.03422804315636,2.319195021337168,-0.029593071276890957,-0.001899534058826269,-0.019928095423357817,0.9993615526502697
2025/04/09 09:50:09.387459683,1744185009,386022188,piren,-476.3035473990604,-299.9887988191396,2.336896944194453,-0.0038314923508996103,-0.000617942710450176,-0.019932187903843813,0.9997938015903767
2025/04/09 09:50:09.454454470,1744185009,453177768,piren,-476.29592591593666,-299.99302108215653,2.335401709940272,0.013693852220124791,-0.0021200449590685054,-0.020617887334363174,0.9996913956529847
2025/04/09 09:50:09.584912284,1744185009,582654015,piren,-476.29287817214475,-300.0236889932094,2.3219966509207235,0.028266823996546727,-9.885752007547134e-05,-0.021118286850531257,0.9993773035489839
2025/04/09 09:50:09.651101619,1744185009,649733797,piren,-476.2883617642803,-300.06723899450463,2.3021426244216334,0.015744506293520272,0.0008245604661735927,-0.02192059777576069,0.9996353925380815
2025/04/09 09:50:09.719020082,1744185009,718588074,piren,-476.27931694557316,-300.0835472664643,2.295068118193691,0.010460555215940512,0.0009042092369450315,-0.02192906351464816,0.9997043939903438
2025/04/09 09:50:09.806933290,1744185009,806584980,piren,-476.2699852350156,-300.0851726960412,2.2947905502163355,-0.015340856701889624,0.0004825374716605782,-0.022050461034643025,0.9996390360732219
2025/04/09 09:50:09.935371448,1744185009,934964004,piren,-476.26088980626037,-300.0407004936384,2.3140067107746227,-0.0008567799684010892,0.0009240729923231647,-0.02208260250326856,0.9997553554164506
2025/04/09 09:50:10.1283089,1744185010,875982,piren,-476.25504570803685,-300.0292651049615,2.320078134508542,0.001533630153123714,0.0008017258754388263,-0.02215135751573475,0.9997531308149948
2025/04/09 09:50:10.65085073,1744185010,64689089,piren,-476.2460257073108,-300.0263044354855,2.3229560037173154,-0.0025671946571514974,0.0004956085841567442,-0.022145591140695007,0.9997513374218375
2025/04/09 09:50:10.191617275,1744185010,191058200,piren,-476.2374963401241,-300.018699965307,2.327992747983713,-0.015190852300130873,0.001123509924378225,-0.02232984917105606,0.9996346100290062
2025/04/09 09:50:10.256743452,1744185010,256304152,piren,-476.22771999582585,-299.992724815752,2.3402722969249132,0.03401015975274006,-0.000925814548735397,-0.022287260023382438,0.9991725226114181
2025/04/09 09:50:10.382595890,1744185010,382241964,piren,-476.22347500206155,-300.05503621221754,2.313510166392232,0.0030635386457659856,-0.00035569291140619293,-0.02210189481774547,0.9997509662205805
2025/04/09 09:50:10.448781047,1744185010,448378333,piren,-476.22032048490314,-300.0514765090406,2.3164094632755146,-0.008012345475642243,1.272763109434256e-06,-0.022137041489147583,0.9997228384469702
2025/04/09 09:50:10.513561857,1744185010,513187215,piren,-476.21221094361687,-300.0314939537928,2.3257189756499304,-0.0034427781908215084,-0.0023094802959369985,-0.022159883100849608,0.9997458442824597
2025/04/09 09:50:10.641577046,1744185010,640433973,piren,-476.20884551954214,-300.0215433264603,2.33004570553848,-0.02123259569842763,0.0017656354080127748,-0.02224717515533574,0.9995254487050947
2025/04/09 09:50:10.707967979,1744185010,706793200,piren,-476.1965990201639,-299.9825864159048,2.3451973484299042,0.0002413757717773489,0.0009335009910147221,-0.02242144110324303,0.9997481429302535
2025/04/09 09:50:10.835436641,1744185010,834978167,piren,-476.1876940013093,-299.9876943723779,2.3425261293632342,-0.026355052952466557,0.0015577787199344824,-0.02245074594980118,0.999399293833866
2025/04/09 09:50:10.901488840,1744185010,901125294,piren,-476.1770626663872,-299.947639272004,2.357266095618472,-0.028656830961764135,0.001637122513304562,-0.022455944860426694,0.9993356975558968
2025/04/09 09:50:11.33872460,1744185011,33422750,piren,-476.1667574357004,-299.9132034852935,2.3698547726092154,0.0014206554766349538,0.000825331437225887,-0.022509144882642437,0.9997452870419984
2025/04/09 09:50:11.100723139,1744185011,100384680,piren,-476.1640961612208,-299.9457489267235,2.356785337912034,0.022060268588789043,0.00017643251704826233,-0.022521874615225052,0.9995029157462091
2025/04/09 09:50:11.170658523,1744185011,168511478,piren,-476.15852584280833,-300.0016272019565,2.333061556931462,0.0022174739061334905,0.0014709708328848742,-0.02258378101278346,0.9997414125109808
2025/04/09 09:50:11.299496069,1744185011,297997670,piren,-476.1493038532424,-300.01520678596376,2.3287133964381406,-0.03095770629358577,0.0017455957562728913,-0.022499521816099405,0.9992659029680452
2025/04/09 09:50:11.365883304,1744185011,364653261,piren,-476.1380725784874,-299.9701712255351,2.3473586871355323,-0.02676441834160045,-0.003158562721921256,-0.022669093625588724,0.9993797084124542
2025/04/09 09:50:11.493224137,1744185011,492120754,piren,-476.13549212851615,-299.9417863622031,2.359784597931652,-0.002008762666891161,-0.0006225445150468883,-0.022659662222793264,0.9997410249753803
