time,header_stamp_secs,header_stamp_nsecs,header_frame_id,twist_linear_x,twist_linear_y,twist_linear_z,twist_angular_x,twist_angular_y,twist_angular_z
2025/04/09 09:49:46.675039102,1744184986,627028073,piren,0.0001265285015052251,-3.425040867997142e-05,9.277129530869652e-07,-4.4767363402381816e-05,4.406015330180355e-06,9.103532317322412e-06
2025/04/09 09:49:46.841709607,1744184986,838166422,piren,0.0001419102976797768,-3.252220290024399e-05,-4.0733056869041404e-07,-7.704911073641284e-05,4.495311471664672e-06,7.295197365392593e-06
2025/04/09 09:49:46.908350986,1744184986,904214031,piren,0.00018540444302749903,-3.248367261195073e-05,-1.6172246355796194e-06,-7.672501225002396e-05,3.7012421877875823e-06,1.0035896419000306e-05
2025/04/09 09:49:46.965991982,1744184986,963404526,piren,0.0002234496107576598,-2.7592358310092655e-05,-3.558031498001215e-06,-6.603640078414822e-05,1.8532625464719297e-06,0.0
2025/04/09 09:49:47.71513647,1744184987,68686947,piren,0.0002693337919482184,-2.3890350666723513e-05,-5.621701194285125e-06,-4.3567441977228834e-05,-3.4892773440551393e-07,4.5099632437623365e-05
2025/04/09 09:49:47.175104847,1744184987,172919154,piren,0.0002726798989897981,-2.949238091760764e-05,-7.907218406571106e-06,-1.3449866856195914e-05,-1.4244939568103869e-06,4.327023813522727e-05
2025/04/09 09:49:47.381693955,1744184987,277705152,piren,0.00026835282033068155,-3.861330706032151e-05,-9.85927714380236e-06,1.8810537029042876e-05,-2.8001429763535974e-06,4.551972668226141e-05
2025/04/09 09:49:47.441227693,1744184987,438916226,piren,0.0002582834506939145,-2.3065661889366873e-05,-8.780681204483444e-06,5.4013803992700973e-05,-3.9533853822501016e-06,4.0083725080550637e-05
2025/04/09 09:49:47.495098104,1744184987,492959930,piren,0.0002775286190172375,-0.00022059407547177088,-8.934740986296557e-05,6.549679203892846e-05,-3.6703563185179054e-06,1.4639363672748196e-05
2025/04/09 09:49:47.549446247,1744184987,546813390,piren,0.0002469226005815182,-0.00010682019128554075,-4.409034422123054e-05,7.192971513395155e-05,-3.2570361177014703e-06,0.0
2025/04/09 09:49:47.604847303,1744184987,601480831,piren,0.0002222956751666681,-3.765689666552917e-05,-1.690137200979675e-05,7.509610420834389e-05,-2.6889040726983377e-06,6.994263907780655e-06
2025/04/09 09:49:47.666350277,1744184987,657246786,piren,0.00016780246201057543,-2.483611565340526e-05,-2.706397791512223e-06,7.019273524898055e-05,-6.817309444675708e-07,0.0
2025/04/09 09:49:47.771976172,1744184987,769967705,piren,0.00015124494116213846,-1.4290840544807553e-05,4.831354164254002e-06,5.2642354603783554e-05,1.2697264263944722e-06,3.682727422416665e-05
2025/04/09 09:49:47.877834489,1744184987,875704168,piren,0.00013641432869923684,-7.949581867895732e-06,8.806885450469529e-06,2.573957515453053e-05,2.853432881321844e-06,3.5283394694153995e-05
2025/04/09 09:49:47.986475467,1744184987,983476589,piren,0.00011230739874014781,-7.987702337876373e-06,1.2146021393151065e-05,-5.54377752183673e-06,3.5818609489787175e-06,3.333973835635142e-05
2025/04/09 09:49:48.41595888,1744184988,39229267,piren,0.00012072960034863009,4.0787109813130764e-06,1.4548608248661045e-05,-2.1228950402420162e-05,3.4859472452903452e-06,3.317520666083957e-05
2025/04/09 09:49:48.96399650,1744184988,94455358,piren,0.00013132849562686553,1.9552396543341625e-05,1.6869009181747875e-05,-3.55447604450065e-05,3.308583093755451e-06,0.0
2025/04/09 09:49:48.150817121,1744184988,148900025,piren,0.00013951367341184616,1.3207717757078523e-05,1.6304009576246604e-05,-4.8477967837097944e-05,3.030935416295821e-06,3.109542527612224e-05
2025/04/09 09:49:48.206127441,1744184988,203876066,piren,0.0001558032918183637,2.4280531897867498e-05,1.5871844272170412e-05,-5.887172494053602e-05,2.4220411743480652e-06,5.3267247390856065e-06
2025/04/09 09:49:48.261145731,1744184988,257187255,piren,0.00019952307993668748,7.5273145742279514e-06,1.3556030835333124e-05,-6.677240014324867e-05,1.7505332187338999e-06,0.0
2025/04/09 09:49:48.314223642,1744184988,312330485,piren,0.00022600030129075842,4.7293717580297546e-05,1.1125687325958914e-05,-7.288921450156886e-05,4.532188421599196e-07,6.669817469486892e-06
2025/04/09 09:49:48.418063639,1744184988,415358400,piren,0.000266390505612497,1.2285939010590836e-05,6.996413767852253e-06,-6.586441352626217e-05,-6.14699688421918e-07,5.315588773603411e-06
2025/04/09 09:49:48.524786700,1744184988,521179727,piren,0.0002979598102684288,7.119892598249307e-06,3.723126255168289e-06,-4.7106226842312064e-05,-1.7082911497249573e-06,5.2279155258813715e-06
2025/04/09 09:49:48.635288444,1744184988,633110361,piren,0.00031487147484773984,-8.485073157961422e-06,2.0377838473149486e-06,-2.0114539529130703e-05,-2.5208492168814393e-06,4.899687683764299e-06
2025/04/09 09:49:48.690631598,1744184988,688861638,piren,0.00029521028804999175,-2.6132766376655196e-06,1.1870806008016862e-06,-4.835826873171255e-06,-2.6959556290162783e-06,0.0
2025/04/09 09:49:48.747092585,1744184988,745021079,piren,0.00030360087371270153,-4.590327170907228e-06,-8.213159046579e-07,1.0172965144285293e-05,-2.4590882346009925e-06,2.0408990087609593e-05
2025/04/09 09:49:48.805654241,1744184988,799642688,piren,0.000289094446498046,6.619599935485341e-06,-5.803570940645165e-07,2.5105080028782708e-05,-2.467365940824909e-06,4.709415208694796e-06
2025/04/09 09:49:48.855589230,1744184988,853565927,piren,0.00029493730221481047,-1.3891964317470962e-05,-2.2734742147025378e-06,3.833191664068453e-05,-2.594645020870512e-06,0.0
2025/04/09 09:49:48.909960203,1744184988,906958789,piren,0.0002657594660377693,-2.7578372280082544e-06,-1.479648242990357e-06,5.9409544455006334e-05,-1.261941851080328e-06,4.60806281279716e-06
2025/04/09 09:49:49.14561279,1744184989,12064509,piren,0.00022785857108835293,1.0254494102731697e-06,-1.2402256147782744e-06,6.96325100613636e-05,-3.940742482251608e-07,4.463457115323123e-06
2025/04/09 09:49:49.90653668,1744184989,88512884,piren,0.00020194145322427026,2.310745999265363e-05,4.137135314979258e-08,6.964972532750944e-05,1.1185441562672709e-07,5.185685121137457e-06
2025/04/09 09:49:49.144185234,1744184989,142094162,piren,0.00018925194362970466,2.763304573844961e-05,3.1417372055540443e-06,6.696589198036036e-05,3.773744507136513e-07,0.0
2025/04/09 09:49:49.200730936,1744184989,196258825,piren,0.000162115873399733,1.1775391431266501e-05,5.856306276770077e-06,6.165681335516377e-05,9.714720302675626e-07,4.224125644437835e-06
2025/04/09 09:49:49.252475302,1744184989,250031024,piren,0.00014112694175316242,3.965335418153149e-06,4.434258019487651e-06,5.285163634997223e-05,1.462468274354183e-06,0.0
2025/04/09 09:49:49.306858684,1744184989,304700939,piren,0.00011011824594794995,3.3458456075926683e-06,5.38445373182244e-06,2.9190745747704214e-05,2.459543519456522e-06,4.0041659600587425e-06
2025/04/09 09:49:49.411424584,1744184989,409667392,piren,9.849350967676251e-05,1.321840582049062e-05,5.283595461109506e-06,5.168776206805738e-07,2.453936835555127e-06,3.994521641430113e-06
2025/04/09 09:49:49.516300969,1744184989,514626063,piren,9.875997579917416e-05,3.097478386656763e-07,3.934067296158354e-06,-2.800498715850607e-05,2.349819007411004e-06,3.866465670595762e-06
2025/04/09 09:49:49.620282194,1744184989,617903012,piren,0.00011180282222091441,-7.5899058626497245e-06,1.4721299694440621e-06,-5.11713491445197e-05,1.262858179790369e-06,3.750952846188032e-06
2025/04/09 09:49:49.725844297,1744184989,723614354,piren,0.0001464803261115488,-2.8279904108520534e-05,-3.8475228100649094e-07,-6.500401799676792e-05,3.026686301168005e-08,3.573822191164265e-06
2025/04/09 09:49:49.832339238,1744184989,830230148,piren,0.00018515761444183986,-2.831181518532376e-05,-1.1881953566319006e-06,-6.708314789932791e-05,-6.107249748723858e-07,4.196773128191348e-06
2025/04/09 09:49:49.887860711,1744184989,885116134,piren,0.00025326245204275287,-1.5081421406383565e-05,-1.9142559162179176e-06,-6.342933889985058e-05,-1.146179426717112e-06,0.0
2025/04/09 09:49:49.944588590,1744184989,941016091,piren,0.0002740507747603882,-1.294669664249214e-05,-3.555985719343631e-06,-5.717432290243058e-05,-1.8191383356854535e-06,1.783543723965429e-05
2025/04/09 09:49:49.998543816,1744184989,996499734,piren,0.0002867597737350191,-1.1810847854311402e-05,-3.7856936083204357e-06,-4.8053119607970056e-05,-2.341042407393124e-06,3.065247469857763e-06
2025/04/09 09:49:50.54553875,1744184990,52221766,piren,0.0002933435703199105,-1.1798620334692356e-05,-5.313534457356447e-06,-3.71117667021988e-05,-2.1866017511506283e-06,0.0
2025/04/09 09:49:50.111031296,1744184990,108727996,piren,0.0002889209816203841,-1.9015112411315025e-05,-5.115930921333508e-06,-1.0556309207533017e-05,-1.7533995418463697e-06,3.1569481887571383e-06
2025/04/09 09:49:50.217674558,1744184990,215281827,piren,0.0002953345922379124,-2.0248913687927238e-05,-5.474365818740786e-06,1.7624816387462575e-05,-1.4615670101539403e-06,3.100993565657492e-06
2025/04/09 09:49:50.322294882,1744184990,320360253,piren,0.0003014357485881813,-2.7708578499831314e-05,-4.500499307040947e-06,4.233454184382842e-05,-3.7154205086493666e-07,3.6233485870455304e-06
2025/04/09 09:49:50.426068218,1744184990,423879873,piren,0.0002633858958689128,-2.1750915675246327e-05,-2.0642440309461353e-06,5.763712863636333e-05,1.0377858968653821e-06,2.9349424507615344e-06
2025/04/09 09:49:50.531733721,1744184990,529469665,piren,0.0002388219076693243,6.776810824059242e-06,9.155726498961506e-06,6.360401730294213e-05,1.4178907616844122e-06,2.748231153387936e-06
2025/04/09 09:49:50.637307929,1744184990,635486155,piren,0.0002041526616267841,2.2401594242447927e-05,1.7467827633283854e-05,5.997707188713505e-05,1.620632378582559e-06,2.747103908536342e-06
2025/04/09 09:49:50.693180480,1744184990,689968598,piren,0.00016777874398036903,3.634726467707095e-05,1.3174801755029102e-05,5.371893880160506e-05,1.6369709229847117e-06,0.0
2025/04/09 09:49:50.746941786,1744184990,744926791,piren,0.00015371903068632338,1.8747435342712734e-05,6.5785357835477725e-06,4.4445876300261947e-05,1.5642612881192745e-06,1.4506155139088255e-05
2025/04/09 09:49:50.802286078,1744184990,799794103,piren,0.00012869706079078998,4.334937512150092e-06,3.2985211726964055e-06,3.3645055804724096e-05,1.3930433605120723e-06,2.624277111409191e-06
2025/04/09 09:49:50.857044270,1744184990,855171574,piren,0.00010361053223284064,1.3924804307217883e-05,-7.60707451290704e-07,7.66059980499252e-06,1.2792146196926357e-06,0.0
2025/04/09 09:49:50.965908227,1744184990,962878150,piren,0.00010362703283141702,1.0505648151858069e-05,-2.143042180107363e-06,-1.9458543660985326e-05,2.5579928175195904e-07,1.3497636180707738e-05
2025/04/09 09:49:51.73135560,1744184991,70742440,piren,0.00012385678724064592,-3.762749747428286e-06,-2.370020142932366e-06,-4.289997699011061e-05,-1.0636647276445778e-06,1.2241056208806474e-05
2025/04/09 09:49:51.183226733,1744184991,180503036,piren,0.00017383754834560778,3.7765633808625283e-06,-2.3411762346927155e-06,-5.84284491558649e-05,-1.8260172962550145e-06,1.2565905739454382e-05
2025/04/09 09:49:51.239681797,1744184991,237412112,piren,0.00020047694833926318,-1.4690072339097794e-05,-2.957424394394342e-06,-6.237690586442222e-05,-1.3657120388117165e-06,1.257733870208523e-05
2025/04/09 09:49:51.295333897,1744184991,292989094,piren,0.00021826215829611858,-2.43220140416348e-05,-3.2577917229150207e-06,-6.3311955952116e-05,-9.825730051287348e-07,0.0
2025/04/09 09:49:51.351846794,1744184991,349620481,piren,0.00023650755233581397,-1.517160312660836e-05,-4.6285389417579144e-06,-6.151379222397325e-05,-6.811404213043681e-07,1.1633741505933444e-05
2025/04/09 09:49:51.432495622,1744184991,428421929,piren,0.0002617536815251409,-2.0814953540783433e-05,-5.15484068598821e-06,-4.963962670388732e-05,-3.067984743061183e-07,2.068885150054443e-06
2025/04/09 09:49:51.539665877,1744184991,536645265,piren,0.00028434876749094506,-1.4734842534115712e-05,-4.881964187346716e-06,-2.8999634294507415e-05,-2.3160802151384726e-07,2.140256208236534e-06
2025/04/09 09:49:51.595980360,1744184991,593351947,piren,0.00029121878742450314,-1.106068930047157e-06,-3.76068153306503e-06,-1.64059450300017e-05,-2.979020540160345e-07,2.133109986814763e-06
2025/04/09 09:49:51.651027857,1744184991,648787681,piren,0.00030621269584123033,-7.91185907447344e-06,-3.8636517208192115e-06,-3.414591293780901e-06,-4.3191512041511533e-07,0.0
2025/04/09 09:49:51.708712216,1744184991,706376945,piren,0.0002885179563691675,-1.9452991682290853e-05,-2.2730325008370526e-06,2.2475312986816536e-05,-7.449291310167047e-07,2.025532899600086e-06
2025/04/09 09:49:51.816147591,1744184991,814126005,piren,0.0002643475562763964,-3.0194720966127174e-05,-9.719139229804113e-07,4.410231522490558e-05,-8.910148054179902e-08,1.9549764969836426e-06
2025/04/09 09:49:51.925273716,1744184991,922400216,piren,0.0002619936008614498,-3.5401129022908285e-06,-1.5236648009304188e-07,5.767500088732756e-05,3.1510864839159354e-07,1.925901605360239e-06
2025/04/09 09:49:52.32641091,1744184992,30656570,piren,0.00022496141054950233,-6.101867254152318e-07,6.091319045369802e-08,6.077377613710061e-05,4.846054312220875e-07,1.8484400848283551e-06
2025/04/09 09:49:52.140390115,1744184992,138713349,piren,0.0001822820779125944,2.2026225633718593e-05,1.3376470411839364e-06,5.293012414126593e-05,4.391963235811289e-07,1.7557785406094979e-06
2025/04/09 09:49:52.196383532,1744184992,194104084,piren,0.0001473138167057808,1.1723572379461429e-05,3.365157501151566e-06,4.5589651699162476e-05,3.4636688296775665e-07,2.1259466476788048e-06
2025/04/09 09:49:52.253423336,1744184992,251523515,piren,0.0001128206569320067,1.4050115487672327e-05,2.502123428855634e-06,2.46180277378432e-05,3.780551040362829e-08,0.0
2025/04/09 09:49:52.362878345,1744184992,360986286,piren,0.00010910908958982722,2.0510448667020127e-05,2.124682766664159e-06,-5.300626057902076e-07,1.2772256593653113e-07,9.253073469035481e-06
2025/04/09 09:49:52.470804298,1744184992,469123063,piren,0.00011429622368274826,1.713793858497537e-05,1.4530645368336306e-06,-2.5317902512973767e-05,8.59826846333822e-07,8.753893547492563e-06
2025/04/09 09:49:52.581947286,1744184992,578139992,piren,0.00016163508189499074,8.984592250536833e-06,-3.933427221886739e-09,0.0004063809741514532,0.00016803465692873798,8.548531827572783e-06
2025/04/09 09:49:52.691910525,1744184992,690129495,piren,-0.000943016579685656,-0.00705380170456893,-0.0029838100870880724,0.0025366708104346395,0.0004973911631531808,2.489890133218485e-05
2025/04/09 09:49:52.749682077,1744184992,747408043,piren,-0.0012864087377237698,-0.030929956577255967,-0.01317515976799703,0.002397172056639286,0.0006897225053523574,0.0001952465729194364
2025/04/09 09:49:52.809963501,1744184992,806098312,piren,-0.0013305848489835004,-0.03999757726696744,-0.017057669825928327,0.003612588349684509,0.0007722583870220794,5.852107804335962e-05
2025/04/09 09:49:52.865255334,1744184992,862994397,piren,-0.00043480904341770994,-0.08065886972249219,-0.03506328497987793,0.005419981282899395,0.0008062870264358709,0.0
2025/04/09 09:49:52.975493557,1744184992,973466330,piren,0.0013528671969198222,0.0027960054665075312,-0.00032177251288784126,0.0053975490889009835,0.0007136599069790593,0.0002165384358844998
2025/04/09 09:49:53.90121246,1744184993,84031058,piren,0.003872395113103328,-0.09930610365709044,-0.046213337209677026,0.006147390846413182,0.00029111561671215904,0.00021880813993174544
2025/04/09 09:49:53.143165617,1744184993,141519460,piren,0.00739285881199982,-0.07468812723891433,-0.03403879011736931,0.004356197300825203,8.21681278953665e-05,0.0003747119496547899
2025/04/09 09:49:53.200357806,1744184993,197779060,piren,0.0108951538174552,-0.1413446389743055,-0.06422496950033446,0.004957715286356602,0.0002113571448732882,-0.00018574487311751403
2025/04/09 09:49:53.256522954,1744184993,254895390,piren,0.014216095651818311,-0.06636842895854869,-0.030026648697758188,0.001410639997140664,0.0006352003413193289,0.0
2025/04/09 09:49:53.367673647,1744184993,364749024,piren,0.020691878968045845,-0.027427065567507902,-0.01175146958846808,-0.0019938034639562507,0.000866697720440794,-0.006418995750160022
2025/04/09 09:49:53.474846040,1744184993,472616568,piren,0.029939200314902395,0.003882523010588834,0.0028041933498338684,-0.0035834018660544273,0.00036479694203617955,-0.011226211665715215
2025/04/09 09:49:53.583605563,1744184993,581202998,piren,0.044625310497758676,-0.01676650191279777,-0.005602386776314942,-0.006805748387485481,-0.0004976070896427049,-0.014279971459406621
2025/04/09 09:49:53.694749203,1744184993,692450704,piren,0.06619730784213976,-0.16411534741350775,-0.07433885558093513,-0.006278083343216828,-0.001287782556105372,-0.0015918606674823561
2025/04/09 09:49:53.751537748,1744184993,749244460,piren,0.0766105868011437,0.03131834272785483,0.009783119655986855,-0.006884213066335953,-0.0014574786424989576,0.0
2025/04/09 09:49:53.860883068,1744184993,859153583,piren,0.08788534591753891,0.0786410712626551,0.03406971941686607,-0.005745644183654853,-0.0012794555071520713,-0.014573083815071785
2025/04/09 09:49:53.938928449,1744184993,937481627,piren,0.09550062154476113,0.07557979911766809,0.035785455185416246,-0.004467474690507188,-0.0012042379370881438,-0.016748169443269522
2025/04/09 09:49:53.997208255,1744184993,994401336,piren,0.10304946489004582,0.16840954302279015,0.07455900628123921,-0.002711589536612745,-0.0011569302415456635,-0.003414550119143736
2025/04/09 09:49:54.54299602,1744184994,51544356,piren,0.10916930833095652,0.16853836182676815,0.07639174728599642,-0.0013165794014352024,-0.0009168961936771586,0.0
2025/04/09 09:49:54.111095628,1744184994,109164235,piren,0.11447530314394502,0.2211591193028201,0.09679082726704479,0.00045659357626366557,-0.0007284833154930448,-0.003657288147487456
2025/04/09 09:49:54.221012312,1744184994,218337402,piren,0.12150800587191957,0.13258206395053124,0.06162554000049546,0.00513844795974127,-0.000943401234815928,-0.0037465623171673286
2025/04/09 09:49:54.331314690,1744184994,329108432,piren,0.12533517495830898,0.07429320256151217,0.038291676628068524,0.007088350042465533,-0.0005195632719811635,-0.0033350175992159343
2025/04/09 09:49:54.444558575,1744184994,441035461,piren,0.1284410123025737,0.11743279776669655,0.05419688209772054,0.006271300702309761,-0.00033753114609362067,-0.0026741826896171453
2025/04/09 09:49:54.503089024,1744184994,499103557,piren,0.12648047708853488,-0.03259459321261571,-0.009618694470781855,0.0070594984819123035,0.00035039401318703194,0.0
2025/04/09 09:49:54.558902765,1744184994,556891956,piren,0.12982736773533365,0.05873368857978706,0.026629317519242197,0.008035209483376016,0.0006864147310504868,-0.009242988485945736
2025/04/09 09:49:54.618464561,1744184994,614033538,piren,0.13379971746994673,0.09571791480252644,0.041846783937172775,0.004519925710891866,0.0012365465715919075,-0.0020119303355012642
2025/04/09 09:49:54.726061405,1744184994,724275631,piren,0.1381576944973404,0.01680102462923999,0.010993501548595436,0.0013519628578093628,0.0013612245317317373,-0.001865944010520521
2025/04/09 09:49:54.835727582,1744184994,833953057,piren,0.1436035733592235,-0.12985161708065757,-0.05249318528832218,-0.0017396452367617616,0.0012542727444150327,-0.0016123126785261312
2025/04/09 09:49:54.893535622,1744184994,891203965,piren,0.14860359381391394,-0.23090667445544535,-0.09700277089656217,-0.0015050091049663766,0.001063340475682356,0.0
2025/04/09 09:49:54.949627027,1744184994,948062802,piren,0.15331873794730203,-0.30803102988056674,-0.1323812164925799,-0.0012008657974341566,0.0007976781966815733,-0.007444246866640561
2025/04/09 09:49:55.8418685,1744184995,6286162,piren,0.1584098794412512,-0.13061979933058834,-0.05591018710546662,-0.004448189925645798,0.0005253522113249663,-0.0011829494366455357
2025/04/09 09:49:55.65900132,1744184995,62843224,piren,0.16513632137844073,-0.09986602316030227,-0.03950027007740124,-0.007430177215101547,0.002586561039474134,0.0
2025/04/09 09:49:55.176100829,1744184995,173543179,piren,0.17216146043906522,-0.1760843139111327,-0.07358417777123177,-0.007898139780697727,0.001221020384685188,-0.01465527236514687
2025/04/09 09:49:55.232835621,1744184995,230943208,piren,0.18196013566548574,-0.16447853763997924,-0.06678325360902887,-0.006994632988064982,8.892780125702507e-05,-0.02853598365087037
2025/04/09 09:49:55.288651839,1744184995,286729999,piren,0.19130269542988573,-0.14290390356331925,-0.05611048335412446,-0.005347246908137479,-0.0014090937176726224,0.0
2025/04/09 09:49:55.346944009,1744184995,343835993,piren,0.19934928704319646,-0.0022475114422374487,0.003431096533788973,-0.007435668675899995,-0.002318938894059074,-0.030851817461964037
2025/04/09 09:49:55.403493186,1744184995,401364288,piren,0.2027767362009854,0.14584961559976392,0.06248360699207382,-0.006234592280908297,-0.0028033622019683025,-0.005388682651411654
2025/04/09 09:49:55.460576523,1744184995,457469446,piren,0.20356851198421283,0.04616463220295401,0.023207806979827564,-0.0037221774623841597,-0.0036739262787842033,0.0
2025/04/09 09:49:55.570791056,1744184995,568970025,piren,0.20660939867702838,-0.045605410193729476,-0.014331861676181515,0.00022719187360522572,-0.0038618296267627027,-0.029978405668863825
2025/04/09 09:49:55.684655817,1744184995,681751776,piren,0.20857141294609394,-0.07485942015241533,-0.02473350551246524,0.0024314212185230846,-0.002709162031338832,-0.032914542744460776
2025/04/09 09:49:55.742322326,1744184995,739263658,piren,0.20509605893739719,-0.11550701831301892,-0.04162870040838283,0.004114367779271632,-0.0018920356191118332,-0.03087465450449507
2025/04/09 09:49:55.800550647,1744184995,797676173,piren,0.20459222358103946,-0.06503229187037476,-0.01869306735541135,0.005689792248208821,-0.0007349224041138737,-0.006166952865827295
2025/04/09 09:49:55.858420210,1744184995,855219829,piren,0.20433216879632712,0.08647240937139059,0.04159408782171946,0.006173400061012395,0.0010872811250054913,0.0
2025/04/09 09:49:55.970391718,1744184995,967220615,piren,0.20550942378877154,0.06724421774401917,0.03489801674074032,0.005466885853053841,0.002557959795155216,-0.03067296809622834
2025/04/09 09:49:56.83377591,1744184996,80499276,piren,0.20574556534184013,-0.05860343353137948,-0.021265986041469044,0.007092554090201021,0.003150804496950431,-0.032958070084761905
2025/04/09 09:49:56.141152406,1744184996,139147932,piren,0.20605506666261136,0.06611715606977697,0.029352161655429983,0.0047062577511795545,0.003476788876827713,-0.03827613866754446
2025/04/09 09:49:56.200012791,1744184996,196698477,piren,0.20606776579206781,0.03868427891470703,0.019500491606288382,0.002105909604334964,0.003513935519255416,0.0
2025/04/09 09:49:56.257306668,1744184996,255246699,piren,0.2059472064507645,-0.07900754729735096,-0.03267711264609699,0.0023572896497819516,0.003358683821127086,-0.036927971639203125
2025/04/09 09:49:56.314699064,1744184996,312985729,piren,0.21036298346793955,0.06918765602108609,0.02737852074975665,-0.0008979163964631354,0.0024949501301961964,-0.007294072964166497
2025/04/09 09:49:56.396115229,1744184996,394134992,piren,0.21482479726491874,0.029756537679668633,0.013209812778458972,-0.003185752663236998,0.0016386039997869574,-0.007629058036075388
2025/04/09 09:49:56.455317756,1744184996,453045972,piren,0.2216699194951616,-0.02400444726395077,-0.008372446606943862,-0.004844107116795528,0.00019948165280598865,0.0
2025/04/09 09:49:56.570147834,1744184996,567201880,piren,0.23077040972661964,0.10310878615309807,0.04235406097968118,-0.00687562256836569,-0.0016061794664622975,-0.03589823389038503
2025/04/09 09:49:56.684417360,1744184996,682312775,piren,0.23643338890424276,-0.05656976852037554,-0.02639350539807464,-0.005572255690816327,-0.0027655806732135436,-0.03731935965562338
2025/04/09 09:49:56.743571949,1744184996,741298427,piren,0.24076081504522337,0.059049995691066545,0.022833703791681495,-0.005980347549516044,-0.003126734357683454,-0.041151453211803676
2025/04/09 09:49:56.803231726,1744184996,801298128,piren,0.2483756997204182,0.1363466723882542,0.05575782540319688,-0.004127075017864743,-0.003190974021961382,-0.009266049114159632
2025/04/09 09:49:56.916461218,1744184996,914560580,piren,0.2533860341451145,0.16735480302331815,0.07000141911297555,-0.003949418510546893,-0.002402101321830677,-0.008088336071254074
2025/04/09 09:49:57.30637226,1744184997,28407072,piren,0.25596698605368146,-0.0369056474135501,-0.015341435023749503,0.00032550980228456905,-0.001490029135929587,-0.008393988670506045
2025/04/09 09:49:57.88535485,1744184997,86652667,piren,0.2597996273940225,0.052612294378423394,0.02273871483626936,0.0015930526865142048,-0.001388085768284833,0.0
2025/04/09 09:49:57.147655987,1744184997,145353725,piren,0.26059977676809465,-0.05169064953611231,-0.01772517338752711,0.0024393928486975266,-0.00044061657078282206,-0.041793037458084416
2025/04/09 09:49:57.205633518,1744184997,203482842,piren,0.2577903016332584,-0.18514421502595685,-0.07549229761479109,0.004365988150352114,0.0005591421514825859,-0.0073817596822663735
2025/04/09 09:49:57.262971374,1744184997,260982712,piren,0.25614307619453025,-0.11477889253083011,-0.042996610286078984,0.0056522764431327305,0.0038868918996461804,0.0
2025/04/09 09:49:57.375568810,1744184997,372770092,piren,0.25448101370411674,-0.08040571979463455,-0.02723759503866864,0.006792942483150786,0.004785085081949168,-0.036670842566869054
2025/04/09 09:49:57.487557074,1744184997,485140828,piren,0.2578742419158061,-0.05390718256685394,-0.016024920734241145,0.007330242320055184,0.004036558387712486,-0.04568331168288847
2025/04/09 09:49:57.546059459,1744184997,544335334,piren,0.2588300882112435,0.07299694385710646,0.03336096233755144,0.006141317988479635,0.003301545090068692,-0.05082728343950565
2025/04/09 09:49:57.604309933,1744184997,602566596,piren,0.25805258571372175,0.038526792897119244,0.019750388074184014,0.005004417518906136,0.002373788284278693,-0.009759921420608114
2025/04/09 09:49:57.665296242,1744184997,661831249,piren,0.25733258776931506,0.015415186685186578,0.010295693740302396,0.001788839417983955,0.0002493571384673555,0.0
2025/04/09 09:49:57.780412022,1744184997,778302001,piren,0.2614405558460476,0.05697943950317532,0.026893193100485262,-0.0008254696924618373,-0.0021295186782824493,-0.049040542848368375
2025/04/09 09:49:57.894728471,1744184997,892587129,piren,0.26433460061293773,-0.0727284845875143,-0.03004297087969169,-0.0029163564294045303,-0.0034409249149504615,-0.05364222905474202
2025/04/09 09:49:57.952820089,1744184997,950508210,piren,0.264346761078923,0.05795486450879289,0.022365984113506925,-0.004472801647503796,-0.0038432746747560113,-0.051532646872822614
2025/04/09 09:49:58.12375030,1744184998,10705310,piren,0.26606540905131626,0.02047759149609229,0.009759897806510636,-0.005966298023315244,-0.0038328579880468074,-0.010600800809704079
2025/04/09 09:49:58.125531464,1744184998,123430900,piren,0.26818922739944356,-0.0088701797452355,-0.0002418194035408161,-0.0077074941303104235,-0.0028608656902188692,-0.013437258858273682
2025/04/09 09:49:58.183692034,1744184998,181536288,piren,0.26818922739944356,-0.0088701797452355,-0.0002418194035408161,-0.006588822499136329,-0.0025374204457903025,0.0
2025/04/09 09:49:58.243372623,1744184998,240759761,piren,0.274881432593611,-0.1437489374602588,-0.05992351671905686,-0.006614441373213609,-0.0017713045942067253,-0.06151804810686294
2025/04/09 09:49:58.302950155,1744184998,299234722,piren,0.27831772011177236,-0.18337828720968863,-0.07578925486515166,-0.0059643634012408455,-0.000789977357347766,-0.01140340494086458
2025/04/09 09:49:58.362165813,1744184998,356871304,piren,0.28234017984232196,-0.1219729357697357,-0.047588676595917916,-0.0034361140632616,0.0010647329882299368,0.0
2025/04/09 09:49:58.471575221,1744184998,469988114,piren,0.2896848441633665,-0.06547687897618706,-0.022689114735772748,-0.0006632750379522641,0.002787664776055518,-0.06168443483417603
2025/04/09 09:49:58.585734394,1744184998,584130582,piren,0.293170071128452,-0.024154160058196428,-0.005225116076327425,0.0019087148155917573,0.0035918368500829734,-0.06471996439931006
2025/04/09 09:49:58.646212825,1744184998,644114821,piren,0.2913462073406208,0.0071707536720172355,0.007620576684536444,0.004167915097099366,0.003523192774810915,-0.06933469721349043
2025/04/09 09:49:58.705010318,1744184998,702176607,piren,0.2919989818413341,0.01409167041770197,0.01001041712740816,0.0060096527601078585,0.0032487962588745385,-0.014040568351489235
2025/04/09 09:49:58.763441104,1744184998,761373880,piren,0.2932403452727157,0.11177165445960817,0.047949998543861706,0.00611825203574704,0.0023242590326274055,0.0
2025/04/09 09:49:58.877809996,1744184998,875786238,piren,0.2958147003664634,0.17549913127513755,0.07200517508918147,0.005263777677508073,0.0008899118410465892,-0.07129459542044876
2025/04/09 09:49:59.16979540,1744184999,14913842,piren,0.290133862344146,-0.0029161196331638772,-0.00503411871651499,0.006468607814494269,-0.001400649006971452,-0.008189946512951931
2025/04/09 09:49:59.132138378,1744184999,130032511,piren,0.2867197942020538,0.08402879946156684,0.03099399775376975,0.0011309514868958564,-0.0022184082576600637,-0.017515554299590713
2025/04/09 09:49:59.191060754,1744184999,188999721,piren,0.2874377401719811,0.05766380610807613,0.02281474945695644,-0.0008094814303387288,-0.002433454106077711,0.0
2025/04/09 09:49:59.250593146,1744184999,248214534,piren,0.2849405689188642,-0.07209903520310905,-0.0321494077841867,-0.00032198221861235213,-0.002529120660567053,-0.07858172128281123
2025/04/09 09:49:59.309083166,1744184999,307173875,piren,0.28570713379831425,-0.05466926577341798,-0.022122179414465516,-0.0026018622408987223,-0.00210518410443637,-0.015207894891012042
2025/04/09 09:49:59.423500486,1744184999,421319503,piren,0.2861746664782458,-0.06301780481630845,-0.023854843259271643,-0.0057508967180475165,-0.00152142536714906,-0.01533630769224754
2025/04/09 09:49:59.538094291,1744184999,536183871,piren,0.2918217029218794,-0.030544569985022058,-0.009114859193328453,-0.0061013518595101415,-9.693292860488687e-05,-0.015676539976572652
2025/04/09 09:49:59.596137074,1744184999,594511769,piren,0.2976237515800221,0.014270027652492391,0.009919099036828756,-0.006719650788033178,0.00034236800917908345,0.0
2025/04/09 09:49:59.657567448,1744184999,655584499,piren,0.29948419082224964,-0.10591480782691137,-0.0442800870852673,-0.005317922149413289,0.001026626901356066,-0.08844108208012924
2025/04/09 09:49:59.773841027,1744184999,771490732,piren,0.3054097722000278,-0.06925026965395732,-0.027412131550785312,-0.005101669533820711,0.001526159985716261,-0.09337343220451486
2025/04/09 09:49:59.890323839,1744184999,888563887,piren,0.3130713972476314,-0.026082345984877568,-0.008627837864328337,-0.002664723790959082,0.0022082501304067047,-0.0909133361061763
2025/04/09 09:49:59.950819819,1744184999,947992472,piren,0.3038519706481565,-0.11878101253569143,-0.051628485035125966,0.0002410971378007756,0.0021797932127827126,-0.10417137847649878
2025/04/09 09:50:00.10656277,1744185000,8689076,piren,0.3082415162032702,-0.07246894749391644,-0.030598097040201232,0.0016137020339571837,0.0013856100327162362,-0.020115332694067456
2025/04/09 09:50:00.126013901,1744185000,124277376,piren,0.3151851883869767,0.09996756363557363,0.03848303455283024,0.0018859175159675328,0.0003228714652854584,-0.020887256674255766
2025/04/09 09:50:00.186205754,1744185000,183863771,piren,0.3136232628609377,-0.006796109279730053,-0.006806556275012941,0.004231558254891776,-0.00033345632488720767,0.0
2025/04/09 09:50:00.245520898,1744185000,243787620,piren,0.3112693334146115,-0.09363373147762064,-0.044641975367269764,0.006595473123351786,-0.0009304167734480158,-0.11313554681061104
2025/04/09 09:50:00.305993378,1744185000,304033018,piren,0.3104864836817796,-0.04989136819704032,-0.02290115436861248,0.006035964010973471,-0.0019187538091643913,-0.022118267647935716
2025/04/09 09:50:00.423211873,1744185000,420139401,piren,0.3123575171471657,0.1186633740253914,0.04599636738407242,0.004087895319702125,-0.002286630742964077,-0.022280402988065724
2025/04/09 09:50:00.538658271,1744185000,536150113,piren,0.3075823467437203,0.03385590475222709,0.01283879734796814,0.003966100744829939,-0.002173945436682963,-0.022358628980615212
2025/04/09 09:50:00.596952152,1744185000,594820706,piren,0.30655066939307285,0.041243662326269644,0.019037247959916088,0.0034306565205850332,-0.001979008878659808,0.0
2025/04/09 09:50:00.657780865,1744185000,655333042,piren,0.30562953365420065,0.03858114999757201,0.019888311535000598,0.0010953805210601353,-0.0015854740529081721,-0.11959566800020001
2025/04/09 09:50:00.717368767,1744185000,714671747,piren,0.30044090593078177,-0.06836951226164234,-0.027717350179190824,-0.0017415855701958167,-0.00041058890486505456,-0.024341400294934944
2025/04/09 09:50:00.835171137,1744185000,832007375,piren,0.29579688433236695,-0.12610293202933423,-0.05360793293322329,-0.0018242178778905731,0.0009262254478992021,-0.02171536896886895
2025/04/09 09:50:00.893449077,1744185000,891501575,piren,0.3056619258186856,-0.01779757402368848,-0.006256669674689644,-0.005448466999984673,0.0015597422230105278,0.0
2025/04/09 09:50:00.953487260,1744185000,951663886,piren,0.30783413906137863,-0.08020637054210017,-0.0340765636438673,-0.006203498226625294,0.0022196013381114606,-0.1125360562775115
2025/04/09 09:50:01.71349766,1744185001,69690265,piren,0.315422808700805,-0.07555019134470019,-0.03149874799195599,-0.0047310523142524395,0.002282675401187642,-0.10850487666370272
2025/04/09 09:50:01.188294415,1744185001,186591323,piren,0.3234452719452747,-0.016401592294323177,-0.0055287489092909516,-0.004357370046541402,0.001868754715820029,-0.10644805452440616
2025/04/09 09:50:01.248828062,1744185001,246968956,piren,0.32201762693675845,0.025980070201922376,0.012683176350778654,-0.0043433950795072835,0.001429886758337578,-0.10223504844036763
2025/04/09 09:50:01.309553005,1744185001,307690710,piren,0.3206634223914534,-0.05807025583944739,-0.026813936456120173,-0.0003803703343832394,0.00022572819333955185,-0.018372319982138677
2025/04/09 09:50:01.427199497,1744185001,423958641,piren,0.33171945680328463,0.10289496074906349,0.03964949049535229,0.0006490222720805356,-0.0009343390324467786,-0.017418994161215295
2025/04/09 09:50:01.567162620,1744185001,564461212,piren,0.34261346238695295,0.2040824997763142,0.08128298420037425,0.0028706990531171196,-0.002055504733580826,-0.01628724186078563
2025/04/09 09:50:01.685487163,1744185001,682444371,piren,0.3461032131468073,0.15447654283902956,0.06374876032667154,0.00510142061688821,-0.0020799140904375346,-0.07439510311478804
2025/04/09 09:50:01.745277675,1744185001,743343879,piren,0.3403790122866212,0.1074738693160274,0.04604197143480868,0.005906472387291136,-0.0018035761553275031,-0.07311111448469385
2025/04/09 09:50:01.806904450,1744185001,804804215,piren,0.34344569536997366,0.18591115181216117,0.07616382464231627,0.007531564503696801,-0.0009289335691868855,-0.012844437393101696
2025/04/09 09:50:01.923627747,1744185001,921753686,piren,0.3395550107108192,0.1807083644214348,0.07451499940484169,0.005121137593540462,1.0221009190158198e-05,-0.011906462445828048
2025/04/09 09:50:02.41647393,1744185002,39911088,piren,0.3350122856625148,0.08789987368691106,0.03756642388471668,0.0023308529271149213,0.0009395291281597,-0.01117248054606318
2025/04/09 09:50:02.102098913,1744185002,100058783,piren,0.3308843954751409,0.011610137707748783,0.006591638748920162,0.0033023830820790414,0.001356404871908821,-0.010207525123090401
2025/04/09 09:50:02.162979814,1744185002,160533813,piren,0.32807396677817446,-0.05548192082128445,-0.021626938531502087,-0.00011944016633441482,0.0020824492014282995,0.0
2025/04/09 09:50:02.280490743,1744185002,278496891,piren,0.3234964258754189,-0.17307583191604825,-0.07530376748446713,-0.0031763280142244918,0.002518607285378776,-0.04910903209632604
2025/04/09 09:50:02.397349678,1744185002,395462200,piren,0.32618381940142166,-0.1783791643083983,-0.07730950716245971,-0.003656717012229946,0.0021018734101412393,-0.04480229201386373
2025/04/09 09:50:02.458442743,1744185002,456056978,piren,0.3295588178085381,-0.12486604112386848,-0.05375026008359583,-0.004763244680425176,0.001649484300645238,-0.04404428819703917
2025/04/09 09:50:02.518908115,1744185002,517181881,piren,0.3389915723664216,-0.07623669502381708,-0.03265244692949217,-0.006744031864268221,0.0004426573663995514,-0.00751070439168537
2025/04/09 09:50:02.636970917,1744185002,634818905,piren,0.3424488533862585,-0.10598693022679945,-0.04633212184661858,-0.004750268874514503,-0.0008231049994255751,-0.006804959228992842
2025/04/09 09:50:02.698087136,1744185002,695870282,piren,0.35801316873212263,0.05658818286387976,0.019392434958129666,-0.004237331574130214,-0.00129826631633146,-0.006128426668884787
2025/04/09 09:50:02.762075677,1744185002,759640841,piren,0.3681323505520594,0.154772791265896,0.059521778219830984,-0.005986017879719686,-0.002131243927209148,0.0
2025/04/09 09:50:02.881441845,1744185002,879316452,piren,0.36071289983019583,0.009121970246724592,-0.0009767248074785337,-0.0025817827797840094,-0.002604215153147704,-0.025350450378240002
2025/04/09 09:50:02.944069198,1744185002,942192199,piren,0.35967116967067325,0.019339093880035213,0.006553921863436186,-0.0023028220041934754,-0.002480435200866713,-0.02652233754661448
2025/04/09 09:50:03.9140382,1744185003,4883280,piren,0.3584945175146912,0.03928727296579418,0.016900649181539718,0.0027950254174842165,-0.00197242317890392,-0.004041547199593194
2025/04/09 09:50:03.128281832,1744185003,126159773,piren,0.35965619506937385,0.13493953987954263,0.05453661813045961,0.0027531939059473056,-0.0004971679189771761,-0.002975594984995277
2025/04/09 09:50:03.249319507,1744185003,247181945,piren,0.33384086295286564,-0.12269512310845092,-0.05434500284923245,0.0033875728290936854,0.0009878516772688082,-0.002338291451858297
2025/04/09 09:50:03.310618353,1744185003,308479377,piren,0.33173387365118273,-0.09304672872581213,-0.03929341671056341,0.005374333659760471,0.00210909987717354,-0.0016286835422198553
2025/04/09 09:50:03.428917475,1744185003,426305393,piren,0.333845016525447,-0.035831736707222804,-0.014043664663563996,0.005255151466267621,0.0027665425824764953,-0.0007165084948710735
2025/04/09 09:50:03.488971389,1744185003,486562133,piren,0.3311713839681942,0.001172884261587022,0.0019485167111727049,0.004907403576050198,0.004087053046071707,0.0
2025/04/09 09:50:03.550578646,1744185003,548455788,piren,0.32900782551073454,0.06163712780321511,0.026465098491124765,0.0013497589574796743,0.0034891837571580926,-0.0025925167982941166
2025/04/09 09:50:03.668891377,1744185003,666917974,piren,0.3272000712630869,0.07798496737959831,0.032848103212603376,0.001504138165359869,0.0013473489098421662,-0.0036242737620697063
2025/04/09 09:50:03.790318063,1744185003,786856401,piren,0.32803380324439774,0.1469618276623809,0.05864339012566567,-0.0033488627516286918,-0.00016846369381954288,0.0007101605642110947
2025/04/09 09:50:03.851040176,1744185003,849207531,piren,0.3157750227933774,0.017422219495211194,0.003977058082758091,-0.0031635379934433017,-0.0008539890058598711,0.006404876135897494
2025/04/09 09:50:03.912730050,1744185003,910429790,piren,0.3120517717026358,0.014360751043523506,0.0040392933465730595,-0.005123405757981944,-0.0021805523714491983,0.0018773097344760934
2025/04/09 09:50:04.35213844,1744185004,31038238,piren,0.305323861645047,-0.03448815285582857,-0.015439395314365853,-0.005670255654206322,-0.0028193736203224098,0.0025432873957328002
2025/04/09 09:50:04.93968688,1744185004,92243624,piren,0.31042766106288566,0.08792179840916144,0.0321798582873955,-0.007131533405423606,-0.0027751438124806065,0.0
2025/04/09 09:50:04.157705300,1744185004,154330877,piren,0.30731060167217933,0.06871423577404168,0.026488555961078786,-0.00710746780914018,-0.0026421175461278346,0.01676065927685107
2025/04/09 09:50:04.218559895,1744185004,216376352,piren,0.2982710751881767,-0.06745916392446777,-0.030922478510477584,-0.005601907684942976,-0.002045108715574689,0.0035064098813751975
2025/04/09 09:50:04.303349964,1744185004,301134563,piren,0.30373815594484754,-0.03855305380084208,-0.01656247176300965,-0.0030969410573872046,-0.0013890572218749355,0.0050090884703973
2025/04/09 09:50:04.424612464,1744185004,421638308,piren,0.29279676085243395,-0.14436936956126334,-0.06267294952431199,-0.0014802888165635674,0.00031111886837749907,0.005034898927473311
2025/04/09 09:50:04.545583914,1744185004,542428360,piren,0.29053727001546564,-0.02092058559819595,-0.007743672363855356,0.0009034848575711183,0.0017229802913004395,0.005144276692599531
2025/04/09 09:50:04.608226750,1744185004,604554300,piren,0.27899049012585225,-0.10292477206021391,-0.044110368453340015,0.0035104295282719768,0.002558418175218806,0.005180540324530509
2025/04/09 09:50:04.728040158,1744185004,726093631,piren,0.27548736834201,-0.032947158186334105,-0.014020616868770604,0.00554368538365972,0.0029762928924361204,0.005224556689351569
2025/04/09 09:50:04.790466354,1744185004,787465132,piren,0.2682791602792348,-0.04460311570614938,-0.018798424301317014,0.005579248997267095,0.0024873215601360723,0.0
2025/04/09 09:50:04.853271656,1744185004,850904428,piren,0.2627103868092489,-0.08210594188203647,-0.03560924388944654,0.005000610152803331,0.0017747537494539178,0.0270150522883695
2025/04/09 09:50:04.919859360,1744185004,915062574,piren,0.26215875945317735,-0.0020357364659499416,-0.0018190877810491043,0.007635955540740856,0.0009053132083272438,0.0059376595517313425
2025/04/09 09:50:05.41995577,1744185005,39843666,piren,0.25939657081498796,0.12684386141409087,0.04887985791613674,0.003407135775147228,-0.0003871330884392362,0.005891878944932149
2025/04/09 09:50:05.107387752,1744185005,104391203,piren,0.24363843729238385,0.001665675963477442,-0.004963876855678728,0.0029258194585361913,-0.0008566619705834743,0.006089538097505076
2025/04/09 09:50:05.169881038,1744185005,167862005,piren,0.23768112392076535,0.03142882848692392,0.009911174810079847,0.0008828760936768693,-0.001710763299870354,0.0
2025/04/09 09:50:05.294190674,1744185005,292089802,piren,0.2317074746293655,0.023408639207719205,0.008456116874037412,-0.0019906314228407608,-0.002630791428117185,0.02573414805844251
2025/04/09 09:50:05.359089901,1744185005,356695269,piren,0.233242441341008,0.04327386780441924,0.01821493258674304,-0.005244559724164533,-0.00237785627635314,0.03296456177814448
2025/04/09 09:50:05.484941421,1744185005,481865905,piren,0.22752665721677648,0.05936512643465943,0.025678567917604644,-0.005906430106658467,-0.00117821277212632,0.02584307854971016
2025/04/09 09:50:05.548127237,1744185005,546076622,piren,0.22083086107504632,-0.008828271927859128,-0.003131178795455488,-0.005895862683087482,-0.00048713536298564537,0.03340197340700049
2025/04/09 09:50:05.613547261,1744185005,611327351,piren,0.2184708922079152,0.02208489338800104,0.01019732074999761,-0.004313895008745586,0.0005345568623133682,0.005858397865390738
2025/04/09 09:50:05.744440643,1744185005,742062254,piren,0.21856210771429677,0.08412350293770073,0.03495585641927429,-0.004860183831082407,0.0016750470495602333,0.005867890552223441
2025/04/09 09:50:05.810567877,1744185005,806249685,piren,0.21508525207646007,0.08401376775095781,0.03501014917415356,-0.0017214951559176442,0.0021047480718842954,0.0056544966629224255
2025/04/09 09:50:05.873141466,1744185005,870479998,piren,0.21549874401543992,0.16987261401832296,0.06652360458991519,-0.0005902709190989871,0.0024757503244958777,0.0
2025/04/09 09:50:05.999250373,1744185005,994951967,piren,0.2140892002044892,0.22789260699773917,0.08677608978679482,0.002821854722679367,0.002206767317320069,0.02927475268879876
2025/04/09 09:50:06.63314958,1744185006,60725926,piren,0.20425305007734085,0.11391371004042453,0.04243934851277966,0.0037996151611195904,0.001518845384851725,0.026806346525072425
2025/04/09 09:50:06.184540931,1744185006,182385110,piren,0.19908903720993282,0.16907966936519228,0.06200816983050241,0.004597459690037612,0.0003711501977325898,0.02841666686293479
2025/04/09 09:50:06.248704752,1744185006,246373801,piren,0.1811622137555331,-0.03253337625696945,-0.021305770959877283,0.0054715991636836514,1.6808540238153338e-05,0.030503685681878213
2025/04/09 09:50:06.312315228,1744185006,308997997,piren,0.1651076399507018,-0.16469432173016643,-0.07582553403689271,0.005746271351453345,-0.001528892184748115,0.005727082736443674
2025/04/09 09:50:06.435085632,1744185006,431690080,piren,0.1619816554313728,-0.1215846824093201,-0.053528238974006936,0.005090978182597219,-0.0030528501667330763,0.006572011313803288
2025/04/09 09:50:06.497258145,1744185006,495200108,piren,0.16506627030594231,0.026002106906571898,0.0058949830530656555,0.0024905414840446197,-0.002468653410606318,0.0
2025/04/09 09:50:06.559497622,1744185006,557613990,piren,0.15119661348835492,0.01610535602185377,0.005535230907131233,0.00023249492974649602,-0.0010233484307961705,0.03929108327089831
2025/04/09 09:50:06.682339421,1744185006,680731403,piren,0.13514179648645935,-0.10567492494237699,-0.04507527948376666,0.0002718460694813977,0.0005195267333152558,0.026718725072561327
2025/04/09 09:50:06.749990333,1744185006,747079663,piren,0.13192378511175762,-0.09549798544894615,-0.03818561572402477,-0.0016721938349731856,0.000873311992408108,0.027537052559833144
2025/04/09 09:50:06.815916090,1744185006,812516017,piren,0.13329254342170302,-0.11446143462403556,-0.04498385724238656,-0.003966431468935675,0.0005714558420851124,0.00531595093801565
2025/04/09 09:50:06.944085113,1744185006,941703390,piren,0.13080767651426853,-0.16845560051606256,-0.06922524836384031,-0.0055007484356354545,0.0014201896211293334,0.004659851032132464
2025/04/09 09:50:07.36156683,1744185007,33363607,piren,0.13111087445095093,-0.07788427782766079,-0.030520401293303683,-0.004801275253560395,0.0010850722026887424,0.003858262398521165
2025/04/09 09:50:07.99676098,1744185007,97624062,piren,0.13486173305991528,-0.030763225664395162,-0.01016021873020893,-0.005035775222309452,0.000874169745830566,0.0
2025/04/09 09:50:07.164574079,1744185007,162004968,piren,0.13442532484605166,-0.03196329536031003,-0.010656379972844226,-0.003539078533600809,0.00023380085138357577,0.019287555984636225
2025/04/09 09:50:07.289169620,1744185007,287044569,piren,0.12854654362049572,-0.11534845457795156,-0.04934720245815259,-0.0013117131073419408,-0.0010176757973969666,0.016327857353418507
2025/04/09 09:50:07.353561252,1744185007,350547833,piren,0.13209698696637118,-0.053636468267540774,-0.02202896760569618,0.0006222214198993378,-0.0013709727147622679,0.017541280625842745
2025/04/09 09:50:07.416397075,1744185007,414486346,piren,0.13492843614371836,0.06489859436355842,0.02674289606410934,0.00034297402444706727,-0.0017557346529036347,0.003383248657948156
2025/04/09 09:50:07.540453528,1744185007,538218710,piren,0.13559377802102957,0.20190137210916004,0.0791638226951039,0.003296404166242764,-0.0014884158354942154,0.003308522432884421
2025/04/09 09:50:07.607171668,1744185007,602014365,piren,0.13813967266923993,0.14553567883726867,0.05927996820287501,0.0017613887114671632,-0.002308589021789308,0.0
2025/04/09 09:50:07.667486868,1744185007,665824931,piren,0.1229224609347055,0.01931336294774197,0.007352288244939137,0.004963941896216845,-0.0027493340312768153,0.0050834197815448805
2025/04/09 09:50:07.794230150,1744185007,792002410,piren,0.11911501374806886,0.13093041246984327,0.051703460934472194,0.004204222469054824,-0.0024165641724793597,0.0
2025/04/09 09:50:07.858882333,1744185007,856671573,piren,0.11344373972897284,0.011173615430107448,0.004257648107795026,0.003506074164457588,-0.0008545774862374552,0.020614784535397782
2025/04/09 09:50:07.987386314,1744185007,984567962,piren,0.09065682687282771,0.0032557926734175183,0.003028892258989918,0.0030927349707784006,0.0018794360737477995,0.03264068721179581
2025/04/09 09:50:08.52696480,1744185008,50307506,piren,0.08991823306250792,-0.011943312173707026,-0.0018413637421915985,0.001253513512957029,0.002876326006671235,0.033437584055687086
2025/04/09 09:50:08.116962456,1744185008,113936783,piren,0.0822796516748893,-0.1262608056576478,-0.05301022546716583,0.0003897147133805061,0.005148407747881108,0.006421677291439007
2025/04/09 09:50:08.240321977,1744185008,238182999,piren,0.08641789747639435,0.038694800850362726,0.012258668452136495,-0.0014317559431656916,0.005557594661460208,0.005074594576893168
2025/04/09 09:50:08.306773734,1744185008,302551756,piren,0.08519029329622739,0.02266984282132441,0.0076616138024511345,-0.002907524980733588,0.005123702270177402,0.0
2025/04/09 09:50:08.368284664,1744185008,366107809,piren,0.0863353650741827,-0.002806677344369315,-0.001915697003245946,-0.002325035888813973,0.0037233354930314203,0.005205513855316376
2025/04/09 09:50:08.492348262,1744185008,490494211,piren,0.09155802893355926,0.10473083398346758,0.03991352106423162,-0.004187695834879798,0.00011406175992965317,0.0
2025/04/09 09:50:08.558863040,1744185008,555417846,piren,0.10247164534594035,0.06492454529216089,0.025677227570989107,-0.0016703977565727345,-0.0035389233376724068,0.018418405856515982
2025/04/09 09:50:08.684906307,1744185008,682200086,piren,0.10215168843251363,0.1045696116329968,0.04217462385770635,-0.0008514077670356956,-0.006068049031000107,0.025884372037420805
2025/04/09 09:50:08.750787887,1744185008,747379757,piren,0.10605370675043546,0.14670567113712463,0.058925898102989906,-0.0027548253663431735,-0.006262923199863916,0.0293011898769481
2025/04/09 09:50:08.814442772,1744185008,812365259,piren,0.10402834819851692,0.19233645222425405,0.07579548313382131,0.0001694698130728776,-0.004971283829697188,0.005557417166285184
2025/04/09 09:50:08.940320345,1744185008,938276740,piren,0.09444890745153303,0.06692929448640866,0.02844386877438749,0.002881428736522444,-0.005317206766328806,0.005467249019597844
2025/04/09 09:50:09.5661333,1744185009,3363572,piren,0.08950068877738873,0.07022880437866702,0.031036791113425985,0.002502097759326171,-0.004765146040413849,0.00741667790677753
2025/04/09 09:50:09.69135857,1744185009,67075252,piren,0.08351627795468618,-0.020232254546180717,-0.00366392886420934,0.0018380740166516123,-0.0024657282973944194,0.0
2025/04/09 09:50:09.195120069,1744185009,193274519,piren,0.08522777242264952,-0.054563108611909716,-0.01642883969427311,0.0034426671616407706,0.0010143411888502013,0.04614209752202982
2025/04/09 09:50:09.259466851,1744185009,257704831,piren,0.06395906222978726,-0.20584397283382672,-0.08406308564820834,0.004678335379530596,0.00707927990495194,0.056684320212651865
2025/04/09 09:50:09.388469284,1744185009,386022188,piren,0.05952728578263292,-0.05856837461483297,-0.025808853758757966,0.002588024765763091,0.010756464966805004,0.043614398117451963
2025/04/09 09:50:09.455091802,1744185009,453177768,piren,0.06310489558518372,-0.054805920113266945,-0.02333881971896945,0.002272145745999859,0.011465523625793315,0.027318120062048368
2025/04/09 09:50:09.584948134,1744185009,582654015,piren,0.05560066140087644,-0.11064996063155336,-0.04788816149319439,0.000450018669367833,0.00876825862967325,0.017551739785272833
2025/04/09 09:50:09.652763046,1744185009,649733797,piren,0.05932465208547898,-0.19487630335142925,-0.08657640500843308,-0.00038724958189520356,0.006136282341707276,0.005709907522107037
2025/04/09 09:50:09.720832891,1744185009,718588074,piren,0.06597688840543002,-0.18693829284675262,-0.0826705229242429,-0.0011644227449065334,-0.00029416915103248355,0.0007129989589368805
2025/04/09 09:50:09.809672865,1744185009,806584980,piren,0.07191292635989145,-0.14860626283484593,-0.06473810225434073,-0.0015993368096553502,-0.006371900381570375,0.0006255133092208741
2025/04/09 09:50:09.937516588,1744185009,934964004,piren,0.07733082680379072,-0.019196203435330572,-0.00871254803665105,-0.0031473332384826603,-0.01045123068987588,0.00011295996310185678
2025/04/09 09:50:10.3664892,1744185010,875982,piren,0.08112081609419862,0.008502660764543576,0.005817717964676112,-0.0026499964531803027,-0.012011135820531912,-0.0006398842387522651
2025/04/09 09:50:10.66533915,1744185010,64689089,piren,0.08300029403758331,0.013178374836798352,0.010910700347708063,-0.0038448358520494262,-0.01281502283286359,0.0
2025/04/09 09:50:10.194141131,1744185010,191058200,piren,0.08336585158003787,0.027127728742062058,0.01966113780129523,-0.0028169995960430727,-0.011262005178287834,-0.004021598290530713
2025/04/09 09:50:10.258744146,1744185010,256304152,piren,0.0863965496172567,0.07877189311843762,0.04254222956477304,-0.0008267751900170965,-0.006308163323456093,-0.0018425298577813233
2025/04/09 09:50:10.385056248,1744185010,382241964,piren,0.07647275644408169,-0.0773632871954756,-0.026467977716610934,0.0008783456130778484,0.00010152981912955063,0.001430988544139348
2025/04/09 09:50:10.450130774,1744185010,448378333,piren,0.07479946319876932,-0.060664482612355235,-0.017017401016782063,0.001340349182966103,0.0032979914767275616,0.0005943617738904707
2025/04/09 09:50:10.515073616,1744185010,513187215,piren,0.07607196990056751,-0.002667350038609184,0.007484120328566754,0.0010159993024511985,0.009088796693835973,-8.755746316227638e-05
2025/04/09 09:50:10.642809108,1744185010,640433973,piren,0.06820723572454869,0.019985960345230012,0.015590669414460741,0.003235907697176807,0.013297588118962624,-0.0011622017525033824
2025/04/09 09:50:10.708374609,1744185010,706793200,piren,0.08013994704374441,0.10209012573272996,0.045771789276335795,0.0033679024017941187,0.012701251194123702,-0.002120813601281176
2025/04/09 09:50:10.836885190,1744185010,834978167,piren,0.08195782222396689,0.0678406840421307,0.029569189566996,0.00459795849360518,0.008892447189408419,-0.001639821528580075
2025/04/09 09:50:10.904918124,1744185010,901125294,piren,0.08723201219600002,0.14167402947514385,0.05570810860014344,0.0032511029358098546,0.004114543178714137,-0.001289523715705946
2025/04/09 09:50:11.35489814,1744185011,33422750,piren,0.09023740251245714,0.18589150719303726,0.07097931993955403,0.0016552680598983908,-0.0017456236316159162,-0.0012217005736913996
2025/04/09 09:50:11.102853464,1744185011,100384680,piren,0.08615267045215648,0.09293537500875611,0.034057221946709404,-0.00018970924427322048,-0.004131020675016858,0.0
2025/04/09 09:50:11.170669222,1744185011,168511478,piren,0.07914168236970896,-0.052179187800993135,-0.02633751040200219,0.00010020895190229508,-0.009340439410896025,-0.0016313485583733633
2025/04/09 09:50:11.300633190,1744185011,297997670,piren,0.08187658555866607,-0.07065016335468459,-0.03009070353091739,-0.001371373156838269,-0.01206256753559846,0.0
2025/04/09 09:50:11.367096593,1744185011,364653261,piren,0.0884354200837605,0.04531563065288577,0.018109532721695035,-0.0012496239061306391,-0.008756702300501734,-0.0021150977928482318
2025/04/09 09:50:11.494745115,1744185011,492120754,piren,0.07435602783184538,0.09824752131785355,0.041668468356851104,-0.0034996118306246087,-0.004237965211344985,-0.002609875798669003
2025/04/09 09:50:11.562735088,1744185011,557790159,piren,0.07534885540680977,0.030078265673183002,0.017913910360633778,-0.0015370662307427757,-0.0020417905431741163,-0.020914066614701386
2025/04/09 09:50:11.688758409,1744185011,686613894,piren,0.08468633239767757,0.07997990243684437,0.03844973961544927,-0.0016946671418868967,0.0008814649309217014,-0.01486567182533487
2025/04/09 09:50:11.755720235,1744185011,753548647,piren,0.08623655324690833,-0.006615895937374772,0.004800167492077886,-0.0014559159619904418,0.005275322358916653,-0.01499550209688359
2025/04/09 09:50:11.886113981,1744185011,883026326,piren,0.08620929005860478,-0.08182081273448562,-0.02629472926715738,0.001514718306257486,0.007505196220659943,-0.014271036923694743
2025/04/09 09:50:11.953763902,1744185011,950241051,piren,0.09113048879776205,-0.053134153605787604,-0.014892174138599145,0.0002335676841725939,0.007986839280128905,-0.017467414829161833
2025/04/09 09:50:12.42532278,1744185012,40722492,piren,0.09353588185708749,-0.06767831301049186,-0.021942726979548254,0.0014058258586588546,0.008110710314646791,-0.003662530692071297
2025/04/09 09:50:12.108837199,1744185012,106623135,piren,0.09005285934017583,-0.18882603704214446,-0.07841759101987629,0.0017172006086090552,0.0060872056127229575,-0.004777685165193637
2025/04/09 09:50:12.237238117,1744185012,235350264,piren,0.08980619435474173,-0.245551955135124,-0.10560194223987773,0.004493140009750485,0.002020048751262628,-0.005519362056403603
2025/04/09 09:50:12.302302520,1744185012,300022662,piren,0.09745594365203933,-0.1075001816606796,-0.04698097199136742,0.002972339028204368,-0.00022377075616300087,0.0
2025/04/09 09:50:12.369541947,1744185012,367107130,piren,0.10532901755609592,0.047890709528929126,0.016094332575790453,0.0014603075216430355,-0.0033631636314875087,-0.02937141851516104
2025/04/09 09:50:12.500775314,1744185012,496832725,piren,0.10564463447249173,0.03509481940404881,0.014689295294325326,0.0014955529543335124,-0.006978495894565828,-0.004334956896168578
2025/04/09 09:50:12.565626304,1744185012,562828856,piren,0.10218282789392097,0.009470613553321943,0.007583242353463042,-3.581777808136059e-05,-0.011200153662873885,0.0
2025/04/09 09:50:12.694108205,1744185012,691652748,piren,0.1161907144036376,-0.004430436975780633,0.005319358857500837,-0.0019311486072973692,-0.010613134619991634,-0.033184851428550106
2025/04/09 09:50:12.760764742,1744185012,758545244,piren,0.10585558744046457,-0.016159416595518943,0.0028546550549782878,-0.002536124022116973,-0.00667242940654817,-0.01569784611134748
2025/04/09 09:50:12.894528044,1744185012,890500368,piren,0.09787319031856886,-0.09931139456002669,-0.03223050346032227,-0.0032608499341581355,-0.0016718813534894025,-0.018301162993484627
2025/04/09 09:50:12.962169660,1744185012,958849351,piren,0.09178419561867476,-0.18188999194785493,-0.06987258477392021,-0.002389666893780569,0.003511314003887455,-0.02067801303825297
2025/04/09 09:50:13.90737735,1744185013,88159139,piren,0.09916428328015163,-0.07654591038599348,-0.024966744977306124,-0.002230018082682049,0.00768608669125348,-0.01924713641246836
2025/04/09 09:50:13.157449606,1744185013,155363865,piren,0.10006821017518623,-0.10613628970413586,-0.03945134982524056,-0.00045921467623246325,0.01007154169442936,-0.019911807256476195
2025/04/09 09:50:13.286888233,1744185013,284559844,piren,0.11365934822824775,0.0639444049874332,0.02745069416229124,-0.0006555157651426489,0.009232267363741591,-0.018977473822161667
2025/04/09 09:50:13.355018998,1744185013,351677820,piren,0.12072888830712136,0.11048116763990988,0.04666824766098211,0.000594383213538887,0.008316451271257385,-0.016844990829597475
2025/04/09 09:50:13.420837764,1744185013,418446879,piren,0.12877774753796975,0.19857289210158383,0.07964115252475873,0.00013504279984624852,0.004906352663608171,-0.0023623202901419207
2025/04/09 09:50:13.552089620,1744185013,549749950,piren,0.1305411163478765,0.023898512013056872,0.004640691306818448,0.002393276711791383,-0.0017204896186087026,-0.001459339184982437
2025/04/09 09:50:13.682618379,1744185013,680621994,piren,0.128259844326294,0.012254645101211693,0.002678780122837546,0.0022250178273864035,-0.004994313792057992,-0.0014244581780103007
2025/04/09 09:50:13.750437818,1744185013,747929399,piren,0.1254472463426281,0.008981468927004656,0.00394734713554629,0.003186798561619225,-0.006169748333432444,0.0005820621568649835
2025/04/09 09:50:13.816922378,1744185013,814817957,piren,0.12905197172585747,0.11213015228136142,0.0456802071901946,0.002164608770578676,-0.006958340919605749,0.00016425057934170385
2025/04/09 09:50:13.946555582,1744185013,944375676,piren,0.1194606877006662,-0.06298602945384985,-0.028217427044942886,0.0020211309426976993,-0.006870845704307726,3.5488722461218084e-05
2025/04/09 09:50:14.13584882,1744185014,11413642,piren,0.1253576470581719,0.05731672052361361,0.023319076083821833,0.00032382227593301854,-0.0051885489778645015,0.0003940666564913204
