time,header_stamp_secs,header_stamp_nsecs,header_frame_id,twist_linear_x,twist_linear_y,twist_linear_z,twist_angular_x,twist_angular_y,twist_angular_z
2025/04/09 09:49:46.675032856,1744184986,627028073,piren,0.00012653280981966199,-3.423317504921934e-05,9.749894445107524e-07,-4.4767363402381816e-05,4.406015330180355e-06,9.103532317322412e-06
2025/04/09 09:49:46.841750560,1744184986,838166422,piren,0.00014191543299121737,-3.250051061921805e-05,-3.447834756507337e-07,-7.704911073641284e-05,4.495311471664672e-06,7.295197365392593e-06
2025/04/09 09:49:46.909196006,1744184986,904214031,piren,0.00018541058428864338,-3.245332779418675e-05,-1.5194226029689213e-06,-7.672501225002396e-05,3.7012421877875823e-06,1.0035896419000306e-05
2025/04/09 09:49:46.966130002,1744184986,963404526,piren,0.0002234565641144366,-2.7553240998107686e-05,-3.4218763381933913e-06,-6.603640078414822e-05,1.8532625464719297e-06,0.0
2025/04/09 09:49:47.71492577,1744184987,68686947,piren,0.00026934173641521855,-2.3842262630231015e-05,-5.442370991492822e-06,-4.3567441977228834e-05,-3.4892773440551393e-07,4.5099632437623365e-05
2025/04/09 09:49:47.175086816,1744184987,172919154,piren,0.00027269048135425324,-2.944030657127715e-05,-7.734447360984488e-06,-1.3449866856195914e-05,-1.4244939568103869e-06,4.327023813522727e-05
2025/04/09 09:49:47.381688523,1744184987,277705152,piren,0.0002683662781555876,-3.855898120354967e-05,-9.704366276380229e-06,1.8810537029042876e-05,-2.8001429763535974e-06,4.551972668226141e-05
2025/04/09 09:49:47.441210356,1744184987,438916226,piren,0.00025829373888043355,-2.30159554310832e-05,-8.606757457132387e-06,5.4013803992700973e-05,-3.9533853822501016e-06,4.0083725080550637e-05
2025/04/09 09:49:47.495084432,1744184987,492959930,piren,0.00027763253900794953,-0.00022041027273662212,-8.947807056619136e-05,6.549679203892846e-05,-3.6703563185179054e-06,1.4639363672748196e-05
2025/04/09 09:49:47.549432430,1744184987,546813390,piren,0.00024697358171872505,-0.00010671382719288014,-4.4062358273683655e-05,7.192971513395155e-05,-3.2570361177014703e-06,0.0
2025/04/09 09:49:47.604841721,1744184987,601480831,piren,0.00022231476833269268,-3.759727354038129e-05,-1.6782557719478652e-05,7.509610420834389e-05,-2.6889040726983377e-06,6.994263907780655e-06
2025/04/09 09:49:47.666345027,1744184987,657246786,piren,0.0001678082591481538,-2.4807155553105154e-05,-2.610877552842956e-06,7.019273524898055e-05,-6.817309444675708e-07,0.0
2025/04/09 09:49:47.772111333,1744184987,769967705,piren,0.0001512430626431426,-1.4276902260938795e-05,4.93035473676625e-06,5.2642354603783554e-05,1.2697264263944722e-06,3.682727422416665e-05
2025/04/09 09:49:47.877918813,1744184987,875704168,piren,0.00013640832827193565,-7.944188564864466e-06,8.904156544964005e-06,2.573957515453053e-05,2.853432881321844e-06,3.5283394694153995e-05
2025/04/09 09:49:47.986462943,1744184987,983476589,piren,0.00011229872956641321,-7.991125143623913e-06,1.2223677548450364e-05,-5.54377752183673e-06,3.5818609489787175e-06,3.333973835635142e-05
2025/04/09 09:49:48.41590332,1744184988,39229267,piren,0.0001207172423203904,4.072778145678779e-06,1.4652445881772213e-05,-2.1228950402420162e-05,3.4859472452903452e-06,3.317520666083957e-05
2025/04/09 09:49:48.96470841,1744184988,94455358,piren,0.00013131203623147143,1.9544287367990655e-05,1.700598180052391e-05,-3.55447604450065e-05,3.308583093755451e-06,0.0
2025/04/09 09:49:48.150912934,1744184988,148900025,piren,0.0001394985908081974,1.3201695930078725e-05,1.643739616171338e-05,-4.8477967837097944e-05,3.030935416295821e-06,3.109542527612224e-05
2025/04/09 09:49:48.206220430,1744184988,203876066,piren,0.00015578695992658905,2.4277375640224467e-05,1.6036132954561315e-05,-5.887172494053602e-05,2.4220411743480652e-06,5.3267247390856065e-06
2025/04/09 09:49:48.261140868,1744184988,257187255,piren,0.00019951101362041863,7.53409577640348e-06,1.3728754827543059e-05,-6.677240014324867e-05,1.7505332187338999e-06,0.0
2025/04/09 09:49:48.314209118,1744184988,312330485,piren,0.00022598440902661665,4.7308433425995806e-05,1.1382962190153916e-05,-7.288921450156886e-05,4.532188421599196e-07,6.669817469486892e-06
2025/04/09 09:49:48.418043842,1744184988,415358400,piren,0.00026638301134429435,1.2312900194386442e-05,7.230445312244587e-06,-6.586441352626217e-05,-6.14699688421918e-07,5.315588773603411e-06
2025/04/09 09:49:48.524772157,1744184988,521179727,piren,0.0002979556876629104,7.156515986189177e-06,3.974360726231537e-06,-4.7106226842312064e-05,-1.7082911497249573e-06,5.2279155258813715e-06
2025/04/09 09:49:48.635405617,1744184988,633110361,piren,0.00031487095052475735,-8.44339857593884e-06,2.277770493010092e-06,-2.0114539529130703e-05,-2.5208492168814393e-06,4.899687683764299e-06
2025/04/09 09:49:48.692630984,1744184988,688861638,piren,0.0002952096094480594,-2.573055936324834e-06,1.4207105157837201e-06,-4.835826873171255e-06,-2.6959556290162783e-06,0.0
2025/04/09 09:49:48.747134426,1744184988,745021079,piren,0.000303602091079192,-4.545899838712169e-06,-5.84182732835428e-07,1.0172965144285293e-05,-2.4590882346009925e-06,2.0408990087609593e-05
2025/04/09 09:49:48.805636469,1744184988,799642688,piren,0.0002890938731414389,6.661372857208862e-06,-3.369531317124471e-07,2.5105080028782708e-05,-2.467365940824909e-06,4.709415208694796e-06
2025/04/09 09:49:48.855583687,1744184988,853565927,piren,0.0002949410147940101,-1.384664071485368e-05,-2.058137154460978e-06,3.833191664068453e-05,-2.594645020870512e-06,0.0
2025/04/09 09:49:48.909954153,1744184988,906958789,piren,0.0002657609634843468,-2.7177187433092273e-06,-1.2700812900686745e-06,5.9409544455006334e-05,-1.261941851080328e-06,4.60806281279716e-06
2025/04/09 09:49:49.14555928,1744184989,12064509,piren,0.00022785934657380672,1.0596747949396425e-06,-1.055174289573717e-06,6.96325100613636e-05,-3.940742482251608e-07,4.463457115323123e-06
2025/04/09 09:49:49.90647474,1744184989,88512884,piren,0.0002019380516415856,2.3135950713018447e-05,2.4090046943296206e-07,6.964972532750944e-05,1.1185441562672709e-07,5.185685121137457e-06
2025/04/09 09:49:49.144179703,1744184989,142094162,piren,0.000189245402756369,2.765477851780946e-05,3.338361541763801e-06,6.696589198036036e-05,3.773744507136513e-07,0.0
2025/04/09 09:49:49.200724755,1744184989,196258825,piren,0.00016210942460467983,1.1788982333679112e-05,6.005574460531352e-06,6.165681335516377e-05,9.714720302675626e-07,4.224125644437835e-06
2025/04/09 09:49:49.252463642,1744184989,250031024,piren,0.00014112275846532829,3.978220252793718e-06,4.554231496008475e-06,5.285163634997223e-05,1.462468274354183e-06,0.0
2025/04/09 09:49:49.307092428,1744184989,304700939,piren,0.00011011340060624414,3.3527769990011274e-06,5.478412981598769e-06,2.9190745747704214e-05,2.459543519456522e-06,4.0041659600587425e-06
2025/04/09 09:49:49.411417709,1744184989,409667392,piren,9.84873491298705e-05,1.3223803914864811e-05,5.383971886122116e-06,5.168776206805738e-07,2.453936835555127e-06,3.994521641430113e-06
2025/04/09 09:49:49.516702363,1744184989,514626063,piren,9.875672892264582e-05,3.173380076093253e-07,4.014154724932985e-06,-2.800498715850607e-05,2.349819007411004e-06,3.866465670595762e-06
2025/04/09 09:49:49.620339820,1744184989,617903012,piren,0.00011180267307044305,-7.576572819360241e-06,1.5500751042355881e-06,-5.11713491445197e-05,1.262858179790369e-06,3.750952846188032e-06
2025/04/09 09:49:49.725793465,1744184989,723614354,piren,0.00014648458104101698,-2.8258753711729235e-05,-3.119364488206053e-07,-6.500401799676792e-05,3.026686301168005e-08,3.573822191164265e-06
2025/04/09 09:49:49.832284929,1744184989,830230148,piren,0.00018516250259221418,-2.828400578138512e-05,-1.0842157688103189e-06,-6.708314789932791e-05,-6.107249748723858e-07,4.196773128191348e-06
2025/04/09 09:49:49.887855522,1744184989,885116134,piren,0.000253266036128221,-1.5042955521761508e-05,-1.734270776532494e-06,-6.342933889985058e-05,-1.146179426717112e-06,0.0
2025/04/09 09:49:49.944583357,1744184989,941016091,piren,0.00027405536646971627,-1.2902862009344792e-05,-3.3558003926410018e-06,-5.717432290243058e-05,-1.8191383356854535e-06,1.783543723965429e-05
2025/04/09 09:49:49.998524852,1744184989,996499734,piren,0.0002867643769925885,-1.1765067069081398e-05,-3.5736145015559225e-06,-4.8053119607970056e-05,-2.341042407393124e-06,3.065247469857763e-06
2025/04/09 09:49:50.54674829,1744184990,52221766,piren,0.00029334939671643795,-1.174949047414292e-05,-5.096298457110783e-06,-3.71117667021988e-05,-2.1866017511506283e-06,0.0
2025/04/09 09:49:50.111025486,1744184990,108727996,piren,0.00028892767799277577,-1.896666915098678e-05,-4.913575145761896e-06,-1.0556309207533017e-05,-1.7533995418463697e-06,3.1569481887571383e-06
2025/04/09 09:49:50.217668751,1744184990,215281827,piren,0.0002953417392251518,-2.0199110013098235e-05,-5.268926373914399e-06,1.7624816387462575e-05,-1.4615670101539403e-06,3.100993565657492e-06
2025/04/09 09:49:50.322275250,1744184990,320360253,piren,0.0003014431506930218,-2.7659509371994586e-05,-4.302183745023172e-06,4.233454184382842e-05,-3.7154205086493666e-07,3.6233485870455304e-06
2025/04/09 09:49:50.426134874,1744184990,423879873,piren,0.0002633905126650677,-2.1711054760569017e-05,-1.8871984572809396e-06,5.763712863636333e-05,1.0377858968653821e-06,2.9349424507615344e-06
2025/04/09 09:49:50.531728018,1744184990,529469665,piren,0.00023881350422640143,6.795151138211548e-06,9.359070231575965e-06,6.360401730294213e-05,1.4178907616844122e-06,2.748231153387936e-06
2025/04/09 09:49:50.637401568,1744184990,635486155,piren,0.0002041354058792603,2.2401911789086525e-05,1.7667939631808866e-05,5.997707188713505e-05,1.620632378582559e-06,2.747103908536342e-06
2025/04/09 09:49:50.693174810,1744184990,689968598,piren,0.0001677630081965172,3.634944558533771e-05,1.336775481947026e-05,5.371893880160506e-05,1.6369709229847117e-06,0.0
2025/04/09 09:49:50.746925188,1744184990,744926791,piren,0.00015371107489704108,1.8758119276128053e-05,6.732182064250513e-06,4.4445876300261947e-05,1.5642612881192745e-06,1.4506155139088255e-05
2025/04/09 09:49:50.802266453,1744184990,799794103,piren,0.0001286937613027242,4.347372167469738e-06,3.409037744616228e-06,3.3645055804724096e-05,1.3930433605120723e-06,2.624277111409191e-06
2025/04/09 09:49:50.857038595,1744184990,855171574,piren,0.0001036091779108686,1.3940242600542826e-05,-6.550795869673618e-07,7.66059980499252e-06,1.2792146196926357e-06,0.0
2025/04/09 09:49:50.965901981,1744184990,962878150,piren,0.00010362727120082258,1.0523246394780605e-05,-2.04283017058277e-06,-1.9458543660985326e-05,2.5579928175195904e-07,1.3497636180707738e-05
2025/04/09 09:49:51.73452930,1744184991,70742440,piren,0.00012385917450244885,-3.742010453465076e-06,-2.2762416507036553e-06,-4.289997699011061e-05,-1.0636647276445778e-06,1.2241056208806474e-05
2025/04/09 09:49:51.183220299,1744184991,180503036,piren,0.00017383885374329811,3.804039680440709e-06,-2.1952137182789357e-06,-5.84284491558649e-05,-1.8260172962550145e-06,1.2565905739454382e-05
2025/04/09 09:49:51.239873056,1744184991,237412112,piren,0.00020048129244879393,-1.4657858923077879e-05,-2.8195655077327364e-06,-6.237690586442222e-05,-1.3657120388117165e-06,1.257733870208523e-05
2025/04/09 09:49:51.295317518,1744184991,292989094,piren,0.0002182680711641869,-2.428687695746749e-05,-3.1209030663515305e-06,-6.3311955952116e-05,-9.825730051287348e-07,0.0
2025/04/09 09:49:51.351841192,1744184991,349620481,piren,0.00023651329734914107,-1.5131776719645527e-05,-4.4623689211077325e-06,-6.151379222397325e-05,-6.811404213043681e-07,1.1633741505933444e-05
2025/04/09 09:49:51.432488758,1744184991,428421929,piren,0.0002617606131885506,-2.0770954002907836e-05,-4.977280214217923e-06,-4.963962670388732e-05,-3.067984743061183e-07,2.068885150054443e-06
2025/04/09 09:49:51.539646740,1744184991,536645265,piren,0.0002843546421219314,-1.4688044963739404e-05,-4.676491345311312e-06,-2.8999634294507415e-05,-2.3160802151384726e-07,2.140256208236534e-06
2025/04/09 09:49:51.596154984,1744184991,593351947,piren,0.00029122187063851466,-1.0601471439158851e-06,-3.527947407005065e-06,-1.64059450300017e-05,-2.979020540160345e-07,2.133109986814763e-06
2025/04/09 09:49:51.651006891,1744184991,648787681,piren,0.00030621679932265635,-7.863702432706899e-06,-3.629656957045244e-06,-3.414591293780901e-06,-4.3191512041511533e-07,0.0
2025/04/09 09:49:51.708694859,1744184991,706376945,piren,0.00028852237926552576,-1.9409810705034032e-05,-2.0718641212346817e-06,2.2475312986816536e-05,-7.449291310167047e-07,2.025532899600086e-06
2025/04/09 09:49:51.816244068,1744184991,814126005,piren,0.0002643524193412752,-3.015697315922139e-05,-8.072536696227801e-07,4.410231522490558e-05,-8.910148054179902e-08,1.9549764969836426e-06
2025/04/09 09:49:51.925266350,1744184991,922400216,piren,0.0002619941245586252,-3.5040555991710024e-06,5.2899635060683085e-08,5.767500088732756e-05,3.1510864839159354e-07,1.925901605360239e-06
2025/04/09 09:49:52.32629449,1744184992,30656570,piren,0.00022496137063417735,-5.795593308127706e-07,2.4105611953142034e-07,6.077377613710061e-05,4.846054312220875e-07,1.8484400848283551e-06
2025/04/09 09:49:52.140371711,1744184992,138713349,piren,0.00018227790609500776,2.204893893888086e-05,1.5195672727634188e-06,5.293012414126593e-05,4.391963235811289e-07,1.7557785406094979e-06
2025/04/09 09:49:52.196597684,1744184992,194104084,piren,0.00014730944352586963,1.1738300925405474e-05,3.5024514631405623e-06,4.5589651699162476e-05,3.4636688296775665e-07,2.1259466476788048e-06
2025/04/09 09:49:52.253576325,1744184992,251523515,piren,0.00011281666928793212,1.406150727901571e-05,2.615366371897156e-06,2.46180277378432e-05,3.780551040362829e-08,0.0
2025/04/09 09:49:52.362873246,1744184992,360986286,piren,0.00010910453642446781,2.0521833725698775e-05,2.2451469081367465e-06,-5.300626057902076e-07,1.2772256593653113e-07,9.253073469035481e-06
2025/04/09 09:49:52.471728345,1744184992,469123063,piren,0.00011429267357419574,1.7151083903780613e-05,1.5723141592048481e-06,-2.5317902512973767e-05,8.59826846333822e-07,8.753893547492563e-06
2025/04/09 09:49:52.582127459,1744184992,578139992,piren,0.000161633850929918,9.006709856778369e-06,4.868416606732507e-09,0.0004063809741514532,0.00016803465692873798,8.548531827572783e-06
2025/04/09 09:49:52.692604176,1744184992,690129495,piren,-0.0009412651986528575,-0.0070916014898286285,-0.0028933941190262187,0.0025366708104346395,0.0004973911631531808,2.489890133218485e-05
2025/04/09 09:49:52.749823450,1744184992,747408043,piren,-0.0012793073080955449,-0.031062404551414256,-0.01286049347884487,0.002397172056639286,0.0006897225053523574,0.0001952465729194364
2025/04/09 09:49:52.810087350,1744184992,806098312,piren,-0.001320701678847022,-0.04050198025334241,-0.015823592695437826,0.003612588349684509,0.0007722583870220794,5.852107804335962e-05
2025/04/09 09:49:52.865238397,1744184992,862994397,piren,-0.00041483590821485267,-0.07977115979233376,-0.03703871290892204,0.005419981282899395,0.0008062870264358709,0.0
2025/04/09 09:49:52.976683739,1744184992,973466330,piren,0.0013525939235843282,0.0027721587022909813,-0.00048688764462346656,0.0053975490889009835,0.0007136599069790593,0.0002165384358844998
2025/04/09 09:49:53.90104312,1744184993,84031058,piren,0.003899438053573286,-0.09987632827906998,-0.04496536039973314,0.006147390846413182,0.00029111561671215904,0.00021880813993174544
2025/04/09 09:49:53.143159147,1744184993,141519460,piren,0.007412067857258489,-0.0765646587561662,-0.029572355742415186,0.004356197300825203,8.21681278953665e-05,0.0003747119496547899
2025/04/09 09:49:53.200340190,1744184993,197779060,piren,0.010851495531078201,-0.14142151300409464,-0.06406292808772754,0.004957715286356602,0.0002113571448732882,-0.00018574487311751403
2025/04/09 09:49:53.257012175,1744184993,254895390,piren,0.014193149792558991,-0.0666304130139545,-0.029451789938507663,0.001410639997140664,0.0006352003413193289,0.0
2025/04/09 09:49:53.367660233,1744184993,364749024,piren,0.02070273652052237,-0.027484828520229203,-0.011596366678263949,-0.0019938034639562507,0.000866697720440794,-0.006418995750160022
2025/04/09 09:49:53.474840720,1744184993,472616568,piren,0.029931578574054624,0.00400638649016985,0.0027097365413328886,-0.0035834018660544273,0.00036479694203617955,-0.011226211665715215
2025/04/09 09:49:53.583599948,1744184993,581202998,piren,0.04466272372127116,-0.01702843739289309,-0.0043811061112888575,-0.006805748387485481,-0.0004976070896427049,-0.014279971459406621
2025/04/09 09:49:53.694731335,1744184993,692450704,piren,0.06661361439763647,-0.16029942879869805,-0.08190797137629909,-0.006278083343216828,-0.001287782556105372,-0.0015918606674823561
2025/04/09 09:49:53.751646415,1744184993,749244460,piren,0.07653549998161933,0.03143367180205195,0.009998577450954579,-0.006884213066335953,-0.0014574786424989576,0.0
2025/04/09 09:49:53.860877647,1744184993,859153583,piren,0.08769842083245205,0.07914955169042165,0.03336665023982579,-0.005745644183654853,-0.0012794555071520713,-0.014573083815071785
2025/04/09 09:49:53.940387512,1744184993,937481627,piren,0.09532428876389429,0.07415470500623264,0.039084949149596024,-0.004467474690507188,-0.0012042379370881438,-0.016748169443269522
2025/04/09 09:49:53.997306909,1744184993,994401336,piren,0.10256396336131775,0.16744117219665383,0.07735695887213025,-0.002711589536612745,-0.0011569302415456635,-0.003414550119143736
2025/04/09 09:49:54.54292884,1744184994,51544356,piren,0.10870709436004572,0.16464511882927382,0.0850503899086186,-0.0013165794014352024,-0.0009168961936771586,0.0
2025/04/09 09:49:54.111079067,1744184994,109164235,piren,0.11388717868174107,0.22170239292151342,0.09624019341483098,0.00045659357626366557,-0.0007284833154930448,-0.003657288147487456
2025/04/09 09:49:54.220996589,1744184994,218337402,piren,0.12111903371646776,0.13275317774467754,0.06202160771041871,0.00513844795974127,-0.000943401234815928,-0.0037465623171673286
2025/04/09 09:49:54.331307146,1744184994,329108432,piren,0.1251033707407684,0.07268117164769199,0.04196703998235937,0.007088350042465533,-0.0005195632719811635,-0.0033350175992159343
2025/04/09 09:49:54.444635212,1744184994,441035461,piren,0.12818281904342116,0.12005523463607148,0.0487930650840602,0.006271300702309761,-0.00033753114609362067,-0.0026741826896171453
2025/04/09 09:49:54.503084392,1744184994,499103557,piren,0.12657692035995297,-0.03167156242749993,-0.011288633227837843,0.0070594984819123035,0.00035039401318703194,0.0
2025/04/09 09:49:54.558898081,1744184994,556891956,piren,0.1296427857462202,0.0577938552842085,0.02943689070131544,0.008035209483376016,0.0006864147310504868,-0.009242988485945736
2025/04/09 09:49:54.618562138,1744184994,614033538,piren,0.133442368789323,0.0963064924513141,0.04163689059818224,0.004519925710891866,0.0012365465715919075,-0.0020119303355012642
2025/04/09 09:49:54.726167274,1744184994,724275631,piren,0.1380962976983238,0.01779291659253994,0.010173727677630556,0.0013519628578093628,0.0013612245317317373,-0.001865944010520521
2025/04/09 09:49:54.835794753,1744184994,833953057,piren,0.14404882432469623,-0.13239923904767678,-0.04426444342791023,-0.0017396452367617616,0.0012542727444150327,-0.0016123126785261312
2025/04/09 09:49:54.893672552,1744184994,891203965,piren,0.14939584685997176,-0.23696229620298878,-0.07962542987823397,-0.0015050091049663766,0.001063340475682356,0.0
2025/04/09 09:49:54.950503003,1744184994,948062802,piren,0.15443414584246498,-0.30170474059613783,-0.14504785884257937,-0.0012008657974341566,0.0007976781966815733,-0.007444246866640561
2025/04/09 09:49:55.8411825,1744184995,6286162,piren,0.15892244027862013,-0.13048803433430264,-0.05475127190651799,-0.004448189925645798,0.0005253522113249663,-0.0011829494366455357
2025/04/09 09:49:55.66022188,1744184995,62843224,piren,0.16549871486570164,-0.10161626275134168,-0.03298195080186755,-0.007430177215101547,0.002586561039474134,0.0
2025/04/09 09:49:55.176095779,1744184995,173543179,piren,0.17313138899524436,-0.17767522740235211,-0.06720804264694988,-0.007898139780697727,0.001221020384685188,-0.01465527236514687
2025/04/09 09:49:55.232955819,1744184995,230943208,piren,0.18294919340795207,-0.16549243127995394,-0.06135577477813617,-0.006994632988064982,8.892780125702507e-05,-0.02853598365087037
2025/04/09 09:49:55.288833142,1744184995,286729999,piren,0.1921559378609214,-0.13992512449948313,-0.06052840947192829,-0.005347246908137479,-0.0014090937176726224,0.0
2025/04/09 09:49:55.346938273,1744184995,343835993,piren,0.19935148725088891,-0.0014371214548360414,0.0037257467064540284,-0.007435668675899995,-0.002318938894059074,-0.030851817461964037
2025/04/09 09:49:55.403476052,1744184995,401364288,piren,0.2017712253027821,0.14893689582191227,0.0583171497966908,-0.006234592280908297,-0.0028033622019683025,-0.005388682651411654
2025/04/09 09:49:55.461996468,1744184995,457469446,piren,0.20323781602356833,0.0483966629138314,0.021495762361189323,-0.0037221774623841597,-0.0036739262787842033,0.0
2025/04/09 09:49:55.570754554,1744184995,568970025,piren,0.20697031348074021,-0.04442692231958674,-0.012737237950996854,0.00022719187360522572,-0.0038618296267627027,-0.029978405668863825
2025/04/09 09:49:55.684931192,1744184995,681751776,piren,0.2092249839002994,-0.0740242149942071,-0.02151825005040851,0.0024314212185230846,-0.002709162031338832,-0.032914542744460776
2025/04/09 09:49:55.744047819,1744184995,739263658,piren,0.20595448596812554,-0.11411563650143701,-0.041226018294086834,0.004114367779271632,-0.0018920356191118332,-0.03087465450449507
2025/04/09 09:49:55.800531196,1744184995,797676173,piren,0.2051071757603443,-0.06223909218280532,-0.02222497601297015,0.005689792248208821,-0.0007349224041138737,-0.006166952865827295
2025/04/09 09:49:55.858414286,1744184995,855219829,piren,0.20360937689920916,0.088033148126138,0.04186367636677674,0.006173400061012395,0.0010872811250054913,0.0
2025/04/09 09:49:55.970457255,1744184995,967220615,piren,0.20484791324424576,0.0710308670783204,0.031076164821530486,0.005466885853053841,0.002557959795155216,-0.03067296809622834
2025/04/09 09:49:56.83372451,1744184996,80499276,piren,0.20636279946029468,-0.05537298493398026,-0.023792221002411355,0.007092554090201021,0.003150804496950431,-0.032958070084761905
2025/04/09 09:49:56.141146465,1744184996,139147932,piren,0.20540241416811417,0.06815804526225452,0.02925828665308215,0.0047062577511795545,0.003476788876827713,-0.03827613866754446
2025/04/09 09:49:56.200007084,1744184996,196698477,piren,0.20567906858400717,0.04166731180985426,0.017338471083920493,0.002105909604334964,0.003513935519255416,0.0
2025/04/09 09:49:56.257398876,1744184996,255246699,piren,0.20667292010353935,-0.07508864960057254,-0.03704371556338765,0.0023572896497819516,0.003358683821127086,-0.036927971639203125
2025/04/09 09:49:56.314833435,1744184996,312985729,piren,0.20956686021498022,0.07175615504375997,0.026867922707951273,-0.0008979163964631354,0.0024949501301961964,-0.007294072964166497
2025/04/09 09:49:56.396090406,1744184996,394134992,piren,0.21452554478783237,0.03203743598349359,0.012729396581307185,-0.003185752663236998,0.0016386039997869574,-0.007629058036075388
2025/04/09 09:49:56.455311997,1744184996,453045972,piren,0.22188932731407576,-0.021481627288616682,-0.009355782851544796,-0.004844107116795528,0.00019948165280598865,0.0
2025/04/09 09:49:56.570142025,1744184996,567201880,piren,0.22941811412760624,0.10849423505307058,0.035729541547709354,-0.00687562256836569,-0.0016061794664622975,-0.03589823389038503
2025/04/09 09:49:56.684410871,1744184996,682312775,piren,0.2372137972512167,-0.0519710217019132,-0.02874248638009442,-0.005572255690816327,-0.0027655806732135436,-0.03731935965562338
2025/04/09 09:49:56.743556253,1744184996,741298427,piren,0.23999419753212697,0.060596129267005715,0.026550788123297954,-0.005980347549516044,-0.003126734357683454,-0.041151453211803676
2025/04/09 09:49:56.804048688,1744184996,801298128,piren,0.24651352295615492,0.13648147587555376,0.06319595018058208,-0.004127075017864743,-0.003190974021961382,-0.009266049114159632
2025/04/09 09:49:56.916568614,1744184996,914560580,piren,0.25128665587588456,0.1743266285187672,0.05981265953448082,-0.003949418510546893,-0.002402101321830677,-0.008088336071254074
2025/04/09 09:49:57.30739636,1744184997,28407072,piren,0.25641859083618507,-0.032781702935909554,-0.017068995729498538,0.00032550980228456905,-0.001490029135929587,-0.008393988670506045
2025/04/09 09:49:57.88524821,1744184997,86652667,piren,0.25909536364604396,0.05647336106753751,0.021477921060935212,0.0015930526865142048,-0.001388085768284833,0.0
2025/04/09 09:49:57.147650330,1744184997,145353725,piren,0.26129558284843113,-0.04913186680442521,-0.014457756426041378,0.0024393928486975266,-0.00044061657078282206,-0.041793037458084416
2025/04/09 09:49:57.205628232,1744184997,203482842,piren,0.2605456007288854,-0.18043258329900166,-0.07741692190843918,0.004365988150352114,0.0005591421514825859,-0.0073817596822663735
2025/04/09 09:49:57.262965064,1744184997,260982712,piren,0.2578036966882159,-0.11094111963947077,-0.04314510512357964,0.0056522764431327305,0.0038868918996461804,0.0
2025/04/09 09:49:57.375677510,1744184997,372770092,piren,0.2557928604638424,-0.07628394783344443,-0.026801577075393056,0.006792942483150786,0.004785085081949168,-0.036670842566869054
2025/04/09 09:49:57.487551123,1744184997,485140828,piren,0.25881741980560263,-0.04837231652381148,-0.018318549608993543,0.007330242320055184,0.004036558387712486,-0.04568331168288847
2025/04/09 09:49:57.546039615,1744184997,544335334,piren,0.25750210363531173,0.07750324486187575,0.03347291208237648,0.006141317988479635,0.003301545090068692,-0.05082728343950565
2025/04/09 09:49:57.607236719,1744184997,602566596,piren,0.2572823492137817,0.04323070010574612,0.020060606794432757,0.005004417518906136,0.002373788284278693,-0.009759921420608114
2025/04/09 09:49:57.665291100,1744184997,661831249,piren,0.25699614910676377,0.019740044473404137,0.011269427965413097,0.001788839417983955,0.0002493571384673555,0.0
2025/04/09 09:49:57.780490510,1744184997,778302001,piren,0.2601857859988008,0.06355358033767858,0.024194292566115595,-0.0008254696924618373,-0.0021295186782824493,-0.049040542848368375
2025/04/09 09:49:57.894821774,1744184997,892587129,piren,0.26587228010560054,-0.06511373475006445,-0.033718331352884996,-0.0029163564294045303,-0.0034409249149504615,-0.05364222905474202
2025/04/09 09:49:57.952813101,1744184997,950508210,piren,0.2631417176765119,0.06313139518293712,0.022562735184948633,-0.004472801647503796,-0.0038432746747560113,-0.051532646872822614
2025/04/09 09:49:58.12366260,1744184998,10705310,piren,0.26557736237669477,0.026122859725203725,0.009573403006962541,-0.005966298023315244,-0.0038328579880468074,-0.010600800809704079
2025/04/09 09:49:58.125591620,1744184998,123430900,piren,0.268310742548032,-0.00367346826310785,0.00022654511869032122,-0.0077074941303104235,-0.0028608656902188692,-0.013437258858273682
2025/04/09 09:49:58.183777839,1744184998,181536288,piren,0.26831075655986686,-0.003663851009663925,0.0003381841184693314,-0.006588822499136329,-0.0025374204457903025,0.0
2025/04/09 09:49:58.243469669,1744184998,240759761,piren,0.27793393475901157,-0.14029940374225386,-0.053695363678719514,-0.006614441373213609,-0.0017713045942067253,-0.06151804810686294
2025/04/09 09:49:58.302945304,1744184998,299234722,piren,0.2825636181483324,-0.17715573156372433,-0.0748732874544312,-0.0059643634012408455,-0.000789977357347766,-0.01140340494086458
2025/04/09 09:49:58.362159712,1744184998,356871304,piren,0.2851457301800533,-0.11536820997531431,-0.047330170515324205,-0.0034361140632616,0.0010647329882299368,0.0
2025/04/09 09:49:58.472686063,1744184998,469988114,piren,0.2912966395713855,-0.05796735266294958,-0.022480666039439247,-0.0006632750379522641,0.002787664776055518,-0.06168443483417603
2025/04/09 09:49:58.586058069,1744184998,584130582,piren,0.2937328865369897,-0.016021458737661254,-0.004870330394853527,0.0019087148155917573,0.0035918368500829734,-0.06471996439931006
2025/04/09 09:49:58.646199525,1744184998,644114821,piren,0.2910555144286582,0.014664245770808059,0.007984537909996134,0.004167915097099366,0.003523192774810915,-0.06933469721349043
2025/04/09 09:49:58.705005112,1744184998,702176607,piren,0.29149424998418627,0.02151012602077779,0.011428286281356278,0.0060096527601078585,0.0032487962588745385,-0.014040568351489235
2025/04/09 09:49:58.763676854,1744184998,761373880,piren,0.2900367001708495,0.11715159061991463,0.054186922461831974,0.00611825203574704,0.0023242590326274055,0.0
2025/04/09 09:49:58.877903203,1744184998,875786238,piren,0.2902616599572667,0.188200154648664,0.061805321938513055,0.005263777677508073,0.0008899118410465892,-0.07129459542044876
2025/04/09 09:49:59.16974338,1744184999,14913842,piren,0.290069465420412,0.007202481206364123,-0.004397007947132827,0.006468607814494269,-0.001400649006971452,-0.008189946512951931
2025/04/09 09:49:59.132132691,1744184999,130032511,piren,0.2842452218649632,0.09165516000339739,0.03215109507731403,0.0011309514868958564,-0.0022184082576600637,-0.017515554299590713
2025/04/09 09:49:59.191775813,1744184999,188999721,piren,0.28570641472648073,0.06669722385457494,0.01973339091645724,-0.0008094814303387288,-0.002433454106077711,0.0
2025/04/09 09:49:59.250588396,1744184999,248214534,piren,0.2870418811750788,-0.06327923499138173,-0.03202623899674339,-0.00032198221861235213,-0.002529120660567053,-0.07858172128281123
2025/04/09 09:49:59.309077605,1744184999,307173875,piren,0.2874218235559351,-0.04517416789381236,-0.021323124639244996,-0.0026018622408987223,-0.00210518410443637,-0.015207894891012042
2025/04/09 09:49:59.423483791,1744184999,421319503,piren,0.288008968173665,-0.053938223742047264,-0.024036207600610936,-0.0057508967180475165,-0.00152142536714906,-0.01533630769224754
2025/04/09 09:49:59.538220107,1744184999,536183871,piren,0.2926600331135737,-0.020996229042261498,-0.009231527169250048,-0.0061013518595101415,-9.693292860488687e-05,-0.015676539976572652
2025/04/09 09:49:59.597142902,1744184999,594511769,piren,0.2970015886828876,0.024393821386095114,0.008770263251247285,-0.006719650788033178,0.00034236800917908345,0.0
2025/04/09 09:49:59.657561608,1744184999,655584499,piren,0.3034753617522091,-0.09419207178392096,-0.043589122544122595,-0.005317922149413289,0.001026626901356066,-0.08844108208012924
2025/04/09 09:49:59.773836063,1744184999,771490732,piren,0.30809252241220286,-0.0562011080366812,-0.027250446743343412,-0.005101669533820711,0.001526159985716261,-0.09337343220451486
2025/04/09 09:49:59.890577807,1744184999,888563887,piren,0.31388785940062536,-0.013403223860687308,-0.007949430413922123,-0.002664723790959082,0.0022082501304067047,-0.0909133361061763
2025/04/09 09:49:59.951004046,1744184999,947992472,piren,0.3084365706442267,-0.1070434396840764,-0.0500902523713443,0.0002410971378007756,0.0021797932127827126,-0.10417137847649878
2025/04/09 09:50:00.10984141,1744185000,8689076,piren,0.31115105525841363,-0.05700967873802105,-0.033700764774879065,0.0016137020339571837,0.0013856100327162362,-0.020115332694067456
2025/04/09 09:50:00.126188247,1744185000,124277376,piren,0.31090028557374205,0.11428056556358716,0.033122884397242806,0.0018859175159675328,0.0003228714652854584,-0.020887256674255766
2025/04/09 09:50:00.186200711,1744185000,183863771,piren,0.313656870735344,0.005257527280554669,-0.006617640411334946,0.004231558254891776,-0.00033345632488720767,0.0
2025/04/09 09:50:00.245589389,1744185000,243787620,piren,0.3151146452734392,-0.08046103258790176,-0.04333084500185608,0.006595473123351786,-0.0009304167734480158,-0.11313554681061104
2025/04/09 09:50:00.306044493,1744185000,304033018,piren,0.31256142743703524,-0.0334121668803546,-0.024585549087745337,0.006035964010973471,-0.0019187538091643913,-0.022118267647935716
2025/04/09 09:50:00.423206367,1744185000,420139401,piren,0.30676835649815787,0.1338398320850616,0.04176069282021146,0.004087895319702125,-0.002286630742964077,-0.022280402988065724
2025/04/09 09:50:00.538644732,1744185000,536150113,piren,0.305709262074757,0.0477995188598094,0.01322913870161419,0.003966100744829939,-0.002173945436682963,-0.022358628980615212
2025/04/09 09:50:00.596946788,1744185000,594820706,piren,0.30433362199185193,0.05519001579572279,0.019284140610879453,0.0034306565205850332,-0.001979008878659808,0.0
2025/04/09 09:50:00.657769535,1744185000,655333042,piren,0.3033400297468869,0.0546750306854798,0.016997920026642948,0.0010953805210601353,-0.0015854740529081721,-0.11959566800020001
2025/04/09 09:50:00.717346527,1744185000,714671747,piren,0.3036889495725371,-0.053654822512276885,-0.024526752599247775,-0.0017415855701958167,-0.00041058890486505456,-0.024341400294934944
2025/04/09 09:50:00.835165817,1744185000,832007375,piren,0.3017309932799932,-0.11021057266509784,-0.055530118742925974,-0.0018242178778905731,0.0009262254478992021,-0.02171536896886895
2025/04/09 09:50:00.893443436,1744185000,891501575,piren,0.30617192705751944,-0.0029447824616699314,-0.005932266841013706,-0.005448466999984673,0.0015597422230105278,0.0
2025/04/09 09:50:00.953481733,1744185000,951663886,piren,0.31204359565835676,-0.06310573505520593,-0.03166373080856946,-0.006203498226625294,0.0022196013381114606,-0.1125360562775115
2025/04/09 09:50:01.71551680,1744185001,69690265,piren,0.31945908098991344,-0.056425307203174735,-0.030880917507312783,-0.0047310523142524395,0.002282675401187642,-0.10850487666370272
2025/04/09 09:50:01.188287441,1744185001,186591323,piren,0.3238481725826659,0.0036424109767279125,-0.005051454759609599,-0.004357370046541402,0.001868754715820029,-0.10644805452440616
2025/04/09 09:50:01.249221517,1744185001,246968956,piren,0.3199774975814626,0.04514005594210066,0.010390161648035853,-0.0043433950795072835,0.001429886758337578,-0.10223504844036763
2025/04/09 09:50:01.309718858,1744185001,307690710,piren,0.32362000618366643,-0.03731673068954454,-0.02817313382744459,-0.0003803703343832394,0.00022572819333955185,-0.018372319982138677
2025/04/09 09:50:01.427193867,1744185001,423958641,piren,0.32537993736086684,0.1188787717815525,0.04682933961424703,0.0006490222720805356,-0.0009343390324467786,-0.017418994161215295
2025/04/09 09:50:01.567156669,1744185001,564461212,piren,0.33016692434767764,0.22324260115408046,0.0824203733369284,0.0028706990531171196,-0.002055504733580826,-0.01628724186078563
2025/04/09 09:50:01.685481498,1744185001,682444371,piren,0.3358157461026597,0.17576170447394351,0.06363920797086076,0.00510142061688821,-0.0020799140904375346,-0.07439510311478804
2025/04/09 09:50:01.745624981,1744185001,743343879,piren,0.3332287761809405,0.12484408468715767,0.05386004983433068,0.005906472387291136,-0.0018035761553275031,-0.07311111448469385
2025/04/09 09:50:01.807003926,1744185001,804804215,piren,0.33110600576937826,0.2038763452092729,0.08439241096207996,0.007531564503696801,-0.0009289335691868855,-0.012844437393101696
2025/04/09 09:50:01.923622836,1744185001,921753686,piren,0.3281579578974784,0.2006685829315202,0.07449884495621815,0.005121137593540462,1.0221009190158198e-05,-0.011906462445828048
2025/04/09 09:50:02.41630032,1744185002,39911088,piren,0.3291117695858509,0.10815224645932377,0.036869909795862674,0.0023308529271149213,0.0009395291281597,-0.01117248054606318
2025/04/09 09:50:02.103060965,1744185002,100058783,piren,0.3295892427905068,0.031541943004730046,0.006226157418933699,0.0033023830820790414,0.001356404871908821,-0.010207525123090401
2025/04/09 09:50:02.162974678,1744185002,160533813,piren,0.33081684990049015,-0.03699035733726759,-0.019246323592031874,-0.00011944016633441482,0.0020824492014282995,0.0
2025/04/09 09:50:02.280576191,1744185002,278496891,piren,0.333993008479562,-0.15424957525553268,-0.07022519038931997,-0.0031763280142244918,0.002518607285378776,-0.04910903209632604
2025/04/09 09:50:02.397777685,1744185002,395462200,piren,0.33716051817454573,-0.15722100813402626,-0.07613218624180246,-0.003656717012229946,0.0021018734101412393,-0.04480229201386373
2025/04/09 09:50:02.458437325,1744185002,456056978,piren,0.33683344842630825,-0.10395410936860984,-0.05316393746689279,-0.004763244680425176,0.001649484300645238,-0.04404428819703917
2025/04/09 09:50:02.518954336,1744185002,517181881,piren,0.3432273839211655,-0.055526530299640595,-0.03008769605025691,-0.006744031864268221,0.0004426573663995514,-0.00751070439168537
2025/04/09 09:50:02.638229254,1744185002,634818905,piren,0.3484410734388484,-0.0817103031034839,-0.050629603857757305,-0.004750268874514503,-0.0008231049994255751,-0.006804959228992842
2025/04/09 09:50:02.698186365,1744185002,695870282,piren,0.3537677306580542,0.07757368111135263,0.024133683990247092,-0.004237331574130214,-0.00129826631633146,-0.006128426668884787
2025/04/09 09:50:02.762171698,1744185002,759640841,piren,0.3577184566589626,0.18016844688759664,0.05094823876556304,-0.005986017879719686,-0.002131243927209148,0.0
2025/04/09 09:50:02.881412524,1744185002,879316452,piren,0.35937362305457365,0.03237855246971254,-0.0004345446304604726,-0.0025817827797840094,-0.002604215153147704,-0.025350450378240002
2025/04/09 09:50:02.944170213,1744185002,942192199,piren,0.35769625015886186,0.04219756810995015,0.00728440828469459,-0.0023028220041934754,-0.002480435200866713,-0.02652233754661448
2025/04/09 09:50:03.9134627,1744185003,4883280,piren,0.3552121311056508,0.06121636164490393,0.02059951043786668,0.0027950254174842165,-0.00197242317890392,-0.004041547199593194
2025/04/09 09:50:03.128266098,1744185003,126159773,piren,0.3504023332223599,0.160031160954114,0.046300466388520437,0.0027531939059473056,-0.0004971679189771761,-0.002975594984995277
2025/04/09 09:50:03.249314136,1744185003,247181945,piren,0.340983987674746,-0.1016860704089865,-0.05335782586090158,0.0033875728290936854,0.0009878516772688082,-0.002338291451858297
2025/04/09 09:50:03.310733543,1744185003,308479377,piren,0.33701360967597155,-0.07149346076821633,-0.039491026974987097,0.005374333659760471,0.00210909987717354,-0.0016286835422198553
2025/04/09 09:50:03.429010660,1744185003,426305393,piren,0.3354437309970753,-0.014550697984548822,-0.014121382879826058,0.005255151466267621,0.0027665425824764953,-0.0007165084948710735
2025/04/09 09:50:03.488966137,1744185003,486562133,piren,0.3304374005102362,0.022033513254381607,0.002303599787426643,0.004907403576050198,0.004087053046071707,0.0
2025/04/09 09:50:03.550573411,1744185003,548455788,piren,0.3244244795402518,0.08183293688914624,0.028245596549029202,0.0013497589574796743,0.0034891837571580926,-0.0025925167982941166
2025/04/09 09:50:03.668861718,1744185003,666917974,piren,0.3215357155677153,0.09719121596325134,0.03727185010666825,0.001504138165359869,0.0013473489098421662,-0.0036242737620697063
2025/04/09 09:50:03.790311653,1744185003,786856401,piren,0.31808905053622755,0.1693004465192315,0.052912350199483246,-0.0033488627516286918,-0.00016846369381954288,0.0007101605642110947
2025/04/09 09:50:03.851144586,1744185003,849207531,piren,0.31406244081097845,0.03713141871867506,0.00438825239475068,-0.0031635379934433017,-0.0008539890058598711,0.006404876135897494
2025/04/09 09:50:03.912715735,1744185003,910429790,piren,0.3105518044711103,0.03382664174683482,0.0034914655799895894,-0.005123405757981944,-0.0021805523714491983,0.0018773097344760934
2025/04/09 09:50:04.35194139,1744185004,31038238,piren,0.3068774360513755,-0.014347203824665616,-0.016457979519718974,-0.005670255654206322,-0.0028193736203224098,0.0025432873957328002
2025/04/09 09:50:04.94144702,1744185004,92243624,piren,0.30434659763120864,0.10655796970019424,0.03390672900106318,-0.007131533405423606,-0.0027751438124806065,0.0
2025/04/09 09:50:04.157699460,1744185004,154330877,piren,0.30247525189905805,0.08870164857230857,0.022446274171601593,-0.00710746780914018,-0.0026421175461278346,0.01676065927685107
2025/04/09 09:50:04.218662799,1744185004,216376352,piren,0.30187122203922656,-0.04872906182511181,-0.03117397322637171,-0.005601907684942976,-0.002045108715574689,0.0035064098813751975
2025/04/09 09:50:04.303341322,1744185004,301134563,piren,0.30552046029731533,-0.020722559298350547,-0.015663482399853927,-0.0030969410573872046,-0.0013890572218749355,0.0050090884703973
2025/04/09 09:50:04.424683720,1744185004,421638308,piren,0.3010296333778839,-0.12531447089770206,-0.06463590215411819,-0.0014802888165635674,0.00031111886837749907,0.005034898927473311
2025/04/09 09:50:04.545577722,1744185004,542428360,piren,0.2912698970328348,-0.003653327897533847,-0.007618458455927991,0.0009034848575711183,0.0017229802913004395,0.005144276692599531
2025/04/09 09:50:04.608867803,1744185004,604554300,piren,0.28469266681801536,-0.08534415652176572,-0.045181714188757494,0.0035104295282719768,0.002558418175218806,0.005180540324530509
2025/04/09 09:50:04.728016855,1744185004,726093631,piren,0.276970311445997,-0.016630954950207878,-0.013647012892719265,0.00554368538365972,0.0029762928924361204,0.005224556689351569
2025/04/09 09:50:04.790460682,1744185004,787465132,piren,0.27050400804543767,-0.02908306201587985,-0.017270890601649245,0.005579248997267095,0.0024873215601360723,0.0
2025/04/09 09:50:04.853266681,1744185004,850904428,piren,0.2671768558561551,-0.06585546285216594,-0.036134982877067616,0.005000610152803331,0.0017747537494539178,0.0270150522883695
2025/04/09 09:50:04.919852909,1744185004,915062574,piren,0.26183784596374954,0.01321093571706598,-0.0010402210756314588,0.007635955540740856,0.0009053132083272438,0.0059376595517313425
2025/04/09 09:50:05.42413571,1744185005,39843666,piren,0.2514836311491176,0.14421158162549255,0.04152336243661306,0.003407135775147228,-0.0003871330884392362,0.005891878944932149
2025/04/09 09:50:05.107381844,1744185005,104391203,piren,0.2431219977768112,0.01600121053898781,-0.0047705486505955725,0.0029258194585361913,-0.0008566619705834743,0.006089538097505076
2025/04/09 09:50:05.171042996,1744185005,167862005,piren,0.2354161082798965,0.04537773508689688,0.009921513752755863,0.0008828760936768693,-0.001710763299870354,0.0
2025/04/09 09:50:05.294171830,1744185005,292089802,piren,0.23000251666239957,0.03635611053211941,0.009214100998009914,-0.0019906314228407608,-0.002630791428117185,0.02573414805844251
2025/04/09 09:50:05.359084240,1744185005,356695269,piren,0.23049967120723683,0.05587265446547955,0.018830717005582615,-0.005244559724164533,-0.00237785627635314,0.03296456177814448
2025/04/09 09:50:05.484935336,1744185005,481865905,piren,0.2239254266006071,0.07249039114014669,0.02354853170003004,-0.005906430106658467,-0.00117821277212632,0.02584307854971016
2025/04/09 09:50:05.548109570,1744185005,546076622,piren,0.2209782170234942,0.003546881476042485,-0.0031716087306192927,-0.005895862683087482,-0.00048713536298564537,0.03340197340700049
2025/04/09 09:50:05.613514631,1744185005,611327351,piren,0.216938984553403,0.03364427503298215,0.01126047721029811,-0.004313895008745586,0.0005345568623133682,0.005858397865390738
2025/04/09 09:50:05.744422920,1744185005,742062254,piren,0.21350046036500142,0.09572303607794305,0.036369277707749566,-0.004860183831082407,0.0016750470495602333,0.005867890552223441
2025/04/09 09:50:05.810561782,1744185005,806249685,piren,0.2100370848222039,0.0935287099990286,0.04101820063106951,-0.0017214951559176442,0.0021047480718842954,0.0056544966629224255
2025/04/09 09:50:05.873207541,1744185005,870479998,piren,0.20561974341155498,0.1764822339945931,0.07934951692940305,-0.0005902709190989871,0.0024757503244958777,0.0
2025/04/09 09:50:05.999310591,1744185005,994951967,piren,0.20149474556792105,0.2389644152691509,0.08715039570019929,0.002821854722679367,0.002206767317320069,0.02927475268879876
2025/04/09 09:50:06.63300281,1744185006,60725926,piren,0.19790673825327107,0.12112451999318849,0.05156077689126452,0.0037996151611195904,0.001518845384851725,0.026806346525072425
2025/04/09 09:50:06.185055892,1744185006,182385110,piren,0.18994659823591212,0.18217285521216192,0.052940845270951914,0.004597459690037612,0.0003711501977325898,0.02841666686293479
2025/04/09 09:50:06.248682649,1744185006,246373801,piren,0.1826387149435772,-0.023896425307913423,-0.020103850400851823,0.0054715991636836514,1.6808540238153338e-05,0.030503685681878213
2025/04/09 09:50:06.312309535,1744185006,308997997,piren,0.17364545437064416,-0.15509034919396814,-0.07699677756591969,0.005746271351453345,-0.001528892184748115,0.005727082736443674
2025/04/09 09:50:06.435078829,1744185006,431690080,piren,0.16836727052559256,-0.1087301679941918,-0.06096209350275291,0.005090978182597219,-0.0030528501667330763,0.006572011313803288
2025/04/09 09:50:06.497250770,1744185006,495200108,piren,0.16344753736462705,0.03471975213004192,0.006097156957012166,0.0024905414840446197,-0.002468653410606318,0.0
2025/04/09 09:50:06.559488207,1744185006,557613990,piren,0.15020805518982133,0.023893049415252138,0.004135160198205836,0.00023249492974649602,-0.0010233484307961705,0.03929108327089831
2025/04/09 09:50:06.682388947,1744185006,680731403,piren,0.1402299168905998,-0.09874298753925322,-0.045251171922754005,0.0002718460694813977,0.0005195267333152558,0.026718725072561327
2025/04/09 09:50:06.749984790,1744185006,747079663,piren,0.13672043882527454,-0.08922163824420426,-0.036454251160707406,-0.0016721938349731856,0.000873311992408108,0.027537052559833144
2025/04/09 09:50:06.815910884,1744185006,812516017,piren,0.1389970008813327,-0.10943610045680448,-0.039942999677357274,-0.003966431468935675,0.0005714558420851124,0.00531595093801565
2025/04/09 09:50:06.944076897,1744185006,941703390,piren,0.13930051020339004,-0.16044307357188867,-0.07164817228097936,-0.0055007484356354545,0.0014201896211293334,0.004659851032132464
2025/04/09 09:50:07.36151344,1744185007,33363607,piren,0.13500029645462286,-0.07076773506969658,-0.030892792968631805,-0.004801275253560395,0.0010850722026887424,0.003858262398521165
2025/04/09 09:50:07.99670997,1744185007,97624062,piren,0.13628284649673,-0.023830167651829746,-0.00981845213271696,-0.005035775222309452,0.000874169745830566,0.0
2025/04/09 09:50:07.164565885,1744185007,162004968,piren,0.13587223421842531,-0.025710655087775144,-0.009114649079004873,-0.003539078533600809,0.00023380085138357577,0.019287555984636225
2025/04/09 09:50:07.289301252,1744185007,287044569,piren,0.13423423544768043,-0.10864214839654647,-0.04942347485055196,-0.0013117131073419408,-0.0010176757973969666,0.016327857353418507
2025/04/09 09:50:07.353694702,1744185007,350547833,piren,0.13466712256409566,-0.04588226635418538,-0.023902799879758595,0.0006222214198993378,-0.0013709727147622679,0.017541280625842745
2025/04/09 09:50:07.416586064,1744185007,414486346,piren,0.1315031649963905,0.06935145570159884,0.03209339664872195,0.00034297402444706727,-0.0017557346529036347,0.003383248657948156
2025/04/09 09:50:07.540507279,1744185007,538218710,piren,0.12467198975089656,0.2081380036873575,0.08094574673121216,0.003296404166242764,-0.0014884158354942154,0.003308522432884421
2025/04/09 09:50:07.607153587,1744185007,602014365,piren,0.13050732677199225,0.15453336131169057,0.053521916169567155,0.0017613887114671632,-0.002308589021789308,0.0
2025/04/09 09:50:07.667689748,1744185007,665824931,piren,0.1217885441287482,0.024970042222536182,0.00900227990215765,0.004963941896216845,-0.0027493340312768153,0.0050834197815448805
2025/04/09 09:50:07.794297262,1744185007,792002410,piren,0.11208906391823305,0.13830045370815297,0.04809816562387521,0.004204222469054824,-0.0024165641724793597,0.0
2025/04/09 09:50:07.859118593,1744185007,856671573,piren,0.11278994190434327,0.01665367065660583,0.0036801619204666217,0.003506074164457588,-0.0008545774862374552,0.020614784535397782
2025/04/09 09:50:07.987630030,1744185007,984567962,piren,0.09040575779457909,0.007466842724248091,0.0030789365400979494,0.0030927349707784006,0.0018794360737477995,0.03264068721179581
2025/04/09 09:50:08.52682502,1744185008,50307506,piren,0.0903852992924359,-0.007733317765500035,-0.0014196588842960616,0.001253513512957029,0.002876326006671235,0.033437584055687086
2025/04/09 09:50:08.116956536,1744185008,113936783,piren,0.08802349565348948,-0.11855089260736887,-0.060986606759807466,0.0003897147133805061,0.005148407747881108,0.006421677291439007
2025/04/09 09:50:08.240586845,1744185008,238182999,piren,0.08445226286676939,0.042808288405216076,0.012283375342599157,-0.0014317559431656916,0.005557594661460208,0.005074594576893168
2025/04/09 09:50:08.306768396,1744185008,302551756,piren,0.08399010300956428,0.02680635844951322,0.00755578682982117,-0.002907524980733588,0.005123702270177402,0.0
2025/04/09 09:50:08.368272852,1744185008,366107809,piren,0.08636906708433217,0.0014654712890990232,-0.0018918879721071577,-0.002325035888813973,0.0037233354930314203,0.005205513855316376
2025/04/09 09:50:08.493617466,1744185008,490494211,piren,0.08617090514933491,0.10875627120826183,0.041123691364410686,-0.004187695834879798,0.00011406175992965317,0.0
2025/04/09 09:50:08.558857642,1744185008,555417846,piren,0.09931958593701073,0.06842015677180546,0.028796817422289886,-0.0016703977565727345,-0.0035389233376724068,0.018418405856515982
2025/04/09 09:50:08.684900383,1744185008,682200086,piren,0.09724512339793488,0.10655853758725488,0.04834391447549667,-0.0008514077670356956,-0.006068049031000107,0.025884372037420805
2025/04/09 09:50:08.750889105,1744185008,747379757,piren,0.09919752661757889,0.14677150450309567,0.06971499340456089,-0.0027548253663431735,-0.006262923199863916,0.0293011898769481
2025/04/09 09:50:08.814601005,1744185008,812365259,piren,0.09527123401603335,0.19687831141728898,0.07564711368686336,0.0001694698130728776,-0.004971283829697188,0.005557417166285184
2025/04/09 09:50:08.940305348,1744185008,938276740,piren,0.09127566480981045,0.06985649280315587,0.03159119619230977,0.002881428736522444,-0.005317206766328806,0.005467249019597844
2025/04/09 09:50:09.5642869,1744185009,3363572,piren,0.08615722166303569,0.07427838974107197,0.031070800303218283,0.002502097759326171,-0.004765146040413849,0.00741667790677753
2025/04/09 09:50:09.69128928,1744185009,67075252,piren,0.08437164329736922,-0.01633966770757785,-0.0034897347542850003,0.0018380740166516123,-0.0024657282973944194,0.0
2025/04/09 09:50:09.195642079,1744185009,193274519,piren,0.08731163779896244,-0.05193885695649117,-0.01377845528853139,0.0034426671616407706,0.0010143411888502013,0.04614209752202982
2025/04/09 09:50:09.260502378,1744185009,257704831,piren,0.07166527005000131,-0.19779938720744705,-0.0962735511500632,0.004678335379530596,0.00707927990495194,0.056684320212651865
2025/04/09 09:50:09.388453291,1744185009,386022188,piren,0.06177814155188704,-0.05595021054573805,-0.026322696599972606,0.002588024765763091,0.010756464966805004,0.043614398117451963
2025/04/09 09:50:09.455415593,1744185009,453177768,piren,0.06522737695808233,-0.05278209744763369,-0.022137224675871793,0.002272145745999859,0.011465523625793315,0.027318120062048368
2025/04/09 09:50:09.584940951,1744185009,582654015,piren,0.060269961044972564,-0.11073364148355729,-0.04163791285122231,0.000450018669367833,0.00876825862967325,0.017551739785272833
2025/04/09 09:50:09.654028740,1744185009,649733797,piren,0.06800547706399136,-0.19471303282027627,-0.08033524628949992,-0.00038724958189520356,0.006136282341707276,0.005709907522107037
2025/04/09 09:50:09.721600012,1744185009,718588074,piren,0.07429351587024403,-0.18554934480898236,-0.07864607197618795,-0.0011644227449065334,-0.00029416915103248355,0.0007129989589368805
2025/04/09 09:50:09.809667881,1744185009,806584980,piren,0.07841512543052415,-0.14323565127379226,-0.06914425878381879,-0.0015993368096553502,-0.006371900381570375,0.0006255133092208741
2025/04/09 09:50:09.937677517,1744185009,934964004,piren,0.07811867100696812,-0.015747798304972346,-0.008598812850063437,-0.0031473332384826603,-0.01045123068987588,0.00011295996310185678
2025/04/09 09:50:10.3655290,1744185010,875982,piren,0.0806548041980634,0.012105094630903729,0.005915837213035805,-0.0026499964531803027,-0.012011135820531912,-0.0006398842387522651
2025/04/09 09:50:10.66888709,1744185010,64689089,piren,0.0823256962698448,0.016784085528258386,0.011069596307331906,-0.0038448358520494262,-0.01281502283286359,0.0
2025/04/09 09:50:10.194135490,1744185010,191058200,piren,0.08203968117065427,0.030208936322360377,0.020718351664606265,-0.0028169995960430727,-0.011262005178287834,-0.004021598290530713
2025/04/09 09:50:10.258738304,1744185010,256304152,piren,0.0828115107124568,0.08524696264748874,0.03680251731158924,-0.0008267751900170965,-0.006308163323456093,-0.0018425298577813233
2025/04/09 09:50:10.385050614,1744185010,382241964,piren,0.07980185164653715,-0.07406942204713876,-0.026059541815607684,0.0008783456130778484,0.00010152981912955063,0.001430988544139348
2025/04/09 09:50:10.450436860,1744185010,448378333,piren,0.07740528017536467,-0.057013854269451616,-0.01796034813498337,0.001340349182966103,0.0032979914767275616,0.0005943617738904707
2025/04/09 09:50:10.515048458,1744185010,513187215,piren,0.0761502924335532,0.0006564243960691168,0.0071255517098930835,0.0010159993024511985,0.009088796693835973,-8.755746316227638e-05
2025/04/09 09:50:10.642802773,1744185010,640433973,piren,0.06720865531805519,0.02231346751941697,0.016728431082891067,0.003235907697176807,0.013297588118962624,-0.0011622017525033824
2025/04/09 09:50:10.708531458,1744185010,706793200,piren,0.07539648489789005,0.1056004801418455,0.04586687515745973,0.0033679024017941187,0.012701251194123702,-0.002120813601281176
2025/04/09 09:50:10.836879367,1744185010,834978167,piren,0.07876783899353451,0.06978941413054354,0.033449143819425785,0.00459795849360518,0.008892447189408419,-0.001639821528580075
2025/04/09 09:50:10.904895905,1744185010,901125294,piren,0.08066107030473199,0.1420106126205603,0.06411805973140992,0.0032511029358098546,0.004114543178714137,-0.001289523715705946
2025/04/09 09:50:11.35483980,1744185011,33422750,piren,0.08165821707625855,0.18996288478594578,0.07058713130241193,0.0016552680598983908,-0.0017456236316159162,-0.0012217005736913996
2025/04/09 09:50:11.102831748,1744185011,100384680,piren,0.08183605888617244,0.0981316261304235,0.029869789750869173,-0.00018970924427322048,-0.004131020675016858,0.0
2025/04/09 09:50:11.170663791,1744185011,168511478,piren,0.08149656922040757,-0.04866624566987513,-0.02587747514263055,0.00010020895190229508,-0.009340439410896025,-0.0016313485583733633
2025/04/09 09:50:11.300606387,1744185011,297997670,piren,0.08504073875364306,-0.06490632528449933,-0.03399872018285607,-0.001371373156838269,-0.01206256753559846,0.0
2025/04/09 09:50:11.367091375,1744185011,364653261,piren,0.08643347556763097,0.048259913241751114,0.020062905010403902,-0.0012496239061306391,-0.008756702300501734,-0.0021150977928482318
2025/04/09 09:50:11.494740005,1744185011,492120754,piren,0.06988416081955427,0.10134872910027776,0.04197969451465013,-0.0034996118306246087,-0.004237965211344985,-0.002609875798669003
2025/04/09 09:50:11.562728978,1744185011,557790159,piren,0.07384370265230719,0.032556566738693865,0.019754437532320195,-0.0015370662307427757,-0.0020417905431741163,-0.020914066614701386
2025/04/09 09:50:11.688752784,1744185011,686613894,piren,0.0807868455706121,0.08406282372506327,0.038129639591687005,-0.0016946671418868967,0.0008814649309217014,-0.01486567182533487
2025/04/09 09:50:11.755714993,1744185011,753548647,piren,0.08645548850327313,-0.002449605856236897,0.004796117359128008,-0.0014559159619904418,0.005275322358916653,-0.01499550209688359
2025/04/09 09:50:11.886107566,1744185011,883026326,piren,0.09001289929932572,-0.07700457462307322,-0.02803699918005693,0.001514718306257486,0.007505196220659943,-0.014271036923694743
2025/04/09 09:50:11.954142710,1744185011,950241051,piren,0.09354543154370737,-0.04874322267950757,-0.01493759012070977,0.0002335676841725939,0.007986839280128905,-0.017467414829161833
2025/04/09 09:50:12.42593667,1744185012,40722492,piren,0.09668984860580854,-0.06436634332015652,-0.017856246475833365,0.0014058258586588546,0.008110710314646791,-0.003662530692071297
2025/04/09 09:50:12.108831557,1744185012,106623135,piren,0.09902865589228006,-0.1886385084157963,-0.0672528570142216,0.0017172006086090552,0.0060872056127229575,-0.004777685165193637
2025/04/09 09:50:12.237232337,1744185012,235350264,piren,0.10163546255982718,-0.2376783990579886,-0.11265831878507492,0.004493140009750485,0.002020048751262628,-0.005519362056403603
2025/04/09 09:50:12.302282538,1744185012,300022662,piren,0.10257311222154564,-0.09964650015068424,-0.05301408677274489,0.002972339028204368,-0.00022377075616300087,0.0
2025/04/09 09:50:12.369537236,1744185012,367107130,piren,0.10275597183693219,0.05303261100079851,0.01659825177126674,0.0014603075216430355,-0.0033631636314875087,-0.02937141851516104
2025/04/09 09:50:12.500756810,1744185012,496832725,piren,0.1036671980096041,0.04050665548462922,0.014850368896433886,0.0014955529543335124,-0.006978495894565828,-0.004334956896168578
2025/04/09 09:50:12.565620953,1744185012,562828856,piren,0.10148755131805508,0.014696903844021518,0.008532663530874571,-3.581777808136059e-05,-0.011200153662873885,0.0
2025/04/09 09:50:12.694091037,1744185012,691652748,piren,0.11626348595982167,0.0015856347768367605,0.005337982662368895,-0.0019311486072973692,-0.010613134619991634,-0.033184851428550106
2025/04/09 09:50:12.760759285,1744185012,758545244,piren,0.10654054517382001,-0.010642611684106571,0.0032447254372019586,-0.002536124022116973,-0.00667242940654817,-0.01569784611134748
2025/04/09 09:50:12.894519262,1744185012,890500368,piren,0.10280855909918488,-0.09594675743833121,-0.026558232978069002,-0.0032608499341581355,-0.0016718813534894025,-0.018301162993484627
2025/04/09 09:50:12.962162972,1744185012,958849351,piren,0.10104023450324394,-0.1756572029852484,-0.07297879068657745,-0.002389666893780569,0.003511314003887455,-0.02067801303825297
2025/04/09 09:50:13.90731795,1744185013,88159139,piren,0.10299610802703645,-0.07224338547017106,-0.022110287586095956,-0.002230018082682049,0.00768608669125348,-0.01924713641246836
2025/04/09 09:50:13.157442831,1744185013,155363865,piren,0.10548264692495084,-0.09840119547730357,-0.045006484079548575,-0.00045921467623246325,0.01007154169442936,-0.019911807256476195
2025/04/09 09:50:13.287249727,1744185013,284559844,piren,0.11011319690035982,0.06906112468779399,0.029436710143937127,-0.0006555157651426489,0.009232267363741591,-0.018977473822161667
2025/04/09 09:50:13.355012818,1744185013,351677820,piren,0.11482553848530432,0.1135055124861538,0.05376869499544789,0.000594383213538887,0.008316451271257385,-0.016844990829597475
2025/04/09 09:50:13.420832231,1744185013,418446879,piren,0.11788102837445125,0.2091452833672594,0.06870173584868722,0.00013504279984624852,0.004906352663608171,-0.0023623202901419207
2025/04/09 09:50:13.552205398,1744185013,549749950,piren,0.12915738879009464,0.030476136096291524,0.00481995841868882,0.002393276711791383,-0.0017204896186087026,-0.001459339184982437
2025/04/09 09:50:13.682711768,1744185013,680621994,piren,0.1274756026337843,0.01870252410759883,0.0028506457630769204,0.0022250178273864035,-0.004994313792057992,-0.0014244581780103007
2025/04/09 09:50:13.750432180,1744185013,747929399,piren,0.12483349895873165,0.015003362299083696,0.004975601057767285,0.003186798561619225,-0.006169748333432444,0.0005820621568649835
2025/04/09 09:50:13.816917069,1744185013,814817957,piren,0.12321286415591015,0.12115112076175848,0.03814786796898323,0.002164608770578676,-0.006958340919605749,0.00016425057934170385
2025/04/09 09:50:13.946550420,1744185013,944375676,piren,0.12249233698645445,-0.05513174542762946,-0.03147120949397968,0.0020211309426976993,-0.006870845704307726,3.5488722461218084e-05
2025/04/09 09:50:14.13577134,1744185014,11413642,piren,0.12231913184370899,0.0635551413687734,0.02328732332284801,0.00032382227593301854,-0.0051885489778645015,0.0003940666564913204
