time,header_stamp_secs,header_stamp_nsecs,header_frame_id,orientation_x,orientation_y,orientation_z,orientation_w,orientation_covariance_0,orientation_covariance_1,orientation_covariance_2,orientation_covariance_3,orientation_covariance_4,orientation_covariance_5,orientation_covariance_6,orientation_covariance_7,orientation_covariance_8,angular_velocity_x,angular_velocity_y,angular_velocity_z,angular_velocity_covariance_0,angular_velocity_covariance_1,angular_velocity_covariance_2,angular_velocity_covariance_3,angular_velocity_covariance_4,angular_velocity_covariance_5,angular_velocity_covariance_6,angular_velocity_covariance_7,angular_velocity_covariance_8,linear_acceleration_x,linear_acceleration_y,linear_acceleration_z,linear_acceleration_covariance_0,linear_acceleration_covariance_1,linear_acceleration_covariance_2,linear_acceleration_covariance_3,linear_acceleration_covariance_4,linear_acceleration_covariance_5,linear_acceleration_covariance_6,linear_acceleration_covariance_7,linear_acceleration_covariance_8
2025/04/09 09:59:47.403630582,1744185587,401219834,mA1/imu,0.705493464425513,0.7087159106427685,0.0003247885204590808,0.0007900424645743033,0.0,0.0,0.0,0.0,0.0,0.0,0.0,0.0,0.0,0.0008136438355433607,0.0004452193013767183,0.0004888609630977189,0.0,0.0,0.0,0.0,0.0,0.0,0.0,0.0,0.0,0.008211773858209911,-0.5855902315390399,9.80859138112588,0.0,0.0,0.0,0.0,0.0,0.0,0.0,0.0,0.0
2025/04/09 09:59:47.450514936,1744185587,449739554,mA1/imu,0.7055021520224067,0.70870726874847,0.00032943050005984246,0.0007824259595745099,0.0,0.0,0.0,0.0,0.0,0.0,0.0,0.0,0.0,0.000659354605476326,0.00027385930491560296,0.0004913498190297602,0.0,0.0,0.0,0.0,0.0,0.0,0.0,0.0,0.0,0.008655992449325377,0.03185586485948225,9.809800538312976,0.0,0.0,0.0,0.0,0.0,0.0,0.0,0.0,0.0
2025/04/09 09:59:47.501430826,1744185587,500619825,mA1/imu,0.705510878887838,0.7086985763372217,0.0003369028700016853,0.0007836867753092922,0.0,0.0,0.0,0.0,0.0,0.0,0.0,0.0,0.0,-0.0009463798770256677,0.00010422801748614696,0.0004938562854296621,0.0,0.0,0.0,0.0,0.0,0.0,0.0,0.0,0.0,0.008343100954272726,0.5540780674535778,9.81128240513299,0.0,0.0,0.0,0.0,0.0,0.0,0.0,0.0,0.0
2025/04/09 09:59:47.551477293,1744185587,550453389,mA1/imu,0.7055196499607238,0.7086898382381029,0.00034089150483664055,0.0007877120866524384,0.0,0.0,0.0,0.0,0.0,0.0,0.0,0.0,0.0,-0.0008083088795197336,-6.744646468288804e-05,0.0004963042929607695,0.0,0.0,0.0,0.0,0.0,0.0,0.0,0.0,0.0,0.007776200861465851,-0.0629503867633234,9.810438898110352,0.0,0.0,0.0,0.0,0.0,0.0,0.0,0.0,0.0
2025/04/09 09:59:47.602024685,1744185587,601370970,mA1/imu,0.7055284515155061,0.7086810764821933,0.0003363116743269985,0.0007891974593127309,0.0,0.0,0.0,0.0,0.0,0.0,0.0,0.0,0.0,0.000781608917761235,-0.0002344374595626383,0.0004965441344178883,0.0,0.0,0.0,0.0,0.0,0.0,0.0,0.0,0.0,0.007619739233544517,-0.5853961260854073,9.808860266208468,0.0,0.0,0.0,0.0,0.0,0.0,0.0,0.0,0.0
2025/04/09 09:59:47.652387337,1744185587,651198552,mA1/imu,0.705537250373472,0.7086723146839372,0.0003295750311798495,0.0007937986207252897,0.0,0.0,0.0,0.0,0.0,0.0,0.0,0.0,0.0,0.0006438030471050272,-0.0003804216053303464,0.000496312511340913,0.0,0.0,0.0,0.0,0.0,0.0,0.0,0.0,0.0,0.008037412600470483,0.03203325702258887,9.810049860948714,0.0,0.0,0.0,0.0,0.0,0.0,0.0,0.0,0.0
2025/04/09 09:59:47.703048109,1744185587,702159673,mA1/imu,0.7055457836122636,0.7086638071802132,0.0003276610062962246,0.0008051447495317998,0.0,0.0,0.0,0.0,0.0,0.0,0.0,0.0,0.0,-0.0009738930042342453,-0.0003374247076421459,0.00045956341550047595,0.0,0.0,0.0,0.0,0.0,0.0,0.0,0.0,0.0,0.0008343573014385295,0.5497931421403268,9.811590745178787,0.0,0.0,0.0,0.0,0.0,0.0,0.0,0.0,0.0
2025/04/09 09:59:47.756477934,1744185587,752475239,mA1/imu,0.7055537168387015,0.7086558980248616,0.00032679287017365005,0.0008148963678940087,0.0,0.0,0.0,0.0,0.0,0.0,0.0,0.0,0.0,-0.0008267730599142484,-0.0002866904377403718,0.00044905673371898426,0.0,0.0,0.0,0.0,0.0,0.0,0.0,0.0,0.0,0.00371677057825103,-0.06286019437109323,9.81057612813889,0.0,0.0,0.0,0.0,0.0,0.0,0.0,0.0,0.0
2025/04/09 09:59:47.804123968,1744185587,803456608,mA1/imu,0.7055616999641857,0.7086479485103009,0.00032047125933241623,0.0008184827198704972,0.0,0.0,0.0,0.0,0.0,0.0,0.0,0.0,0.0,0.0007772864514026444,-0.0002733300245096038,0.0004513422330470438,0.0,0.0,0.0,0.0,0.0,0.0,0.0,0.0,0.0,0.004495803361137932,-0.5854937024206411,9.808939457809212,0.0,0.0,0.0,0.0,0.0,0.0,0.0,0.0,0.0
2025/04/09 09:59:47.855412292,1744185587,853620236,mA1/imu,0.705569722806028,0.7086399591251534,0.00031476750554488425,0.0008218953359907134,0.0,0.0,0.0,0.0,0.0,0.0,0.0,0.0,0.0,0.000653773943274359,-0.0002511589414452592,0.0004534672084845338,0.0,0.0,0.0,0.0,0.0,0.0,0.0,0.0,0.0,0.005062315252247996,0.031910727990537964,9.81006420460936,0.0,0.0,0.0,0.0,0.0,0.0,0.0,0.0,0.0
2025/04/09 09:59:47.907829958,1744185587,905642458,mA1/imu,0.7055780595196453,0.7086316482327129,0.000313576103807055,0.0008310941630380049,0.0,0.0,0.0,0.0,0.0,0.0,0.0,0.0,0.0,-0.000897322087149587,-0.0003579571772569106,0.0004944083314715912,0.0,0.0,0.0,0.0,0.0,0.0,0.0,0.0,0.0,0.010810117736652365,0.5596686089608339,9.811581864951759,0.0,0.0,0.0,0.0,0.0,0.0,0.0,0.0,0.0
2025/04/09 09:59:47.956428370,1744185587,955483340,mA1/imu,0.7055870554314785,0.7086226815019675,0.00030901308264271555,0.0008408206775391278,0.0,0.0,0.0,0.0,0.0,0.0,0.0,0.0,0.0,-0.0007130478167803955,-0.00041790845211961007,0.0005086522326546066,0.0,0.0,0.0,0.0,0.0,0.0,0.0,0.0,0.0,0.007458597431816081,-0.06278933721410908,9.810454889101816,0.0,0.0,0.0,0.0,0.0,0.0,0.0,0.0,0.0
2025/04/09 09:59:47.997436152,1744185587,996431871,mA1/imu,0.7055958048061337,0.7086139699531291,0.00029897375847128763,0.0008440627593770962,0.0,0.0,0.0,0.0,0.0,0.0,0.0,0.0,0.0,0.0008832836916112699,-0.00031099747761862583,0.00047088566460544445,0.0,0.0,0.0,0.0,0.0,0.0,0.0,0.0,0.0,0.002153520297248717,-0.5906009121811581,9.808525627285277,0.0,0.0,0.0,0.0,0.0,0.0,0.0,0.0,0.0
2025/04/09 09:59:48.47358945,1744185588,46217200,mA1/imu,0.7056039535478219,0.7086058570533141,0.00029171826828792345,0.0008455695555098423,0.0,0.0,0.0,0.0,0.0,0.0,0.0,0.0,0.0,0.000752866827705585,-0.00021890606033192,0.0004603465160812563,0.0,0.0,0.0,0.0,0.0,0.0,0.0,0.0,0.0,0.005445178459280284,0.03236853728103861,9.809829541356157,0.0,0.0,0.0,0.0,0.0,0.0,0.0,0.0,0.0
2025/04/09 09:59:48.98200367,1744185588,97181310,mA1/imu,0.7056121644475392,0.7085976743434012,0.00029060969592097655,0.0008513781689825862,0.0,0.0,0.0,0.0,0.0,0.0,0.0,0.0,0.0,-0.0008107034787504812,-0.00022234133459121303,0.0004733631684662087,0.0,0.0,0.0,0.0,0.0,0.0,0.0,0.0,0.0,0.012080870887830934,0.559630511480784,9.811300212607444,0.0,0.0,0.0,0.0,0.0,0.0,0.0,0.0,0.0
2025/04/09 09:59:48.150738968,1744185588,147836664,mA1/imu,0.7056208496312627,0.7085890200628311,0.00028695718699903205,0.0008572442033328235,0.0,0.0,0.0,0.0,0.0,0.0,0.0,0.0,0.0,-0.0006328771926769462,-0.0002817737144831905,0.0004922878484818034,0.0,0.0,0.0,0.0,0.0,0.0,0.0,0.0,0.0,0.008713952157109732,-0.06298614147585344,9.810154065102616,0.0,0.0,0.0,0.0,0.0,0.0,0.0,0.0,0.0
2025/04/09 09:59:48.201244593,1744185588,199042299,mA1/imu,0.70563128808334,0.7085786319429241,0.0002813079844081248,0.0008535206843313046,0.0,0.0,0.0,0.0,0.0,0.0,0.0,0.0,0.0,0.0009418269852441387,0.0002663360247495466,0.0007351653183873326,0.0,0.0,0.0,0.0,0.0,0.0,0.0,0.0,0.0,-0.017965399012317883,-0.5948448961489486,9.807324571088326,0.0,0.0,0.0,0.0,0.0,0.0,0.0,0.0,0.0
2025/04/09 09:59:48.255795382,1744185588,249251606,mA1/imu,0.705645744978341,0.708564246723431,0.000285494895363979,0.0008422303031966679,0.0,0.0,0.0,0.0,0.0,0.0,0.0,0.0,0.0,0.0007839562353569139,0.0004455465340330424,0.0008137311042212643,0.0,0.0,0.0,0.0,0.0,0.0,0.0,0.0,0.0,0.007056519275157017,0.03265164377020052,9.809550831025865,0.0,0.0,0.0,0.0,0.0,0.0,0.0,0.0,0.0
2025/04/09 09:59:48.302901351,1744185588,300648450,mA1/imu,0.7056583769971315,0.708551666473608,0.00029101781636780774,0.000840368893795977,0.0,0.0,0.0,0.0,0.0,0.0,0.0,0.0,0.0,-0.0007736241999077342,-0.00012234270245008435,0.0005648538508281706,0.0,0.0,0.0,0.0,0.0,0.0,0.0,0.0,0.0,0.03420796835722077,0.5637869854309193,9.81197646835152,0.0,0.0,0.0,0.0,0.0,0.0,0.0,0.0,0.0
2025/04/09 09:59:48.352887923,1744185588,351289179,mA1/imu,0.7056668957592193,0.708543177464945,0.0002858783518875796,0.0008462688665370646,0.0,0.0,0.0,0.0,0.0,0.0,0.0,0.0,0.0,-0.0005976875333665838,-0.00033463745294119967,0.0004807245152431955,0.0,0.0,0.0,0.0,0.0,0.0,0.0,0.0,0.0,0.009281975597579224,-0.06315137659431054,9.809996050293867,0.0,0.0,0.0,0.0,0.0,0.0,0.0,0.0,0.0
2025/04/09 09:59:48.403392460,1744185588,402222363,mA1/imu,0.7056771238870243,0.7085329973081013,0.0002786947257157509,0.0008431354491052571,0.0,0.0,0.0,0.0,0.0,0.0,0.0,0.0,0.0,0.0009631136729000459,0.00020653202904408235,0.0007231590906209271,0.0,0.0,0.0,0.0,0.0,0.0,0.0,0.0,0.0,-0.018322195797650428,-0.5946990830864397,9.80725540850803,0.0,0.0,0.0,0.0,0.0,0.0,0.0,0.0,0.0
2025/04/09 09:59:48.452883431,1744185588,452095144,mA1/imu,0.7056913521403659,0.7085188373235851,0.0002816100735693307,0.000832687038270393,0.0,0.0,0.0,0.0,0.0,0.0,0.0,0.0,0.0,0.0007901294863240442,0.00038580602273724426,0.0008000708653520463,0.0,0.0,0.0,0.0,0.0,0.0,0.0,0.0,0.0,0.006809669563751255,0.032797256151558665,9.809541900380681,0.0,0.0,0.0,0.0,0.0,0.0,0.0,0.0,0.0
2025/04/09 09:59:48.504352285,1744185588,503039066,mA1/imu,0.705703742130679,0.7085064955778524,0.00028611562283952993,0.0008319883394977436,0.0,0.0,0.0,0.0,0.0,0.0,0.0,0.0,0.0,-0.0007848011132061591,-0.0001857426765245513,0.0005518812163710285,0.0,0.0,0.0,0.0,0.0,0.0,0.0,0.0,0.0,0.03411492518051979,0.5636391849872867,9.812054882446493,0.0,0.0,0.0,0.0,0.0,0.0,0.0,0.0,0.0
2025/04/09 09:59:48.553613638,1744185588,552852863,mA1/imu,0.7057120478909242,0.7084982161776864,0.00028022453495321197,0.0008394098189701091,0.0,0.0,0.0,0.0,0.0,0.0,0.0,0.0,0.0,-0.0006260635994625306,-0.0003993483694897447,0.0004691279589380074,0.0,0.0,0.0,0.0,0.0,0.0,0.0,0.0,0.0,0.009228079808615947,-0.06317949314080609,9.81013019015675,0.0,0.0,0.0,0.0,0.0,0.0,0.0,0.0,0.0
2025/04/09 09:59:48.604944209,1744185588,603828889,mA1/imu,0.7057220660987455,0.7084882417735542,0.0002725713474914058,0.0008380899690230851,0.0,0.0,0.0,0.0,0.0,0.0,0.0,0.0,0.0,0.0009190071453856492,0.00014165127472609971,0.0007107920591252042,0.0,0.0,0.0,0.0,0.0,0.0,0.0,0.0,0.0,-0.018284768270930937,-0.5948052612383855,9.8074689448365,0.0,0.0,0.0,0.0,0.0,0.0,0.0,0.0,0.0
2025/04/09 09:59:48.655285281,1744185588,654299390,mA1/imu,0.705736073671096,0.7084742974688797,0.0002753144046995528,0.0008296669578592185,0.0,0.0,0.0,0.0,0.0,0.0,0.0,0.0,0.0,0.0007328109078010604,0.00032617757630275663,0.0007879368829037114,0.0,0.0,0.0,0.0,0.0,0.0,0.0,0.0,0.0,0.006751228284293503,0.03277511551469814,9.809804580753147,0.0,0.0,0.0,0.0,0.0,0.0,0.0,0.0,0.0
2025/04/09 09:59:48.706492935,1744185588,705256507,mA1/imu,0.7057482532561331,0.7084621612850349,0.00027998696060755376,0.0008310598992970731,0.0,0.0,0.0,0.0,0.0,0.0,0.0,0.0,0.0,-0.0008523732421576716,-0.0002365340468540594,0.000540310109503921,0.0,0.0,0.0,0.0,0.0,0.0,0.0,0.0,0.0,0.034042191202874564,0.5636461435065915,9.812354704016006,0.0,0.0,0.0,0.0,0.0,0.0,0.0,0.0,0.0
2025/04/09 09:59:48.756344167,1744185588,755096046,mA1/imu,0.7057563565808631,0.7084540798426027,0.0002745992982315515,0.0008405327489252527,0.0,0.0,0.0,0.0,0.0,0.0,0.0,0.0,0.0,-0.0007009279774180246,-0.0004384400468299967,0.0004579806534143222,0.0,0.0,0.0,0.0,0.0,0.0,0.0,0.0,0.0,0.009159234279431728,-0.06319000620866863,9.810433984811619,0.0,0.0,0.0,0.0,0.0,0.0,0.0,0.0,0.0
2025/04/09 09:59:48.806748347,1744185588,806103872,mA1/imu,0.705766179265409,0.7084442963365896,0.00026776691287460334,0.0008411267095563332,0.0,0.0,0.0,0.0,0.0,0.0,0.0,0.0,0.0,0.0008405001831928553,0.00011599717701401725,0.0007000308760439781,0.0,0.0,0.0,0.0,0.0,0.0,0.0,0.0,0.0,-0.018354047169611237,-0.5948115966291895,9.807745661679741,0.0,0.0,0.0,0.0,0.0,0.0,0.0,0.0,0.0
2025/04/09 09:59:48.846999179,1744185588,845858508,mA1/imu,0.7057799985378024,0.7084305355361347,0.0002716079707301743,0.0008343938371001201,0.0,0.0,0.0,0.0,0.0,0.0,0.0,0.0,0.0,0.000654297560020954,0.0003152510824021359,0.0007776287803293437,0.0,0.0,0.0,0.0,0.0,0.0,0.0,0.0,0.0,0.006682512480698554,0.03277833401875921,9.81006580056349,0.0,0.0,0.0,0.0,0.0,0.0,0.0,0.0,0.0
2025/04/09 09:59:48.897782010,1744185588,896833112,mA1/imu,0.7057933928196239,0.7084171881099268,0.00028105155361894104,0.00083381809332303,0.0,0.0,0.0,0.0,0.0,0.0,0.0,0.0,0.0,-0.0009335173078791184,0.00013109432977395573,0.0006871625871428406,0.0,0.0,0.0,0.0,0.0,0.0,0.0,0.0,0.0,0.03454091504045009,0.5638657189400007,9.812548465715903,0.0,0.0,0.0,0.0,0.0,0.0,0.0,0.0,0.0
2025/04/09 09:59:48.947641883,1744185588,946677623,mA1/imu,0.7058037132179983,0.7084068987895226,0.0002824012018922377,0.0008392881851440028,0.0,0.0,0.0,0.0,0.0,0.0,0.0,0.0,0.0,-0.0007757989306924742,-0.00016735942352975227,0.000573896085301561,0.0,0.0,0.0,0.0,0.0,0.0,0.0,0.0,0.0,0.009581143816514924,-0.06317724406200605,9.810532242666138,0.0,0.0,0.0,0.0,0.0,0.0,0.0,0.0,0.0
2025/04/09 09:59:48.998474206,1744185588,997662551,mA1/imu,0.705813853893171,0.7083967956101033,0.0002767678169413239,0.0008408456353359598,0.0,0.0,0.0,0.0,0.0,0.0,0.0,0.0,0.0,0.0008057304006043944,-0.0002170566776305979,0.0005714438981553718,0.0,0.0,0.0,0.0,0.0,0.0,0.0,0.0,0.0,0.008665183859033532,-0.5853863292095577,9.808881504539066,0.0,0.0,0.0,0.0,0.0,0.0,0.0,0.0,0.0
2025/04/09 09:59:49.50499946,1744185589,49384742,mA1/imu,0.7058239517523304,0.7083867333486006,0.000271297270280714,0.0008435319874767699,0.0,0.0,0.0,0.0,0.0,0.0,0.0,0.0,0.0,0.0006575582167953982,-0.00024315627372671636,0.0005690068728635552,0.0,0.0,0.0,0.0,0.0,0.0,0.0,0.0,0.0,0.009112156645354018,0.0320944568497211,9.810013669383295,0.0,0.0,0.0,0.0,0.0,0.0,0.0,0.0,0.0
2025/04/09 09:59:49.101260441,1744185589,100267474,mA1/imu,0.7058339843219286,0.7083767266514666,0.00027149226041414074,0.0008520602898084021,0.0,0.0,0.0,0.0,0.0,0.0,0.0,0.0,0.0,-0.0009434716307922422,-0.00023294208028152826,0.0005647909608623904,0.0,0.0,0.0,0.0,0.0,0.0,0.0,0.0,0.0,0.008452054658881374,0.5539353914689887,9.811310881895935,0.0,0.0,0.0,0.0,0.0,0.0,0.0,0.0,0.0
2025/04/09 09:59:49.151029028,1744185589,150066503,mA1/imu,0.7058439344122844,0.7083668026528657,0.0002715014824918023,0.000859906790365786,0.0,0.0,0.0,0.0,0.0,0.0,0.0,0.0,0.0,-0.000801861805893554,-0.00020891889512604948,0.0005602717505132249,0.0,0.0,0.0,0.0,0.0,0.0,0.0,0.0,0.0,0.007925099415363273,-0.06309848416360055,9.810338826518898,0.0,0.0,0.0,0.0,0.0,0.0,0.0,0.0,0.0
2025/04/09 09:59:49.202437399,1744185589,201408315,mA1/imu,0.705853557881873,0.708357214066114,0.0002678508126814924,0.0008604428727049057,0.0,0.0,0.0,0.0,0.0,0.0,0.0,0.0,0.0,0.0007687103510763397,-1.96119293284054e-05,0.0005202066567632338,0.0,0.0,0.0,0.0,0.0,0.0,0.0,0.0,0.0,0.0017268265799306208,-0.5907959160435055,9.808416864040247,0.0,0.0,0.0,0.0,0.0,0.0,0.0,0.0,0.0
2025/04/09 09:59:49.252115696,1744185589,250859629,mA1/imu,0.7058625639235654,0.7083482420657295,0.00026875947761267053,0.0008582435458823508,0.0,0.0,0.0,0.0,0.0,0.0,0.0,0.0,0.0,0.0006188158485450544,0.00014294019391458977,0.0005089193092514396,0.0,0.0,0.0,0.0,0.0,0.0,0.0,0.0,0.0,0.005073997948345009,0.03217311495682121,9.809764841260096,0.0,0.0,0.0,0.0,0.0,0.0,0.0,0.0,0.0
2025/04/09 09:59:49.303643703,1744185589,301816852,mA1/imu,0.7058718626468025,0.7083389704254854,0.0002761008474430061,0.0008603885278032819,0.0,0.0,0.0,0.0,0.0,0.0,0.0,0.0,0.0,-0.0009445684710687651,0.00010539386268705174,0.0005487116619791955,0.0,0.0,0.0,0.0,0.0,0.0,0.0,0.0,0.0,0.012031566361832703,0.559546912855691,9.811227553212028,0.0,0.0,0.0,0.0,0.0,0.0,0.0,0.0,0.0
2025/04/09 09:59:49.354594430,1744185589,351889917,mA1/imu,0.7058818000202439,0.708329063076352,0.0002810679571801868,0.000862439772637397,0.0,0.0,0.0,0.0,0.0,0.0,0.0,0.0,0.0,-0.0007700805543079654,8.029275705788984e-05,0.000561869925481393,0.0,0.0,0.0,0.0,0.0,0.0,0.0,0.0,0.0,0.008722533402495779,-0.06294701741584577,9.810071660836543,0.0,0.0,0.0,0.0,0.0,0.0,0.0,0.0,0.0
2025/04/09 09:59:49.404810327,1744185589,403706489,mA1/imu,0.7058914886875332,0.7083194134898186,0.00028118962565919486,0.0008576737911243804,0.0,0.0,0.0,0.0,0.0,0.0,0.0,0.0,0.0,0.0008182036509497165,0.00021264686361037718,0.0005250067702246425,0.0,0.0,0.0,0.0,0.0,0.0,0.0,0.0,0.0,0.0028330148740735948,-0.5906138579696495,9.808202699030508,0.0,0.0,0.0,0.0,0.0,0.0,0.0,0.0,0.0
2025/04/09 09:59:49.455305733,1744185589,454223994,mA1/imu,0.705900605061193,0.7083103349361054,0.0002844469574759987,0.0008510504522587052,0.0,0.0,0.0,0.0,0.0,0.0,0.0,0.0,0.0,0.0006826772083022228,0.0003063172657785715,0.0005161757298213338,0.0,0.0,0.0,0.0,0.0,0.0,0.0,0.0,0.0,0.006144121171378698,0.03238508001875937,9.809577270557911,0.0,0.0,0.0,0.0,0.0,0.0,0.0,0.0,0.0
2025/04/09 09:59:49.505963877,1744185589,505181582,mA1/imu,0.7059100210527312,0.7083009490211901,0.00029277800397778576,0.0008497494068142292,0.0,0.0,0.0,0.0,0.0,0.0,0.0,0.0,0.0,-0.0008726180743756615,0.00020754261393613895,0.000554262643664438,0.0,0.0,0.0,0.0,0.0,0.0,0.0,0.0,0.0,0.012554508525391667,0.5592768662685509,9.811115539730503,0.0,0.0,0.0,0.0,0.0,0.0,0.0,0.0,0.0
2025/04/09 09:59:49.558022849,1744185589,555208925,mA1/imu,0.7059200287326616,0.7082909734904187,0.00029758336067146034,0.0008493233875411345,0.0,0.0,0.0,0.0,0.0,0.0,0.0,0.0,0.0,-0.0006942933805714299,0.00012127551380732188,0.000564710992299487,0.0,0.0,0.0,0.0,0.0,0.0,0.0,0.0,0.0,0.009228021277330495,-0.06317320114660806,9.810011554583394,0.0,0.0,0.0,0.0,0.0,0.0,0.0,0.0,0.0
2025/04/09 09:59:49.606987678,1744185589,606158094,mA1/imu,0.705929740410374,0.7082813021015592,0.0002964083630578515,0.0008431130080735214,0.0,0.0,0.0,0.0,0.0,0.0,0.0,0.0,0.0,0.0008968697455330375,0.000192606930048679,0.0005251477079943097,0.0,0.0,0.0,0.0,0.0,0.0,0.0,0.0,0.0,0.0032991675268083318,-0.5904384147282908,9.808232494537522,0.0,0.0,0.0,0.0,0.0,0.0,0.0,0.0,0.0
2025/04/09 09:59:49.646897285,1744185589,645908831,mA1/imu,0.7059388305639155,0.708272249990493,0.00029728977166317396,0.000836070719458047,0.0,0.0,0.0,0.0,0.0,0.0,0.0,0.0,0.0,0.0007616110826300184,0.00022817767455383494,0.0005134902667246649,0.0,0.0,0.0,0.0,0.0,0.0,0.0,0.0,0.0,0.0065834044823726325,0.03252608481568903,9.809660445715844,0.0,0.0,0.0,0.0,0.0,0.0,0.0,0.0,0.0
2025/04/09 09:59:49.699002631,1744185589,696944789,mA1/imu,0.7059482152497057,0.7082628960312465,0.0003042177826504939,0.0008336322495701337,0.0,0.0,0.0,0.0,0.0,0.0,0.0,0.0,0.0,-0.0008084161170427929,0.00037237490672814685,0.0005940377554320449,0.0,0.0,0.0,0.0,0.0,0.0,0.0,0.0,0.0,-0.014020269531673759,0.555915490774331,9.812177342843171,0.0,0.0,0.0,0.0,0.0,0.0,0.0,0.0,0.0
2025/04/09 09:59:49.747795528,1744185589,746923816,mA1/imu,0.7059604992068943,0.7082506567827236,0.00031458068779042695,0.0008256908526269157,0.0,0.0,0.0,0.0,0.0,0.0,0.0,0.0,0.0,-0.000644842679113396,0.0005087847325372692,0.0007024107262027233,0.0,0.0,0.0,0.0,0.0,0.0,0.0,0.0,0.0,0.0071519200249334424,-0.06324323032449644,9.810180465884619,0.0,0.0,0.0,0.0,0.0,0.0,0.0,0.0,0.0
2025/04/09 09:59:49.801544329,1744185589,799375217,mA1/imu,0.7059711349314469,0.7082400662882545,0.00031376032994707146,0.0008165182599836013,0.0,0.0,0.0,0.0,0.0,0.0,0.0,0.0,0.0,0.0010053494212681232,-0.00011504432452884234,0.00045290249812110126,0.0,0.0,0.0,0.0,0.0,0.0,0.0,0.0,0.0,0.035403316873466,-0.577883107246994,9.807592122805117,0.0,0.0,0.0,0.0,0.0,0.0,0.0,0.0,0.0
2025/04/09 09:59:49.850891118,1744185589,849221166,mA1/imu,0.7059777976973273,0.7082334281925162,0.00030201047023126003,0.0008180090363057771,0.0,0.0,0.0,0.0,0.0,0.0,0.0,0.0,0.0,0.000873511013379938,-0.00043154904665552253,0.00037737813183484647,0.0,0.0,0.0,0.0,0.0,0.0,0.0,0.0,0.0,0.009902336624757703,0.031659246516345156,9.809849365658517,0.0,0.0,0.0,0.0,0.0,0.0,0.0,0.0,0.0
2025/04/09 09:59:49.901321425,1744185589,900167285,mA1/imu,0.7059862891325895,0.7082249586436009,0.0002981142619633209,0.0008237954554183476,0.0,0.0,0.0,0.0,0.0,0.0,0.0,0.0,0.0,-0.0007765934541696177,1.996565442960903e-06,0.0006279025483775904,0.0,0.0,0.0,0.0,0.0,0.0,0.0,0.0,0.0,-0.018630686003689702,0.5463870198369252,9.812351360314572,0.0,0.0,0.0,0.0,0.0,0.0,0.0,0.0,0.0
2025/04/09 09:59:49.953468342,1744185589,952676655,mA1/imu,0.7059987957255235,0.7082124916065416,0.00030195093310148187,0.0008221874475104292,0.0,0.0,0.0,0.0,0.0,0.0,0.0,0.0,0.0,-0.0006478220234580003,0.0001399665598555169,0.0007056225251683491,0.0,0.0,0.0,0.0,0.0,0.0,0.0,0.0,0.0,0.006917511616813683,-0.06305437468000642,9.810368718344868,0.0,0.0,0.0,0.0,0.0,0.0,0.0,0.0,0.0
2025/04/09 09:59:50.4258021,1744185590,3575981,mA1/imu,0.7060095148819096,0.7082018118315928,0.0002953376300052204,0.0008193841248438574,0.0,0.0,0.0,0.0,0.0,0.0,0.0,0.0,0.0,0.0009815976299247064,-0.00043889443571596684,0.00045835029027179635,0.0,0.0,0.0,0.0,0.0,0.0,0.0,0.0,0.0,0.03480952572399812,-0.5775762239825651,9.807755558769827,0.0,0.0,0.0,0.0,0.0,0.0,0.0,0.0,0.0
2025/04/09 09:59:50.56723238,1744185590,53520518,mA1/imu,0.7060162914793121,0.7081950543563268,0.0002791223873181071,0.0008265843765115025,0.0,0.0,0.0,0.0,0.0,0.0,0.0,0.0,0.0,0.0008316908480866773,-0.000693156221777657,0.00038460507401817906,0.0,0.0,0.0,0.0,0.0,0.0,0.0,0.0,0.0,0.009292835380111174,0.03183671173409969,9.810007993479232,0.0,0.0,0.0,0.0,0.0,0.0,0.0,0.0,0.0
2025/04/09 09:59:50.106026150,1744185590,105042685,mA1/imu,0.7060249139799575,0.7081864485384479,0.00027235627289017467,0.0008371189608152215,0.0,0.0,0.0,0.0,0.0,0.0,0.0,0.0,0.0,-0.0008367058454890547,-0.00018046427623121658,0.0006351639329597242,0.0,0.0,0.0,0.0,0.0,0.0,0.0,0.0,0.0,-0.01935898803932666,0.5462806586344376,9.81247424865811,0.0,0.0,0.0,0.0,0.0,0.0,0.0,0.0,0.0
2025/04/09 09:59:50.155717530,1744185590,154891163,mA1/imu,0.706037523142009,0.7081738742485918,0.00027509804360344056,0.0008390877803601282,0.0,0.0,0.0,0.0,0.0,0.0,0.0,0.0,0.0,-0.0007239533212894659,4.1471074233569246e-05,0.0007104159369824144,0.0,0.0,0.0,0.0,0.0,0.0,0.0,0.0,0.0,0.006327799905944997,-0.06323838571182155,9.810445053062185,0.0,0.0,0.0,0.0,0.0,0.0,0.0,0.0,0.0
2025/04/09 09:59:50.206321448,1744185590,205810179,mA1/imu,0.706048317751823,0.70816311487695,0.00026907150480514095,0.0008386466012345617,0.0,0.0,0.0,0.0,0.0,0.0,0.0,0.0,0.0,0.0008940960310468431,-0.0004582325626023899,0.000463004202069679,0.0,0.0,0.0,0.0,0.0,0.0,0.0,0.0,0.0,0.0344692664805517,-0.5776808562431951,9.807765488262282,0.0,0.0,0.0,0.0,0.0,0.0,0.0,0.0,0.0
2025/04/09 09:59:50.248815196,1744185590,246432656,mA1/imu,0.7060551816792494,0.7081562666722682,0.0002549617226616525,0.0008469894909299525,0.0,0.0,0.0,0.0,0.0,0.0,0.0,0.0,0.0,0.0007374103150286673,-0.000635590674019337,0.0003897841396288533,0.0,0.0,0.0,0.0,0.0,0.0,0.0,0.0,0.0,0.009001562800462846,0.031844243261572265,9.809985992682863,0.0,0.0,0.0,0.0,0.0,0.0,0.0,0.0,0.0
2025/04/09 09:59:50.299615527,1744185590,298285957,mA1/imu,0.706063862229327,0.7081476004270538,0.00025168842200534307,0.0008573891473333944,0.0,0.0,0.0,0.0,0.0,0.0,0.0,0.0,0.0,-0.0009316149359479866,-4.885667666291002e-05,0.0006367745793146224,0.0,0.0,0.0,0.0,0.0,0.0,0.0,0.0,0.0,-0.019691065300636128,0.5463824780997203,9.812399444044885,0.0,0.0,0.0,0.0,0.0,0.0,0.0,0.0,0.0
2025/04/09 09:59:50.351303514,1744185590,350352028,mA1/imu,0.706076469817005,0.7081350263668137,0.0002591307892249262,0.0008579361645238067,0.0,0.0,0.0,0.0,0.0,0.0,0.0,0.0,0.0,-0.0008149727472986545,0.00024094411805957185,0.0007096943282769808,0.0,0.0,0.0,0.0,0.0,0.0,0.0,0.0,0.0,0.005929668782187953,-0.06308699259286732,9.810320246444723,0.0,0.0,0.0,0.0,0.0,0.0,0.0,0.0,0.0
2025/04/09 09:59:50.402443550,1744185590,401379948,mA1/imu,0.7060872217471365,0.7081243093152063,0.0002587739185936915,0.0008549142245411454,0.0,0.0,0.0,0.0,0.0,0.0,0.0,0.0,0.0,0.0008086309567906699,-0.00020473178369155578,0.0004598662338899495,0.0,0.0,0.0,0.0,0.0,0.0,0.0,0.0,0.0,0.03421165880159232,-0.5778131114397863,9.807601107941808,0.0,0.0,0.0,0.0,0.0,0.0,0.0,0.0,0.0
2025/04/09 09:59:50.452254786,1744185590,451259026,mA1/imu,0.7060940016175942,0.7081175458068638,0.0002509884062868386,0.0008597702814982359,0.0,0.0,0.0,0.0,0.0,0.0,0.0,0.0,0.0,0.0006603043010973376,-0.0003445323688665532,0.0003842841746487635,0.0,0.0,0.0,0.0,0.0,0.0,0.0,0.0,0.0,0.008785820295126588,0.03171781163673151,9.809820554563004,0.0,0.0,0.0,0.0,0.0,0.0,0.0,0.0,0.0
2025/04/09 09:59:50.503082536,1744185590,502231107,mA1/imu,0.7061008431205357,0.7081107125411317,0.0002502726746904511,0.0008691907430778314,0.0,0.0,0.0,0.0,0.0,0.0,0.0,0.0,0.0,-0.0009443078024970112,-0.0002463308333763382,0.000388204345680198,0.0,0.0,0.0,0.0,0.0,0.0,0.0,0.0,0.0,0.007367676517817709,0.553924651982804,9.81114445831052,0.0,0.0,0.0,0.0,0.0,0.0,0.0,0.0,0.0
2025/04/09 09:59:50.554161371,1744185590,552071965,mA1/imu,0.7061077529902633,0.708103813083686,0.00025107270876233894,0.0008763708577901206,0.0,0.0,0.0,0.0,0.0,0.0,0.0,0.0,0.0,-0.0008074258632350737,-0.00013172075632843032,0.0003921129286894146,0.0,0.0,0.0,0.0,0.0,0.0,0.0,0.0,0.0,0.006910502912132699,-0.06310401880886385,9.81011601872363,0.0,0.0,0.0,0.0,0.0,0.0,0.0,0.0,0.0
2025/04/09 09:59:50.605451165,1744185590,603042147,mA1/imu,0.7061150509363805,0.7080965375853655,0.00024901964988100183,0.0008753798854041349,0.0,0.0,0.0,0.0,0.0,0.0,0.0,0.0,0.0,0.0007745299222839557,6.534133197158826e-05,0.0004413173077730883,0.0,0.0,0.0,0.0,0.0,0.0,0.0,0.0,0.0,0.003238680357045491,-0.5870423723095431,9.808140996746879,0.0,0.0,0.0,0.0,0.0,0.0,0.0,0.0,0.0
2025/04/09 09:59:50.653844880,1744185590,652917430,mA1/imu,0.7061231563584504,0.7080884585781682,0.000251025247737432,0.0008717047082207575,0.0,0.0,0.0,0.0,0.0,0.0,0.0,0.0,0.0,0.0006277430276754305,0.00020432248738872733,0.00045773121042850113,0.0,0.0,0.0,0.0,0.0,0.0,0.0,0.0,0.0,0.007208041111872281,0.032029122171222155,9.809683488409481,0.0,0.0,0.0,0.0,0.0,0.0,0.0,0.0,0.0
2025/04/09 09:59:50.704913195,1744185590,703870137,mA1/imu,0.7061309371974951,0.7080806953096335,0.00025999327015489203,0.0008722762822940081,0.0,0.0,0.0,0.0,0.0,0.0,0.0,0.0,0.0,-0.0009596789582383284,0.00022800278082281514,0.0004123729122196327,0.0,0.0,0.0,0.0,0.0,0.0,0.0,0.0,0.0,0.011091988774649056,0.5554365412366575,9.811340942357692,0.0,0.0,0.0,0.0,0.0,0.0,0.0,0.0,0.0
2025/04/09 09:59:50.754709305,1744185590,753710685,mA1/imu,0.7061379790409072,0.7080736702150948,0.00026848176915932005,0.0008717922274962956,0.0,0.0,0.0,0.0,0.0,0.0,0.0,0.0,0.0,-0.0008021548367083991,0.0002851310723391028,0.00039977692215240225,0.0,0.0,0.0,0.0,0.0,0.0,0.0,0.0,0.0,0.007292482128850275,-0.06316430802775197,9.810051934519977,0.0,0.0,0.0,0.0,0.0,0.0,0.0,0.0,0.0
2025/04/09 09:59:50.808644210,1744185590,804727836,mA1/imu,0.7061450952910683,0.7080665806965167,0.00027190973960892627,0.0008647324469346193,0.0,0.0,0.0,0.0,0.0,0.0,0.0,0.0,0.0,0.0008007617580843705,0.000300714738786291,0.00040349582001579114,0.0,0.0,0.0,0.0,0.0,0.0,0.0,0.0,0.0,0.008748784937042902,-0.585336029095089,9.808448979037195,0.0,0.0,0.0,0.0,0.0,0.0,0.0,0.0,0.0
2025/04/09 09:59:50.850007810,1744185590,848508091,mA1/imu,0.7061522752978833,0.7080594270252515,0.0002756690900255877,0.0008578454684672544,0.0,0.0,0.0,0.0,0.0,0.0,0.0,0.0,0.0,0.0006753947604471542,0.0002938978959251143,0.0004070037561679624,0.0,0.0,0.0,0.0,0.0,0.0,0.0,0.0,0.0,0.009251141249385055,0.03213678506908468,9.809721026437371,0.0,0.0,0.0,0.0,0.0,0.0,0.0,0.0,0.0
2025/04/09 09:59:50.900706178,1744185590,899667113,mA1/imu,0.7061612579259761,0.7080504689679082,0.0002889126941489862,0.0008530698586353394,0.0,0.0,0.0,0.0,0.0,0.0,0.0,0.0,0.0,-0.0009549527755453478,0.0008186937497462677,0.000655115202656147,0.0,0.0,0.0,0.0,0.0,0.0,0.0,0.0,0.0,-0.019195431610211568,0.5462109841712511,9.812223962375215,0.0,0.0,0.0,0.0,0.0,0.0,0.0,0.0,0.0
2025/04/09 09:59:50.953589250,1744185590,949555588,mA1/imu,0.7061741930102184,0.7080375753971201,0.00031057592638161123,0.0008393418423375801,0.0,0.0,0.0,0.0,0.0,0.0,0.0,0.0,0.0,-0.0007980581666045871,0.0009995072290656113,0.0007287989452763189,0.0,0.0,0.0,0.0,0.0,0.0,0.0,0.0,0.0,0.0064729780168717235,-0.06297456056855795,9.810184628871324,0.0,0.0,0.0,0.0,0.0,0.0,0.0,0.0,0.0
2025/04/09 09:59:51.2379344,1744185591,476501,mA1/imu,0.7061852631412608,0.7080265477257931,0.00032124699467317707,0.0008237948601410743,0.0,0.0,0.0,0.0,0.0,0.0,0.0,0.0,0.0,0.0008666215336606561,0.00039429855927596155,0.0004774792634366124,0.0,0.0,0.0,0.0,0.0,0.0,0.0,0.0,0.0,0.035177875426364406,-0.5775899797321808,9.807592307165732,0.0,0.0,0.0,0.0,0.0,0.0,0.0,0.0,0.0
2025/04/09 09:59:51.51474662,1744185591,50311186,mA1/imu,0.7061923454485293,0.7080194900988908,0.00032062594770919557,0.0008185774326273404,0.0,0.0,0.0,0.0,0.0,0.0,0.0,0.0,0.0,0.0007570037302279952,6.538591262147977e-05,0.00040130112047833137,0.0,0.0,0.0,0.0,0.0,0.0,0.0,0.0,0.0,0.009751073660012058,0.03184814170775499,9.809906639448286,0.0,0.0,0.0,0.0,0.0,0.0,0.0,0.0,0.0
2025/04/09 09:59:51.102126279,1744185591,101252326,mA1/imu,0.7062012277834756,0.7080106287028824,0.0003269320723918273,0.0008177018288571102,0.0,0.0,0.0,0.0,0.0,0.0,0.0,0.0,0.0,-0.0008664926721324873,0.00046314730175328286,0.0006492881322981726,0.0,0.0,0.0,0.0,0.0,0.0,0.0,0.0,0.0,-0.018875144130335104,0.5461685532061229,9.812394085383273,0.0,0.0,0.0,0.0,0.0,0.0,0.0,0.0,0.0
2025/04/09 09:59:51.152685114,1744185591,152001251,mA1/imu,0.7062140681177201,0.7079978240581873,0.00033960397981124956,0.0008098090077961059,0.0,0.0,0.0,0.0,0.0,0.0,0.0,0.0,0.0,-0.0007080084842128456,0.0005417454573746511,0.0007234125357641705,0.0,0.0,0.0,0.0,0.0,0.0,0.0,0.0,0.0,0.006687149951228126,-0.0631113900492048,9.81035491843615,0.0,0.0,0.0,0.0,0.0,0.0,0.0,0.0,0.0
2025/04/09 09:59:51.203832048,1744185591,202943922,mA1/imu,0.7062250343214074,0.7079868945356901,0.0003397649865371788,0.0008016378176353204,0.0,0.0,0.0,0.0,0.0,0.0,0.0,0.0,0.0,0.0009551733552128271,-0.0001406408451033867,0.0004702266984804251,0.0,0.0,0.0,0.0,0.0,0.0,0.0,0.0,0.0,0.0354499906215146,-0.5774447681561607,9.807750787509072,0.0,0.0,0.0,0.0,0.0,0.0,0.0,0.0,0.0
2025/04/09 09:59:51.254229761,1744185591,253188066,mA1/imu,0.7062319584366881,0.7079799895786595,0.00032762510126759436,0.0008049227754114862,0.0,0.0,0.0,0.0,0.0,0.0,0.0,0.0,0.0,0.0008406285944110016,-0.0005168509235101333,0.00039086822563027,0.0,0.0,0.0,0.0,0.0,0.0,0.0,0.0,0.0,0.009910430359468725,0.03193294367186944,9.810041640499579,0.0,0.0,0.0,0.0,0.0,0.0,0.0,0.0,0.0
2025/04/09 09:59:51.305137314,1744185591,304154581,mA1/imu,0.7062406484130573,0.7079713141350431,0.0003221315070597647,0.0008130942730492708,0.0,0.0,0.0,0.0,0.0,0.0,0.0,0.0,0.0,-0.000791665892673225,-0.0001258959436141602,0.0006379368591103737,0.0,0.0,0.0,0.0,0.0,0.0,0.0,0.0,0.0,-0.01902913602186479,0.54648212674975,9.812472794419717,0.0,0.0,0.0,0.0,0.0,0.0,0.0,0.0,0.0
2025/04/09 09:59:51.355692915,1744185591,354019361,mA1/imu,0.7062532764393226,0.7079587148806402,0.00032340644926280197,0.0008142183628840034,0.0,0.0,0.0,0.0,0.0,0.0,0.0,0.0,0.0,-0.0006452201739481409,-2.347371104359741e-05,0.0007105535296388825,0.0,0.0,0.0,0.0,0.0,0.0,0.0,0.0,0.0,0.006597813032746783,-0.06304748947821216,9.810391371515365,0.0,0.0,0.0,0.0,0.0,0.0,0.0,0.0,0.0
2025/04/09 09:59:51.407317674,1744185591,405526611,mA1/imu,0.7062640251534236,0.7079479961356909,0.0003132696835451543,0.0008144959480025865,0.0,0.0,0.0,0.0,0.0,0.0,0.0,0.0,0.0,0.0010006993181036208,-0.0006420885454502783,0.00045828398016877,0.0,0.0,0.0,0.0,0.0,0.0,0.0,0.0,0.0,0.03487480286493546,-0.5777123264044859,9.80774042417176,0.0,0.0,0.0,0.0,0.0,0.0,0.0,0.0,0.0
2025/04/09 09:59:51.456496579,1744185591,455354858,mA1/imu,0.7062707548521538,0.7079412789312487,0.0002926221179895715,0.0008251048738844085,0.0,0.0,0.0,0.0,0.0,0.0,0.0,0.0,0.0,0.0008669076217342313,-0.0009258810560893116,0.00038008616353509857,0.0,0.0,0.0,0.0,0.0,0.0,0.0,0.0,0.0,0.009355255728540674,0.031831559832483224,9.809991613955894,0.0,0.0,0.0,0.0,0.0,0.0,0.0,0.0,0.0
2025/04/09 09:59:51.507360437,1744185591,506277960,mA1/imu,0.7062757398135696,0.70793629404876,0.00027173270142195763,0.00084206926183736,0.0,0.0,0.0,0.0,0.0,0.0,0.0,0.0,0.0,-0.00039204912732025135,-0.001248877362981351,0.00013197162270606278,0.0,0.0,0.0,0.0,0.0,0.0,0.0,0.0,0.0,0.021684137005854767,0.5672215913477453,9.812298486633178,0.0,0.0,0.0,0.0,0.0,0.0,0.0,0.0,0.0
2025/04/09 09:59:51.546905334,1744185591,546032265,mA1/imu,0.7062737742819669,0.7079382468217041,0.00023620295381286503,0.0008594513840699226,0.0,0.0,0.0,0.0,0.0,0.0,0.0,0.0,0.0,6.516101275737568e-05,-0.0016249740948590069,-0.00027273943470635417,0.0,0.0,0.0,0.0,0.0,0.0,0.0,0.0,0.0,0.01983153214035551,-0.025712850957249817,9.811295218330892,0.0,0.0,0.0,0.0,0.0,0.0,0.0,0.0,0.0
2025/04/09 09:59:51.598634012,1744185591,597344187,mA1/imu,0.7062730672380871,0.707938972090038,0.0001922134705365681,0.0008540165025029132,0.0,0.0,0.0,0.0,0.0,0.0,0.0,0.0,0.0,0.0025024148766105217,-0.0003803051185447836,0.000366495603320966,0.0,0.0,0.0,0.0,0.0,0.0,0.0,0.0,0.0,-0.0449178787576103,-0.486631073685963,9.806901472548176,0.0,0.0,0.0,0.0,0.0,0.0,0.0,0.0,0.0
2025/04/09 09:59:51.648623486,1744185591,647725184,mA1/imu,0.7062908961369528,0.7079212536831974,0.0001629179712478153,0.0008012960782489476,0.0,0.0,0.0,0.0,0.0,0.0,0.0,0.0,0.0,0.003129349145736127,0.001193298703904437,0.0013380498651533446,0.0,0.0,0.0,0.0,0.0,0.0,0.0,0.0,0.0,-0.0224958156912803,0.12281406508177112,9.808239132751972,0.0,0.0,0.0,0.0,0.0,0.0,0.0,0.0,0.0
2025/04/09 09:59:51.699595234,1744185591,698687845,mA1/imu,0.7063169910041398,0.7078953011781922,0.00014148719386229973,0.0007285396819768002,0.0,0.0,0.0,0.0,0.0,0.0,0.0,0.0,0.0,0.0022934333347621014,0.0014985880144094865,0.0014798443271491284,0.0,0.0,0.0,0.0,0.0,0.0,0.0,0.0,0.0,0.007249378253533041,0.6691908468435029,9.811113883347769,0.0,0.0,0.0,0.0,0.0,0.0,0.0,0.0,0.0
2025/04/09 09:59:51.750040516,1744185591,748541639,mA1/imu,0.7063430256080491,0.7078694187901214,0.00010264412823232232,0.0006368522480022438,0.0,0.0,0.0,0.0,0.0,0.0,0.0,0.0,0.0,0.003674379795878163,0.0014903969125327524,0.0014616725994649235,0.0,0.0,0.0,0.0,0.0,0.0,0.0,0.0,0.0,0.006742146867832574,0.08042823415959428,9.810324696189827,0.0,0.0,0.0,0.0,0.0,0.0,0.0,0.0,0.0
2025/04/09 09:59:51.801952031,1744185591,799494059,mA1/imu,0.7063664810749478,0.7078461082515614,3.772954572972434e-05,0.0005291723683639096,0.0,0.0,0.0,0.0,0.0,0.0,0.0,0.0,0.0,0.0055880798356788206,0.0011622753875656392,0.0013045537728786527,0.0,0.0,0.0,0.0,0.0,0.0,0.0,0.0,0.0,0.005804598432763765,-0.07460857700432413,9.809070453254094,0.0,0.0,0.0,0.0,0.0,0.0,0.0,0.0,0.0
2025/04/09 09:59:51.853595042,1744185591,849342327,mA1/imu,0.7063894739110839,0.7078232381382528,-3.599088405413403e-05,0.0004164177672687081,0.0,0.0,0.0,0.0,0.0,0.0,0.0,0.0,0.0,0.004554111011766965,0.001086642782750351,0.0012882553764643973,0.0,0.0,0.0,0.0,0.0,0.0,0.0,0.0,0.0,0.0045795177427558915,0.6519233981418466,9.808925315437609,0.0,0.0,0.0,0.0,0.0,0.0,0.0,0.0,0.0
2025/04/09 09:59:51.901098387,1744185591,900253160,mA1/imu,0.7064109039601062,0.7078019019732142,-0.00012944274174953962,0.0002925302424358456,0.0,0.0,0.0,0.0,0.0,0.0,0.0,0.0,0.0,0.00702276089372596,0.0009569572709455534,0.0012990263856432406,0.0,0.0,0.0,0.0,0.0,0.0,0.0,0.0,0.0,-0.009486592583709243,-0.44075918064707287,9.811170435215242,0.0,0.0,0.0,0.0,0.0,0.0,0.0,0.0,0.0
2025/04/09 09:59:51.951416204,1744185591,950185497,mA1/imu,-0.7064362186528669,-0.7077766550990952,0.00021927871567834658,-0.00016549628501815868,0.0,0.0,0.0,0.0,0.0,0.0,0.0,0.0,0.0,0.005853064404351068,0.0010183544431771854,0.0014558458907624203,0.0,0.0,0.0,0.0,0.0,0.0,0.0,0.0,0.0,0.007358325704707899,0.42766191305471685,9.810247643727891,0.0,0.0,0.0,0.0,0.0,0.0,0.0,0.0,0.0
2025/04/09 09:59:52.3324631,1744185592,1195916,mA1/imu,-0.7064614827047698,-0.707751420929957,0.0003127529613425058,-4.256512911786955e-05,0.0,0.0,0.0,0.0,0.0,0.0,0.0,0.0,0.0,0.005406810088673008,0.0007164699118396272,0.0013992614511263736,0.0,0.0,0.0,0.0,0.0,0.0,0.0,0.0,0.0,0.008709624637076004,0.587706117304682,9.810382581822964,0.0,0.0,0.0,0.0,0.0,0.0,0.0,0.0,0.0
2025/04/09 09:59:52.51842287,1744185592,50967946,mA1/imu,-0.7064858211550782,-0.7077270771640618,0.00040501885409367224,6.866860135274063e-05,0.0,0.0,0.0,0.0,0.0,0.0,0.0,0.0,0.0,0.005654073544052943,0.0004177050288302442,0.0013671208330572066,0.0,0.0,0.0,0.0,0.0,0.0,0.0,0.0,0.0,0.006832359452985333,0.010083291225323188,9.810543746288992,0.0,0.0,0.0,0.0,0.0,0.0,0.0,0.0,0.0
2025/04/09 09:59:52.107968077,1744185592,104348141,mA1/imu,-0.7065111955165615,-0.7077016754246862,0.0004914280123141446,0.0001664612870546063,0.0,0.0,0.0,0.0,0.0,0.0,0.0,0.0,0.0,0.006007200529335947,0.00034611116363023764,0.001538192624423915,0.0,0.0,0.0,0.0,0.0,0.0,0.0,0.0,0.0,-0.006950981018971305,-0.4236674326523985,9.808336661761354,0.0,0.0,0.0,0.0,0.0,0.0,0.0,0.0,0.0
2025/04/09 09:59:52.159489254,1744185592,153138339,mA1/imu,-0.7065414109341505,-0.7076714388521059,0.0005563748385510291,0.00024436695550130285,0.0,0.0,0.0,0.0,0.0,0.0,0.0,0.0,0.0,0.00486384246670906,0.0003730180300471123,0.0018107501010114027,0.0,0.0,0.0,0.0,0.0,0.0,0.0,0.0,0.0,-0.005549250881467114,-0.34246065869670317,9.81015376205812,0.0,0.0,0.0,0.0,0.0,0.0,0.0,0.0,0.0
2025/04/09 09:59:52.207059556,1744185592,204280776,mA1/imu,-0.7065735118416022,-0.707639338811958,0.000595010698672464,0.0002906748508326944,0.0,0.0,0.0,0.0,0.0,0.0,0.0,0.0,0.0,0.002385649884484,0.0002218130729864291,0.001911934419642443,0.0,0.0,0.0,0.0,0.0,0.0,0.0,0.0,0.0,-0.007348265274916205,0.1158751338233454,9.811143340826488,0.0,0.0,0.0,0.0,0.0,0.0,0.0,0.0,0.0
2025/04/09 09:59:52.254053681,1744185592,249385617,mA1/imu,-0.7066106091441351,-0.707602259454567,0.000619375588770906,0.0003253208049953712,0.0,0.0,0.0,0.0,0.0,0.0,0.0,0.0,0.0,-0.00027644918327587333,0.00034986422740415375,0.0022154500098085384,0.0,0.0,0.0,0.0,0.0,0.0,0.0,0.0,0.0,-0.007637840077435387,0.6614392303038258,9.811197388325816,0.0,0.0,0.0,0.0,0.0,0.0,0.0,0.0,0.0
2025/04/09 09:59:52.312794033,1744185592,303871954,mA1/imu,-0.7066528066650756,-0.7075601249067696,0.0006106899707009855,0.00032792079460831295,0.0,0.0,0.0,0.0,0.0,0.0,0.0,0.0,0.0,-0.00035596905399566176,0.0003214779845869134,0.0025128955589376963,0.0,0.0,0.0,0.0,0.0,0.0,0.0,0.0,0.0,-0.006513579335282158,0.13120645866393063,9.809942020066407,0.0,0.0,0.0,0.0,0.0,0.0,0.0,0.0,0.0
2025/04/09 09:59:52.347627534,1744185592,346242800,mA1/imu,-0.706699864735752,-0.7075131621759606,0.0005773224944174341,0.0003053342101712068,0.0,0.0,0.0,0.0,0.0,0.0,0.0,0.0,0.0,-0.0020195454356186993,0.00029875520021895133,0.0027570015960650543,0.0,0.0,0.0,0.0,0.0,0.0,0.0,0.0,0.0,-0.005467162211303578,0.6717853550492787,9.81108609500911,0.0,0.0,0.0,0.0,0.0,0.0,0.0,0.0,0.0
2025/04/09 09:59:52.399215851,1744185592,397349284,mA1/imu,-0.7067503676125924,-0.7074627821875598,0.0005170331149632341,0.00024975119884035075,0.0,0.0,0.0,0.0,0.0,0.0,0.0,0.0,0.0,-0.004030747976535649,-4.881834562701379e-05,0.002850273319576068,0.0,0.0,0.0,0.0,0.0,0.0,0.0,0.0,0.0,0.009476480195804719,0.16047772441504726,9.809776665169991,0.0,0.0,0.0,0.0,0.0,0.0,0.0,0.0,0.0
2025/04/09 09:59:52.448761117,1744185592,447730942,mA1/imu,-0.7068002546738448,-0.7074130128323551,0.00044820944164537227,0.0001684539542662107,0.0,0.0,0.0,0.0,0.0,0.0,0.0,0.0,0.0,-0.0044958739078698375,-0.0005528609968316921,0.0027964289747108378,0.0,0.0,0.0,0.0,0.0,0.0,0.0,0.0,0.0,0.008281890286960449,0.12327426454824081,9.810594401222591,0.0,0.0,0.0,0.0,0.0,0.0,0.0,0.0,0.0
2025/04/09 09:59:52.499767069,1744185592,498632240,mA1/imu,-0.7068509478153584,-0.7073624274486247,0.00036103414675988136,5.882910176674568e-05,0.0,0.0,0.0,0.0,0.0,0.0,0.0,0.0,0.0,-0.005098942656231648,-0.0006063419066323873,0.0029951501741481007,0.0,0.0,0.0,0.0,0.0,0.0,0.0,0.0,0.0,-0.008438863729184048,-0.48478280690179265,9.8071348979792,0.0,0.0,0.0,0.0,0.0,0.0,0.0,0.0,0.0
2025/04/09 09:59:52.549165713,1744185592,548492477,mA1/imu,-0.7069050766777006,-0.7073083773289354,0.00026003154933638837,-6.565969668748471e-05,0.0,0.0,0.0,0.0,0.0,0.0,0.0,0.0,0.0,-0.007222349150778888,-0.0007734322489702296,0.003059243874880426,0.0,0.0,0.0,0.0,0.0,0.0,0.0,0.0,0.0,0.00644236472318467,0.05607495866661576,9.810515739998658,0.0,0.0,0.0,0.0,0.0,0.0,0.0,0.0,0.0
2025/04/09 09:59:52.601465681,1744185592,599425259,mA1/imu,0.7069659591375532,0.7072475325398664,-0.00014646882809826335,0.00019718993938151218,0.0,0.0,0.0,0.0,0.0,0.0,0.0,0.0,0.0,-0.008323938054113958,-0.00010165977512454361,0.003846603577170196,0.0,0.0,0.0,0.0,0.0,0.0,0.0,0.0,0.0,-0.034476907301441206,0.4058874541979962,9.811424225593091,0.0,0.0,0.0,0.0,0.0,0.0,0.0,0.0,0.0
2025/04/09 09:59:52.657167812,1744185592,649706690,mA1/imu,0.7070406454657978,0.7071728369133954,-1.9158663955852126e-05,0.0003225276946158096,0.0,0.0,0.0,0.0,0.0,0.0,0.0,0.0,0.0,-0.008414502285575809,2.954030196353328e-05,0.0043946569348983075,0.0,0.0,0.0,0.0,0.0,0.0,0.0,0.0,0.0,-0.00017327980218006817,0.6461225780710246,9.809278562179742,0.0,0.0,0.0,0.0,0.0,0.0,0.0,0.0,0.0
2025/04/09 09:59:52.701779765,1744185592,700664348,mA1/imu,0.7071212929889047,0.7070921161400927,0.00010498302414255965,0.0004530704025875316,0.0,0.0,0.0,0.0,0.0,0.0,0.0,0.0,0.0,-0.007143395077764851,-0.0004257917058330898,0.004566847984059693,0.0,0.0,0.0,0.0,0.0,0.0,0.0,0.0,0.0,0.022151644183575063,-0.5447373184605369,9.809884021054424,0.0,0.0,0.0,0.0,0.0,0.0,0.0,0.0,0.0
2025/04/09 09:59:52.751379928,1744185592,750489222,mA1/imu,0.7071984729375542,0.7070148035791346,0.00020419963787497093,0.0005879602512309284,0.0,0.0,0.0,0.0,0.0,0.0,0.0,0.0,0.0,-0.0051286661296476655,-0.00145500306110298,0.004205726532518057,0.0,0.0,0.0,0.0,0.0,0.0,0.0,0.0,0.0,0.031181405114054414,-0.4363199152542869,9.809392902455485,0.0,0.0,0.0,0.0,0.0,0.0,0.0,0.0,0.0
2025/04/09 09:59:52.805008011,1744185592,803430791,mA1/imu,0.7072718080745918,0.7069412817483273,0.00028720274231885934,0.0007288192607805066,0.0,0.0,0.0,0.0,0.0,0.0,0.0,0.0,0.0,-0.00540561724387714,-0.0017257378750790502,0.004160703758842257,0.0,0.0,0.0,0.0,0.0,0.0,0.0,0.0,0.0,0.005651087552977281,0.12957084250575615,9.80969706745894,0.0,0.0,0.0,0.0,0.0,0.0,0.0,0.0,0.0
2025/04/09 09:59:52.855593458,1744185592,854035165,mA1/imu,0.7073455946059369,0.70686726760625,0.000359041197653054,0.000864215173618661,0.0,0.0,0.0,0.0,0.0,0.0,0.0,0.0,0.0,-0.005470278727385619,-0.001844992402343254,0.0041941037134884,0.0,0.0,0.0,0.0,0.0,0.0,0.0,0.0,0.0,0.005197405630745068,0.05491690090232057,9.81218975772861,0.0,0.0,0.0,0.0,0.0,0.0,0.0,0.0,0.0
2025/04/09 09:59:52.909497810,1744185592,906530936,mA1/imu,0.7074202461507094,0.7067923859036086,0.0004065038431713653,0.000976380755285712,0.0,0.0,0.0,0.0,0.0,0.0,0.0,0.0,0.0,-0.005089487738763232,-0.00181194552985958,0.004243736685430946,0.0,0.0,0.0,0.0,0.0,0.0,0.0,0.0,0.0,0.004210814675382457,-0.05204629844926932,9.813169024738224,0.0,0.0,0.0,0.0,0.0,0.0,0.0,0.0,0.0
2025/04/09 09:59:52.947043392,1744185592,945824475,mA1/imu,0.7074954890198866,0.7067169390472411,0.00042609613312774445,0.0010580748059389386,0.0,0.0,0.0,0.0,0.0,0.0,0.0,0.0,0.0,-0.0026375496657934207,-0.0017033111905988137,0.0042782437770243825,0.0,0.0,0.0,0.0,0.0,0.0,0.0,0.0,0.0,0.005412077358567351,-0.25469862553682293,9.809549605329146,0.0,0.0,0.0,0.0,0.0,0.0,0.0,0.0,0.0
2025/04/09 09:59:52.998494757,1744185592,996784329,mA1/imu,0.7075714626876211,0.7066407852828258,0.0004272852309935589,0.0011149853376816957,0.0,0.0,0.0,0.0,0.0,0.0,0.0,0.0,0.0,-0.0012347071772014701,-0.001481637750485308,0.004313534616680142,0.0,0.0,0.0,0.0,0.0,0.0,0.0,0.0,0.0,0.0035718142344976517,0.07253227919435645,9.812962076955985,0.0,0.0,0.0,0.0,0.0,0.0,0.0,0.0,0.0
2025/04/09 09:59:53.47437800,1744185593,46602870,mA1/imu,0.7076469844548442,0.7065651122040334,0.0004117221535025978,0.0011480822861164213,0.0,0.0,0.0,0.0,0.0,0.0,0.0,0.0,0.0,0.00020275004778053544,-0.00135246741543148,0.004206370255382629,0.0,0.0,0.0,0.0,0.0,0.0,0.0,0.0,0.0,0.012418180014683918,-0.005319551194267115,9.812566259590431,0.0,0.0,0.0,0.0,0.0,0.0,0.0,0.0,0.0
2025/04/09 09:59:53.98812928,1744185593,97580932,mA1/imu,0.7077200004596055,0.706491995122005,0.00037228017364012464,0.0011502979862806108,0.0,0.0,0.0,0.0,0.0,0.0,0.0,0.0,0.0,0.0012711131263977312,-0.0010018328983323222,0.004123891387044077,0.0,0.0,0.0,0.0,0.0,0.0,0.0,0.0,0.0,0.0018128595516463068,0.04527679234978809,9.809710256817942,0.0,0.0,0.0,0.0,0.0,0.0,0.0,0.0,0.0
2025/04/09 09:59:53.150412411,1744185593,149009077,mA1/imu,0.7077927757898156,0.706419170415161,0.0003138033528974932,0.0011152296442810356,0.0,0.0,0.0,0.0,0.0,0.0,0.0,0.0,0.0,0.0033530878284393053,-0.0004489819251214991,0.004108754141495539,0.0,0.0,0.0,0.0,0.0,0.0,0.0,0.0,0.0,0.001892382389490646,-0.07857536388052731,9.80993872281832,0.0,0.0,0.0,0.0,0.0,0.0,0.0,0.0,0.0
2025/04/09 09:59:53.201730813,1744185593,199992360,mA1/imu,0.7078651804725437,0.7063467453835333,0.00024435654974747735,0.0010496906876130531,0.0,0.0,0.0,0.0,0.0,0.0,0.0,0.0,0.0,0.0046683674685826,0.00010648869164819765,0.004086756942746498,0.0,0.0,0.0,0.0,0.0,0.0,0.0,0.0,0.0,0.0016131882912384723,0.10138253417247343,9.810742871790655,0.0,0.0,0.0,0.0,0.0,0.0,0.0,0.0,0.0
2025/04/09 09:59:53.250755783,1744185593,249815122,mA1/imu,0.7079373002678943,0.7062746121573985,0.0001700963776816287,0.000960301277626043,0.0,0.0,0.0,0.0,0.0,0.0,0.0,0.0,0.0,0.0050851663796172,0.0006233087568734245,0.004072356250253292,0.0,0.0,0.0,0.0,0.0,0.0,0.0,0.0,0.0,0.0008466202865093069,0.0602209912264985,9.812420286138389,0.0,0.0,0.0,0.0,0.0,0.0,0.0,0.0,0.0
2025/04/09 09:59:53.302409943,1744185593,300781002,mA1/imu,0.708007700993098,0.7062042059688778,7.84601273280527e-05,0.0008418137224410423,0.0,0.0,0.0,0.0,0.0,0.0,0.0,0.0,0.0,0.005292226524762147,0.0008355265269532491,0.003953088148317005,0.0,0.0,0.0,0.0,0.0,0.0,0.0,0.0,0.0,0.010714375234080137,0.6573741308290183,9.81063437734337,0.0,0.0,0.0,0.0,0.0,0.0,0.0,0.0,0.0
2025/04/09 09:59:53.352303613,1744185593,350658489,mA1/imu,0.7080770849260176,0.7061347750367746,-8.572927711636717e-06,0.0007219507888341623,0.0,0.0,0.0,0.0,0.0,0.0,0.0,0.0,0.0,0.005301571889302164,0.00098021791636742,0.0039043027175671013,0.0,0.0,0.0,0.0,0.0,0.0,0.0,0.0,0.0,0.010566902162317388,0.5707912196343293,9.810863710783938,0.0,0.0,0.0,0.0,0.0,0.0,0.0,0.0,0.0
2025/04/09 09:59:53.402385003,1744185593,401589373,mA1/imu,0.7081456166687403,0.7060661626384455,-0.00010289588617844268,0.0005907472443158447,0.0,0.0,0.0,0.0,0.0,0.0,0.0,0.0,0.0,0.00576953251208081,0.001067766025648246,0.0038580353717617595,0.0,0.0,0.0,0.0,0.0,0.0,0.0,0.0,0.0,0.011541687190566492,0.014598014826917659,9.81166012139687,0.0,0.0,0.0,0.0,0.0,0.0,0.0,0.0,0.0
2025/04/09 09:59:53.452408927,1744185593,451490486,mA1/imu,0.7082133246261119,0.7059983296282902,-0.00020239516642005869,0.0004521286211695397,0.0,0.0,0.0,0.0,0.0,0.0,0.0,0.0,0.0,0.007392464131504586,0.001102972674629489,0.003812786258554064,0.0,0.0,0.0,0.0,0.0,0.0,0.0,0.0,0.0,0.010957476866842814,-0.4929671606813428,9.810292146854238,0.0,0.0,0.0,0.0,0.0,0.0,0.0,0.0,0.0
2025/04/09 09:59:53.503315953,1744185593,502399670,mA1/imu,0.7082850088346129,0.7059264577184577,-0.0002812862725193813,0.0003216073000914662,0.0,0.0,0.0,0.0,0.0,0.0,0.0,0.0,0.0,0.006115098142322201,0.0019708685135294396,0.004450962371370076,0.0,0.0,0.0,0.0,0.0,0.0,0.0,0.0,0.0,-0.03879739182501488,0.083460877555709,9.812660339648437,0.0,0.0,0.0,0.0,0.0,0.0,0.0,0.0,0.0
2025/04/09 09:59:53.555250765,1744185593,552220896,mA1/imu,-0.7083676981096357,-0.7058435039503154,0.000346383771956246,-0.0001795112241671058,0.0,0.0,0.0,0.0,0.0,0.0,0.0,0.0,0.0,0.003937717027312315,0.002055078517781817,0.004689190045667498,0.0,0.0,0.0,0.0,0.0,0.0,0.0,0.0,0.0,0.015925645826111934,0.38214159043511,9.809643873745607,0.0,0.0,0.0,0.0,0.0,0.0,0.0,0.0,0.0
2025/04/09 09:59:53.603932927,1744185593,603143821,mA1/imu,-0.7084508620250001,-0.7057600255916403,0.00039774530580504656,-6.458787131038204e-05,0.0,0.0,0.0,0.0,0.0,0.0,0.0,0.0,0.0,0.004455468578244996,0.0016186261304423544,0.004729465486120912,0.0,0.0,0.0,0.0,0.0,0.0,0.0,0.0,0.0,0.016579454466654188,0.07668048305702993,9.808879734118808,0.0,0.0,0.0,0.0,0.0,0.0,0.0,0.0,0.0
2025/04/09 09:59:53.653862401,1744185593,653020152,mA1/imu,-0.7085347864986442,-0.7056757563828122,0.00042780186447976013,1.2666152395131091e-05,0.0,0.0,0.0,0.0,0.0,0.0,0.0,0.0,0.0,0.0017665510098265225,0.0011268891147047646,0.0047750265257402525,0.0,0.0,0.0,0.0,0.0,0.0,0.0,0.0,0.0,0.016469132395449487,-0.024762059612315385,9.811751752950451,0.0,0.0,0.0,0.0,0.0,0.0,0.0,0.0,0.0
2025/04/09 09:59:53.705179850,1744185593,704040102,mA1/imu,-0.7086192906393587,-0.705590874914402,0.0004611917318680817,7.398301995623478e-05,0.0,0.0,0.0,0.0,0.0,0.0,0.0,0.0,0.0,0.0012608771592917973,0.0005706861834762113,0.004795549438924964,0.0,0.0,0.0,0.0,0.0,0.0,0.0,0.0,0.0,0.016758384116766327,0.030609290462920016,9.808354584896444,0.0,0.0,0.0,0.0,0.0,0.0,0.0,0.0,0.0
2025/04/09 09:59:53.754977775,1744185593,753865165,mA1/imu,-0.7087040451627042,-0.7055057331179263,0.0004768911228920507,9.737871409851867e-05,0.0,0.0,0.0,0.0,0.0,0.0,0.0,0.0,0.0,0.0011333815557892177,-1.5121621826992881e-05,0.004810827756543941,0.0,0.0,0.0,0.0,0.0,0.0,0.0,0.0,0.0,0.01639957231924346,0.11984567941619978,9.808303314913118,0.0,0.0,0.0,0.0,0.0,0.0,0.0,0.0,0.0
2025/04/09 09:59:53.806937170,1744185593,804893843,mA1/imu,-0.7087892208408474,-0.705420169821105,0.0004677167465303192,7.530227886244276e-05,0.0,0.0,0.0,0.0,0.0,0.0,0.0,0.0,0.0,-0.0003017033205531651,-0.0005983056730891864,0.004845228182629083,0.0,0.0,0.0,0.0,0.0,0.0,0.0,0.0,0.0,0.01533807600942401,0.12408013447139914,9.808703114726415,0.0,0.0,0.0,0.0,0.0,0.0,0.0,0.0,0.0
2025/04/09 09:59:53.855530465,1744185593,854704192,mA1/imu,-0.7088750455993258,-0.7053339446769977,0.0004425693545432137,1.8582420411258194e-05,0.0,0.0,0.0,0.0,0.0,0.0,0.0,0.0,0.0,-0.004599386912961151,-0.0010734514877879396,0.004882994079386922,0.0,0.0,0.0,0.0,0.0,0.0,0.0,0.0,0.0,0.015578401783864125,0.3537445615411743,9.809913921914477,0.0,0.0,0.0,0.0,0.0,0.0,0.0,0.0,0.0
2025/04/09 09:59:53.908233708,1744185593,905824058,mA1/imu,-0.7089614913267344,-0.7052470693314769,0.0004142235393349368,-5.8600303727610596e-05,0.0,0.0,0.0,0.0,0.0,0.0,0.0,0.0,0.0,-0.0047055094979944175,-0.0015229864645440747,0.004916078107143638,0.0,0.0,0.0,0.0,0.0,0.0,0.0,0.0,0.0,0.014868474146491482,0.6312575806052713,9.808014126744068,0.0,0.0,0.0,0.0,0.0,0.0,0.0,0.0,0.0
2025/04/09 09:59:53.956468846,1744185593,955621710,mA1/imu,-0.7090484834149731,-0.7051596183493736,0.000362030095184827,-0.0001724833402296632,0.0,0.0,0.0,0.0,0.0,0.0,0.0,0.0,0.0,-0.004835164459853289,-0.0018536157584518455,0.00494987165779464,0.0,0.0,0.0,0.0,0.0,0.0,0.0,0.0,0.0,0.014261695084761158,0.06874718157963229,9.809587684649712,0.0,0.0,0.0,0.0,0.0,0.0,0.0,0.0,0.0
2025/04/09 09:59:53.997283181,1744185593,996468460,mA1/imu,0.7091361033910307,0.7050714883269876,-0.00029734317518667467,0.000307900614359174,0.0,0.0,0.0,0.0,0.0,0.0,0.0,0.0,0.0,-0.006065670683197651,-0.0020574020098448153,0.004990274316220311,0.0,0.0,0.0,0.0,0.0,0.0,0.0,0.0,0.0,0.013486946871466385,0.04471047437049839,9.80751664685109,0.0,0.0,0.0,0.0,0.0,0.0,0.0,0.0,0.0
2025/04/09 09:59:54.50973660,1744185594,46920590,mA1/imu,0.7092244447271502,0.7049825724589741,-0.00022208501804650874,0.00045848537346457964,0.0,0.0,0.0,0.0,0.0,0.0,0.0,0.0,0.0,-0.008560376785442062,-0.0021182434457332863,0.005033379828574632,0.0,0.0,0.0,0.0,0.0,0.0,0.0,0.0,0.0,0.012929189833557245,0.5464171713982137,9.808593115714784,0.0,0.0,0.0,0.0,0.0,0.0,0.0,0.0,0.0
2025/04/09 09:59:54.98733728,1744185594,97937945,mA1/imu,0.7093184637150848,0.7048878869071772,-0.00013776560379257833,0.0006041068156637742,0.0,0.0,0.0,0.0,0.0,0.0,0.0,0.0,0.0,-0.007273977345331123,-0.001101250720029319,0.005771455117644559,0.0,0.0,0.0,0.0,0.0,0.0,0.0,0.0,0.0,-0.032187418062896316,0.02747673661296209,9.810474199737971,0.0,0.0,0.0,0.0,0.0,0.0,0.0,0.0,0.0
2025/04/09 09:59:54.148651735,1744185594,147851303,mA1/imu,0.7094248594337077,0.704780691920808,-3.462239743510815e-05,0.0007375055124881824,0.0,0.0,0.0,0.0,0.0,0.0,0.0,0.0,0.0,-0.005950835921196182,-0.0008602636780546431,0.00608482504695109,0.0,0.0,0.0,0.0,0.0,0.0,0.0,0.0,0.0,0.017348288435657992,0.11402985349575033,9.810748688478892,0.0,0.0,0.0,0.0,0.0,0.0,0.0,0.0,0.0
2025/04/09 09:59:54.200124875,1744185594,198839972,mA1/imu,0.7095269910264058,0.704677697686831,6.54653099952833e-05,0.0008871877451126287,0.0,0.0,0.0,0.0,0.0,0.0,0.0,0.0,0.0,-0.005870663856851488,-0.002061439571096745,0.005353979835569918,0.0,0.0,0.0,0.0,0.0,0.0,0.0,0.0,0.0,0.06204887917364189,0.10702006903448635,9.809585117003769,0.0,0.0,0.0,0.0,0.0,0.0,0.0,0.0,0.0
2025/04/09 09:59:54.249603259,1744185594,248635318,mA1/imu,0.7096171581821447,0.7045866707642178,0.00014529193851727998,0.0010445502119996169,0.0,0.0,0.0,0.0,0.0,0.0,0.0,0.0,0.0,-0.006663090712165823,-0.002027586513639888,0.005138691137783286,0.0,0.0,0.0,0.0,0.0,0.0,0.0,0.0,0.0,0.010422948852556532,0.029113208070981656,9.809134232057747,0.0,0.0,0.0,0.0,0.0,0.0,0.0,0.0,0.0
2025/04/09 09:59:54.302068419,1744185594,300333967,mA1/imu,0.7097128484787959,0.7044900654279145,0.0002226718497264864,0.0011708265173393049,0.0,0.0,0.0,0.0,0.0,0.0,0.0,0.0,0.0,-0.004718808621261766,-0.0006209472411764357,0.005872401115534579,0.0,0.0,0.0,0.0,0.0,0.0,0.0,0.0,0.0,-0.03306342965152891,-0.5128204463450333,9.810956794257466,0.0,0.0,0.0,0.0,0.0,0.0,0.0,0.0,0.0
2025/04/09 09:59:54.352169794,1744185594,350151296,mA1/imu,0.7098209694312624,0.7043809437660428,0.00030496016256114484,0.0012587351671485415,0.0,0.0,0.0,0.0,0.0,0.0,0.0,0.0,0.0,-0.004909746549185247,-2.5670537831379323e-05,0.006188361145112022,0.0,0.0,0.0,0.0,0.0,0.0,0.0,0.0,0.0,0.015858109745962128,0.6363172932064807,9.812243595060453,0.0,0.0,0.0,0.0,0.0,0.0,0.0,0.0,0.0
2025/04/09 09:59:54.402042544,1744185594,401085800,mA1/imu,0.7099300296598532,0.7042708741225685,0.00037444330873400003,0.0013223622808293898,0.0,0.0,0.0,0.0,0.0,0.0,0.0,0.0,0.0,-0.0036730827260866425,0.0003268225917810485,0.006170353476737203,0.0,0.0,0.0,0.0,0.0,0.0,0.0,0.0,0.0,0.013304660481601395,0.11098990240932415,9.811856380830505,0.0,0.0,0.0,0.0,0.0,0.0,0.0,0.0,0.0
2025/04/09 09:59:54.451871694,1744185594,450910851,mA1/imu,0.7100386767199539,0.7041612389869807,0.00042853465447477505,0.0013577290404187528,0.0,0.0,0.0,0.0,0.0,0.0,0.0,0.0,0.0,-0.0025716075590887953,0.0006747708780553377,0.006200569729846663,0.0,0.0,0.0,0.0,0.0,0.0,0.0,0.0,0.0,0.012934627836760599,-0.0036592132113144223,9.811003316155503,0.0,0.0,0.0,0.0,0.0,0.0,0.0,0.0,0.0
2025/04/09 09:59:54.502641757,1744185594,501849790,mA1/imu,0.7101467093717034,0.7040522487394318,0.0004627235238579926,0.0013667847055972829,0.0,0.0,0.0,0.0,0.0,0.0,0.0,0.0,0.0,-0.0006015728034926022,0.00057837279841157,0.006013238842779449,0.0,0.0,0.0,0.0,0.0,0.0,0.0,0.0,0.0,0.03713014629102569,-0.602915587173447,9.809263146177527,0.0,0.0,0.0,0.0,0.0,0.0,0.0,0.0,0.0
2025/04/09 09:59:54.554858337,1744185594,552211242,mA1/imu,0.7102512810226356,0.7039467864911232,0.00046739842962254056,0.0013494936954772845,0.0,0.0,0.0,0.0,0.0,0.0,0.0,0.0,0.0,0.0008085556528234594,0.0007516734513183742,0.00594991837932747,0.0,0.0,0.0,0.0,0.0,0.0,0.0,0.0,0.0,0.010777348443715268,-0.5948768621032227,9.812308303027862,0.0,0.0,0.0,0.0,0.0,0.0,0.0,0.0,0.0
2025/04/09 09:59:54.604042856,1744185594,603150504,mA1/imu,0.710355199217505,0.7038420542106305,0.000441217089938011,0.0012880204572285926,0.0,0.0,0.0,0.0,0.0,0.0,0.0,0.0,0.0,0.0029312442778512454,0.0011624940727721913,0.005823446618359969,0.0,0.0,0.0,0.0,0.0,0.0,0.0,0.0,0.0,0.007338627410659604,0.07875544648494467,9.81024951952493,0.0,0.0,0.0,0.0,0.0,0.0,0.0,0.0,0.0
2025/04/09 09:59:54.654259197,1744185594,652943295,mA1/imu,0.7104566624232318,0.7037397790143042,0.0004182238347794083,0.0012162812850981851,0.0,0.0,0.0,0.0,0.0,0.0,0.0,0.0,0.0,0.0044185525647806095,0.0014589210531395346,0.005745623393568323,0.0,0.0,0.0,0.0,0.0,0.0,0.0,0.0,0.0,0.010051501542950236,0.09780362610990312,9.812755164046019,0.0,0.0,0.0,0.0,0.0,0.0,0.0,0.0,0.0
2025/04/09 09:59:54.705136709,1744185594,703861631,mA1/imu,0.7105574629217006,0.703638193653047,0.00037480885685793846,0.0011152745284870047,0.0,0.0,0.0,0.0,0.0,0.0,0.0,0.0,0.0,0.003773218321529767,0.001680795179669799,0.005711015910279009,0.0,0.0,0.0,0.0,0.0,0.0,0.0,0.0,0.0,0.010276321193280261,0.60775655804181,9.811449854209833,0.0,0.0,0.0,0.0,0.0,0.0,0.0,0.0,0.0
2025/04/09 09:59:54.754369663,1744185594,753649107,mA1/imu,0.7106576965109606,0.7035371640758971,0.0003200216458863022,0.0009973664951882747,0.0,0.0,0.0,0.0,0.0,0.0,0.0,0.0,0.0,0.004583268423828002,0.0017950227780310244,0.005679244379911012,0.0,0.0,0.0,0.0,0.0,0.0,0.0,0.0,0.0,0.009942730520484205,-0.02404663679650447,9.810858456732774,0.0,0.0,0.0,0.0,0.0,0.0,0.0,0.0,0.0
2025/04/09 09:59:54.807889437,1744185594,805160340,mA1/imu,0.7107556399988618,0.7034384296350704,0.000241541027014013,0.0008588249452642382,0.0,0.0,0.0,0.0,0.0,0.0,0.0,0.0,0.0,0.006103339904981927,0.001472470860702362,0.005406976090296836,0.0,0.0,0.0,0.0,0.0,0.0,0.0,0.0,0.0,0.026783215332694232,0.033997563435788504,9.810581090537513,0.0,0.0,0.0,0.0,0.0,0.0,0.0,0.0,0.0
2025/04/09 09:59:54.857148102,1744185594,854957608,mA1/imu,0.710848732913335,0.7033445323137196,0.00015523127266466323,0.0007236595561086654,0.0,0.0,0.0,0.0,0.0,0.0,0.0,0.0,0.0,0.006512601463766735,0.001338128434164985,0.005251566211867276,0.0,0.0,0.0,0.0,0.0,0.0,0.0,0.0,0.0,0.008581716003590405,0.23277713018143026,9.81093138510998,0.0,0.0,0.0,0.0,0.0,0.0,0.0,0.0,0.0
2025/04/09 09:59:54.900866117,1744185594,898465284,mA1/imu,0.710940386763883,0.7032520303212766,6.529748337248643e-05,0.0005865605350327905,0.0,0.0,0.0,0.0,0.0,0.0,0.0,0.0,0.0,0.006790572389704044,0.0012609444027419877,0.005179507819234832,0.0,0.0,0.0,0.0,0.0,0.0,0.0,0.0,0.0,0.008946586099519165,0.057043092353599396,9.809244990024693,0.0,0.0,0.0,0.0,0.0,0.0,0.0,0.0,0.0
2025/04/09 09:59:54.950600083,1744185594,948311230,mA1/imu,0.7110308192706564,0.703160695101467,-1.9242540581796764e-05,0.0004588479549149741,0.0,0.0,0.0,0.0,0.0,0.0,0.0,0.0,0.0,0.005083588567012993,0.0011250168992231017,0.005112448709235701,0.0,0.0,0.0,0.0,0.0,0.0,0.0,0.0,0.0,0.008991108987202574,-0.04227403022438449,9.808590007799548,0.0,0.0,0.0,0.0,0.0,0.0,0.0,0.0,0.0
2025/04/09 09:59:55.2885207,1744185594,999631670,mA1/imu,0.7111254644963593,0.7030650456238757,-0.00010106535746249337,0.000324272305723226,0.0,0.0,0.0,0.0,0.0,0.0,0.0,0.0,0.0,0.004827544866243306,0.001990830080305212,0.005801869739621993,0.0,0.0,0.0,0.0,0.0,0.0,0.0,0.0,0.0,-0.03430739583428852,-0.030798642714731303,9.809710110987236,0.0,0.0,0.0,0.0,0.0,0.0,0.0,0.0,0.0
2025/04/09 09:59:55.51434062,1744185595,49757239,mA1/imu,0.7112316371103243,0.7029576770189657,-0.00016643685854758695,0.0001870621273318971,0.0,0.0,0.0,0.0,0.0,0.0,0.0,0.0,0.0,0.005213759269892918,0.0018021923827138357,0.0060483739800712985,0.0,0.0,0.0,0.0,0.0,0.0,0.0,0.0,0.0,0.014158692005576196,0.04971368314380495,9.80987713141883,0.0,0.0,0.0,0.0,0.0,0.0,0.0,0.0,0.0
2025/04/09 09:59:55.102542591,1744185595,100677159,mA1/imu,-0.7113381503102018,-0.7028498999640208,0.00021631594620791624,-8.509546500059572e-05,0.0,0.0,0.0,0.0,0.0,0.0,0.0,0.0,0.0,0.0038728207438843555,0.001206861998798802,0.006067887492962739,0.0,0.0,0.0,0.0,0.0,0.0,0.0,0.0,0.0,0.014267465325007837,0.6617317031860535,9.808835265792258,0.0,0.0,0.0,0.0,0.0,0.0,0.0,0.0,0.0
2025/04/09 09:59:55.153465941,1744185595,150508993,mA1/imu,-0.7114449793348658,-0.7027417566964463,0.0002538807887704747,-1.7859178039220688e-05,0.0,0.0,0.0,0.0,0.0,0.0,0.0,0.0,0.0,0.002999684494890394,0.000559027481140692,0.0060874781772755964,0.0,0.0,0.0,0.0,0.0,0.0,0.0,0.0,0.0,0.014201658430907428,0.05774976172877583,9.806524577096827,0.0,0.0,0.0,0.0,0.0,0.0,0.0,0.0,0.0
2025/04/09 09:59:55.199958968,1744185595,196612155,mA1/imu,-0.7115521626792446,-0.7026332186211482,0.00028214785094288685,1.6406271071540897e-05,0.0,0.0,0.0,0.0,0.0,0.0,0.0,0.0,0.0,0.0014727324406395863,-0.00011453989769530104,0.006110229019897581,0.0,0.0,0.0,0.0,0.0,0.0,0.0,0.0,0.0,0.01450872913802576,-0.1988111927929362,9.807933059326949,0.0,0.0,0.0,0.0,0.0,0.0,0.0,0.0,0.0
