time,header_stamp_secs,header_stamp_nsecs,header_frame_id,child_frame_id,pose_position_x,pose_position_y,pose_position_z,pose_orientation_x,pose_orientation_y,pose_orientation_z,pose_orientation_w,twist_linear_x,twist_linear_y,twist_linear_z,twist_angular_x,twist_angular_y,twist_angular_z,gps_status
2025/04/11 11:15:48.313252137,1744362947,651013136,piren,vessel_center,255.36128165409502,1038.881468003407,-41.474271203647206,-0.003945725479742575,-0.007628188052648394,-0.4260408334562326,0.904663169486517,0.06748424856496049,0.031506026565693825,0.002292082420524276,0.012910923920571804,0.011025318875908852,-0.010285945795361934,2
2025/04/11 11:15:50.205528791,1744362950,183737058,piren,vessel_center,255.50524552965203,1038.9509123386242,-41.468972653875724,-0.0038065627931556534,-0.007398922108991554,-0.44005061009494495,0.897934422208211,0.07159352095827662,0.03724778054838672,0.003131798310681598,0.004936140030622482,0.01660432666540146,-0.008949513495708697,2
2025/04/11 11:15:52.186229813,1744362952,141148672,piren,vessel_center,255.61018610049118,1039.0081966459502,-41.46546227432034,-0.0038562031230247886,-0.008246397587262243,-0.44235385915277703,0.896794396680171,0.06260530780953094,0.04205749184238804,-0.0010744908686434415,0.019935909658670425,0.0012850241037085652,-0.00966420234924645,2
2025/04/11 11:15:58.18792864,1744362957,964566039,piren,vessel_center,255.979488709659,1039.183828988587,-41.47185388064541,-0.004018929853279482,-0.008454866730950913,-0.4551389581234289,0.8903712103553866,0.04098894095588994,0.07132854148858306,0.0016786438243854278,0.003717737039551139,-0.0033778322394937277,-0.0020960840990356683,2
2025/04/11 11:15:59.545474076,1744362959,494276089,piren,vessel_center,256.0221404373051,1039.3320495659566,-41.46829868522765,-0.004591355253314136,-0.008463016591198375,-0.419180011390347,0.9078520886454488,-0.021687248426042152,0.13388078549905905,0.0033060819068565723,0.0024583274498581886,-0.002212515799328685,0.01776450292070262,2
2025/04/11 11:16:01.169577086,1744362961,75170336,piren,vessel_center,255.95453750372394,1039.6062560115834,-41.463257180907235,-0.005554996317770238,-0.007177681008565388,-0.3259705717157991,0.9453363471730704,-0.084878689410266,0.1948793061890682,0.000834863080035486,0.019227923825383186,0.0053168730810284615,0.051784581559978234,2
2025/04/11 11:16:02.236196038,1744362962,210320093,piren,vessel_center,255.82739287767455,1039.8823443351037,-41.46367375355502,-0.005323470263631135,-0.008048211594889894,-0.2416574607910786,0.9703136392932362,-0.09400841853864686,0.1794889520515425,-0.002903200461048616,0.011122569441795349,0.01364937424659729,0.0792610303226101,2
2025/04/11 11:16:03.605483185,1744362963,591803691,piren,vessel_center,255.67895408551323,1040.1408537823686,-41.4645151870533,-0.00397562272565443,-0.0074400953937633525,-0.14349831101839874,0.989614608895474,-0.12239896878493264,0.1757748091029497,0.004925000406552638,0.014446953311562538,0.009018599055707455,0.0949099687896827,2
2025/04/11 11:16:04.619867662,1744362964,593232088,piren,vessel_center,255.5398182836921,1040.3658598255242,-41.45923992969819,-0.0023190324960884715,-0.007522318370232008,-0.0944787300920362,0.9954957590943395,-0.062315753216285075,0.14753577313749694,0.0017628659217108658,-0.0031793760135769844,0.006415402516722679,0.08273964791366072,2
2025/04/11 11:16:05.632756210,1744362965,584132990,piren,vessel_center,255.4834654536536,1040.5111974919996,-41.45631634775378,-0.002480662311974462,-0.008384028349515127,-0.09623965874125669,0.995319789046965,-0.047939039192124354,0.14063716541586466,0.004383039944508393,0.015158931724727154,-0.009225829504430294,0.07649577639487769,2
2025/04/11 11:16:06.692156820,1744362966,683057861,piren,vessel_center,255.3779799224504,1040.692724994296,-41.45632160642911,-0.0026221703448347515,-0.008689558886976477,-0.04794934902131255,0.9988085280560358,-0.15920857644596262,0.17199397438052977,-0.007700478912562491,0.021068207919597626,0.0019194954074919224,0.06916043027376108,2
2025/04/11 11:16:07.805544794,1744362967,798640939,piren,vessel_center,255.2088469384859,1040.884062238547,-41.466957405380604,-0.002431291758485505,-0.008730165423950236,-0.030913880251462522,0.9994809678227264,-0.144908561809848,0.17632652254778797,-0.012641966436632488,0.0038801846094429493,0.00920893531292677,0.059970877928802055,2
2025/04/11 11:16:08.970039704,1744362968,952131076,piren,vessel_center,255.06942304674607,1041.0765934404287,-41.48191899955435,-0.003626950444470651,-0.008300180538900808,-0.01674154120682894,0.9998188201026799,-0.08895607436738837,0.1554777998426288,-0.0135376077749755,0.011619683355093002,0.00032954171183519065,0.044299592503773806,2
2025/04/11 11:16:10.72171934,1744362970,54015527,piren,vessel_center,254.9864162716766,1041.2408694928422,-41.49006759961546,-0.00354928921368237,-0.008808337866476283,-0.014060595489468865,0.9998560473311091,-0.05473111111166426,0.13999538390253283,0.0020262250103995957,0.009460044093430042,-0.004265177063643932,0.03470266897891157,2
2025/04/11 11:16:11.116433387,1744362971,85574407,piren,vessel_center,254.9235402436133,1041.3835932535455,-41.487187316242405,-0.0025988323204336147,-0.008558634664707585,-0.0073850514627151476,0.9999327261661853,-0.0671831079100003,0.13015629142864774,0.0037594668363737146,0.013908043503761292,-0.0002693778951652348,0.030344046785187928,2
2025/04/11 11:16:12.130819082,1744362972,99440157,piren,vessel_center,254.84730718762947,1041.510208026484,-41.480674986359354,-0.0011905081204762885,-0.009990836040777759,0.0024528396558355582,0.9999463732937103,-0.08807229880496842,0.12201897005033963,0.010109685150263115,0.01861608400940895,0.003109247423708439,0.028880515493708334,2
2025/04/11 11:16:13.39104023,1744362973,25905619,piren,vessel_center,254.76401808310655,1041.6163004348055,-41.46901301649471,-0.0009386870339064324,-0.008910960554138793,0.008290817392779088,0.9999254852215813,-0.08731049821788027,0.10175771793146843,0.014361932457217019,0.00592546071857214,0.0023741365876048803,0.02289162416972917,2
2025/04/11 11:16:13.938774994,1744362973,928031848,piren,vessel_center,254.70338022845615,1041.661660652051,-41.460795402027536,-0.0011537664856910786,-0.008755192516674015,0.0064662102698166786,0.9999400999818134,-0.04608360341014767,-0.004519705134589533,0.0035387462118534607,0.014285283163189888,0.009007486514747143,0.01387446081937421,2
2025/04/11 11:16:14.895563355,1744362974,885296340,piren,vessel_center,254.6751313670997,1041.597668705083,-41.457995512040114,-0.00036392926039968687,-0.009051570390638272,-0.008516081169968714,0.9999227035078578,-0.01026239908956094,-0.14170298209191978,0.0022374222392328672,0.007580277509987354,-0.004124211147427559,-0.0053169194920215665,2
2025/04/11 11:16:16.162960781,1744362976,99859565,piren,vessel_center,254.66668654684972,1041.3603099118502,-41.46345325400928,-0.0011353663777229697,-0.007421126895870273,-0.05266973919279282,0.9985837653357614,-0.0013277694809404154,-0.29780297984980286,-0.016602995063965495,0.02260981872677803,0.00804378092288971,-0.03083118524409443,2
2025/04/11 11:16:17.322156818,1744362977,247032055,piren,vessel_center,254.64135641524885,1041.0129715055332,-41.48011564402601,-0.0018990620284837297,-0.007865574718791521,-0.0993754396124746,0.9950171095511788,-0.056197066718709804,-0.30909348999757646,-0.011003398913021642,0.002329754875972867,0.0007331850938498974,-0.044204169619279726,2
2025/04/11 11:16:18.439999784,1744362978,407494046,piren,vessel_center,254.5377063587139,1040.7061082735468,-41.486969164555035,-0.0023325201294443305,-0.008154137193986737,-0.10745569938496703,0.9941736981363746,-0.1467691510670648,-0.19613605710910642,0.0024678779194913705,0.00803391169756651,0.0010460354387760162,-0.02246702058932933,2
2025/04/11 11:16:19.407959686,1744362979,399556210,piren,vessel_center,254.38615476131554,1040.549412174269,-41.48038882667254,-0.001359799448414168,-0.00899194027517694,-0.0696003547806547,0.9975335014774966,-0.15797965605090675,-0.10474899002692846,0.012014272665788807,0.00036360384547151625,0.0007901226636022329,0.01089130541445048,2
2025/04/11 11:16:20.512080776,1744362980,483648951,piren,vessel_center,254.26575514145424,1040.4317156643683,-41.470984182657816,-0.001185921616872893,-0.008778535042951114,-0.0318286773693225,0.99945408409258,-0.03495138535090528,-0.11037677919721327,0.00322989451081517,0.012280923314392567,0.004148795735090971,0.023696507071050664,2
2025/04/11 11:16:21.608519930,1744362981,595639836,piren,vessel_center,254.26285530546753,1040.2888372819273,-41.47203588862136,-0.0008831346079598161,-0.009022019564678626,-0.01098982694874607,0.9998985183206721,0.04669766353231343,-0.15938384890105234,-0.007343722370103563,0.0046928576193749905,0.0015486294869333506,0.02414221628799183,2
2025/04/11 11:16:22.702069690,1744362982,692507558,piren,vessel_center,254.2646934659425,1040.1121914784787,-41.48136891389352,-0.0007866180698097803,-0.009439826571056976,0.0009842467772902589,0.9999546500539922,-0.06724737724880478,-0.16277716279892054,-0.010249257623667147,0.012014896608889103,0.008332653902471066,0.022938527949953706,2
2025/04/11 11:16:23.837859438,1744362983,811528284,piren,vessel_center,254.1242316856874,1039.9475861455942,-41.48814273128124,-0.0006638155576549251,-0.00913885224007585,0.00992551704129584,0.9999087582575235,-0.19767905508178962,-0.11619408848710017,0.00010072009284832137,0.016568250954151154,0.0012971434043720365,0.01881725972363621,2
2025/04/11 11:16:25.67473690,1744362985,50614978,piren,vessel_center,253.88259210991748,1039.8243159861847,-41.48659872375361,-0.001332282426007221,-0.008439564977089368,0.020932050397425878,0.9997443913484558,-0.207684123728609,-0.07882665888482743,0.0033808406476395314,0.008475874550640583,0.0012036236003041267,0.019774307789383515,2
2025/04/11 11:16:26.194788447,1744362986,177038700,piren,vessel_center,253.69035774172696,1039.7269561282617,-41.479833670635614,-0.0007533619909055674,-0.008959854133413096,0.03840746145589418,0.9992217073123125,-0.11095465132980288,-0.09253171642958487,0.009319716896908319,0.002374779200181365,0.011147154495120049,0.025476807666959127,2
2025/04/11 11:16:27.250265477,1744362987,238015286,piren,vessel_center,253.62589520322967,1039.6052165232875,-41.47156261824156,-0.0013417894577623336,-0.008740712659772215,0.06172689919669227,0.9980539010789006,0.008764937738328538,-0.1495384698269846,0.005854391862931067,0.004063405562192202,0.0020838449709117413,0.03438229126340538,2
2025/04/11 11:16:28.253214978,1744362988,242872165,piren,vessel_center,253.6635920076048,1039.4398872843142,-41.46990857172075,3.337492320937698e-05,-0.009795739230222028,0.08803993145343204,0.9960687791757771,0.0753128880976873,-0.18573680170284215,-0.0038131333245474634,0.013221800327301025,0.016031725332140923,0.040607519416661186,2
2025/04/11 11:16:29.314194306,1744362989,301523137,piren,vessel_center,253.73069211052476,1039.2455483332542,-41.47351387000007,0.00048311136118277357,-0.00813399797971071,0.11027536032138263,0.9938676720702149,0.047640922966775086,-0.1842899611321628,-0.002893530099908132,0.009182865731418133,-0.0026948421727865934,0.03673114094575122,2
2025/04/11 11:16:30.254990534,1744362990,246500587,piren,vessel_center,253.7595482150659,1039.0858708196756,-41.47667353005123,0.0010888103113790952,-0.00788657832192467,0.11657989224345419,0.9931494072389021,0.009774183559784343,-0.14873521600766262,-0.0038416749694307256,0.003549422137439251,0.018404582515358925,0.031041719080360408,2
2025/04/11 11:16:31.229477140,1744362991,206169390,piren,vessel_center,253.75549453370218,1038.9556697807416,-41.48040025813248,-0.0010641631242452212,-0.008013551389537807,0.1128864956287814,0.9935750045445112,-0.021063411311547584,-0.12300933745391385,-0.004018038951113651,0.0005553237861022353,0.0032213537488132715,0.014476192780499572,2
2025/04/11 11:16:32.407006146,1744362992,393967445,piren,vessel_center,253.73642274088573,1038.8192365770794,-41.48082719511227,-0.0010055677180427016,-0.009153461386129552,0.08393593820107982,0.996428603190676,-0.006583493119797,-0.09698051594186845,0.006246120902835543,0.01409485749900341,0.0006211154977791011,-0.013471568276171107,2
2025/04/11 11:16:33.473217399,1744362993,451490455,piren,vessel_center,253.72160597037217,1038.711033081598,-41.47140932311152,0.00018557041361365824,-0.009350932284736135,0.05442794479994259,0.9984738977328763,-0.02478003180490313,-0.11160770881633661,0.01282706328568102,0.0054033477790653706,0.0076261255890131,-0.02091553276345304,2
2025/04/11 11:16:34.569369517,1744362994,520336967,piren,vessel_center,253.70249388748616,1038.5659281468743,-41.46196188332389,0.0002455835019471674,-0.008814995017255026,0.03653177227184167,0.9992935830706948,-0.00795366412703524,-0.15758826624896763,0.0031976958611493553,0.014696638099849224,0.0075172968208789825,-0.022232224279751578,2
2025/04/11 11:16:35.427532988,1744362995,421337567,piren,vessel_center,253.7286539290845,1038.3993466239701,-41.46448183935994,-0.002613252411159328,-0.009265053884739059,0.02558257493450274,0.9996263609709726,0.06133562446848363,-0.20930933314339206,-0.008024940531140685,-0.005696409847587347,0.0017646369524300098,-0.02747595945978226,2
2025/04/11 11:16:36.432775775,1744362996,425612107,piren,vessel_center,253.82605150961098,1038.180277993892,-41.4765887603704,-0.002829800956037208,-0.008190381871099406,-0.0006406164256271314,0.999962249028407,0.13634256220152555,-0.22950345845474665,-0.016514653492254266,0.013014305382966995,-0.0015392611967399716,-0.03485461940985719,2
2025/04/11 11:16:37.454007206,1744362997,444402710,piren,vessel_center,253.96281651854883,1037.9680443401642,-41.48736728234245,-0.0026262548476680544,-0.008419134709137454,-0.02395680377054061,0.9996740931470238,0.13731570612153507,-0.18969221028346517,-0.0032917214379893645,0.015867924317717552,0.0002678245073184371,-0.03709410166099763,2
2025/04/11 11:16:38.476343631,1744362998,465536612,piren,vessel_center,254.08848914544959,1037.8184701076375,-41.49156568457007,-0.002267661570265094,-0.008816197229797,-0.05830111077208738,0.9982575383437627,0.09905360155778442,-0.08708026592794348,-0.004829351290305877,0.020400304347276688,-0.0013709533959627151,-0.048472364003571904,2
2025/04/11 11:16:39.694087217,1744362999,668770575,piren,vessel_center,254.1926098766383,1037.8064995844666,-41.48217610168979,-0.0032533620452806795,-0.008748685139672361,-0.11676661286661971,0.9931155190930138,0.06856562916468636,0.10413260157110917,0.026549298305917457,-0.0066702282056212425,0.00471611600369215,-0.06214018567863675,2
2025/04/11 11:16:40.874564558,1744363000,858126203,piren,vessel_center,254.24589433378802,1037.9562111803223,-41.45646603228622,-0.0014309656105533685,-0.0076244710036529224,-0.1270406976027765,0.9918671689958972,0.009770068052830441,0.173076676430719,0.015464105729000633,0.026001371443271637,0.008200076408684254,-0.0357055926112654,2
2025/04/11 11:16:41.870493901,1744363001,861950727,piren,vessel_center,254.26964798209474,1038.1084176189556,-41.45131898096582,-0.0014161173062549532,-0.008442305593401981,-0.09639286321048901,0.9953065547910988,0.03763769914316971,0.11194670850982212,-0.007457110617718941,0.006978087592869997,0.004901418928056955,-0.006342075594938227,2
2025/04/11 11:16:42.814906183,1744363002,804769791,piren,vessel_center,254.35362322610666,1038.1590042888383,-41.46323305045782,0.00015510523053608935,-0.007480179075691374,-0.07853873453609306,0.9968829871358184,0.1533662883462283,-0.0038056347355450992,-0.01947765801182877,0.006461803335696459,-0.0016533618327230215,-0.001437605272224928,2
2025/04/11 11:16:43.695123875,1744363003,684353456,piren,vessel_center,254.51846149079128,1038.130361475621,-41.47820700530263,0.0015535210900843,-0.008492416811409104,-0.06633613235022794,0.9977599826479999,0.21499161046097004,-0.061800155979654006,-0.013595942607287359,0.0113022830337286,-0.005891281180083752,0.0104303892377472,2
2025/04/11 11:16:44.629787347,1744363004,620686152,piren,vessel_center,254.6962349294698,1038.0697007307351,-41.489885884359296,0.0017521711167162962,-0.00763918687771615,-0.03957487313432871,0.9991858696642116,0.16027051401140385,-0.06583571589308128,-0.011038153755470237,0.01001280453056097,0.008036542683839798,0.027273748109440596,2
2025/04/11 11:16:45.642087417,1744363005,613892951,piren,vessel_center,254.81510342828386,1038.0343133464944,-41.492694895716504,0.0020022582528727286,-0.007115509621849828,-0.0038387218606878142,0.9999653117479559,0.07469848753707982,-0.0029025102512606066,0.005970651943437044,0.016823621466755867,0.0030370899476110935,0.04003055051453581,2
2025/04/11 11:16:46.621657178,1744363006,610466565,piren,vessel_center,254.85975361073372,1038.0402623605999,-41.489201153981654,0.0013519745168779405,-0.007747127335236636,0.036453476651249664,0.9993044071868162,0.01390992962508325,0.01713602057643577,0.0009389462588102583,0.012719592079520226,0.0022616765927523375,0.05783973500701324,2
2025/04/11 11:16:47.684722250,1744363007,667265764,piren,vessel_center,254.87758313958997,1038.0575680442305,-41.484728492121455,0.004513522336249324,-0.007498406211551099,0.09417354114286419,0.995517325900971,0.019094235326065145,0.013953502383992528,0.008003436589990453,0.01996470056474209,0.016222452744841576,0.06599336380460931,2
2025/04/11 11:16:48.732918883,1744363008,697633673,piren,vessel_center,254.93000129131568,1038.0521370216065,-41.48163073857885,0.0034004901877089265,-0.006920977541915776,0.11945066672632801,0.9928101907993206,0.09609217147169592,-0.030797411013554734,-0.003314849678940933,0.0031943677458912134,0.0075155156664550304,0.06063603536406465,2
2025/04/11 11:16:49.737942244,1744363009,701256748,piren,vessel_center,255.04702529837584,1038.0179111474451,-41.48538761794762,0.003646100787238132,-0.0078920468062919,0.11909508867274435,0.9928447922008192,0.14377131003056992,-0.03856482301525837,-0.0043181284310549895,0.024057846516370773,0.009032674133777618,0.032689549933826105,2
2025/04/11 11:16:50.765626364,1744363010,739773699,piren,vessel_center,255.18048137886566,1037.9788669526326,-41.490481058210946,0.0036008487018526674,-0.007427582985240799,0.08289273087214007,0.9965242897532316,0.10360742582633965,-0.035225238942621286,-0.0055967039630616874,-0.006909620016813278,0.0026854376774281263,-0.0065579937567505735,2
2025/04/11 11:16:51.790302950,1744363011,767684128,piren,vessel_center,255.23497501490817,1037.9483589397898,-41.48974377787921,0.0033774990121062704,-0.006657428115340986,0.04513516847929194,0.9989529957498793,-0.007960247797063946,-0.022040461879078134,0.008033097705413095,0.013568381778895855,0.00044710945803672075,-0.01980299030295723,2
2025/04/11 11:16:52.656670986,1744363012,646412634,piren,vessel_center,255.16882005370974,1037.9239975034525,-41.48272856591618,0.002449542270040775,-0.006995232289720539,0.03169379340900563,0.9994701445902361,-0.1446539543547943,-0.034990864115207,0.008463228830345226,0.010435855016112328,-0.0028214275371283293,-0.022162379107311978,2
2025/04/11 11:16:53.714698544,1744363013,658544341,piren,vessel_center,254.9711966077552,1037.8862529526216,-41.47825063092888,0.002349159769224322,-0.00694737568592037,0.02069631255428042,0.9997589099708554,-0.266411234464772,-0.04130677330249462,-0.000707206311591423,0.01145515963435173,0.0023364273365586996,-0.01778215583091937,2
2025/04/11 11:16:54.795357580,1744363014,790100735,piren,vessel_center,254.61163539196704,1037.8353165583442,-41.480980459934074,0.001605156237749568,-0.0064415566539581925,0.025517463560995112,0.9996523340015465,-0.3863587677876922,-0.048893129515090616,-0.005087179120170137,0.00339979724958539,0.005778961349278688,-0.004285216522060227,2
2025/04/11 11:16:55.809580262,1744363015,790987206,piren,vessel_center,254.2124828893736,1037.7909444681056,-41.48567102817376,0.0025331165576457887,-0.007082822352258553,0.044290426707844374,0.9989903778565982,-0.4167911402821119,-0.03865520038798429,-0.004191272351715812,0.005470616742968559,0.007577235344797373,0.00824310639226209,2
2025/04/11 11:16:56.876373362,1744363016,832817274,piren,vessel_center,253.81579207843373,1037.7506216436684,-41.48779206040629,0.0024198201315085376,-0.006627400925368238,0.06079789088824465,0.9981251617362658,-0.3240449987106786,-0.03818953779173178,0.0010448435287400146,0.007092286366969347,0.012277545407414436,0.013543755345425883,2
2025/04/11 11:16:57.906074923,1744363017,847248053,piren,vessel_center,253.53625389178077,1037.7147956993092,-41.48480951892495,0.0032861945166497396,-0.006618294537429484,0.07000991230202197,0.9975189277815624,-0.22154259347137217,-0.032742154178413405,0.005504716280091682,0.016365068033337593,0.009519524872303009,0.013887558108239235,2
2025/04/11 11:16:58.892215870,1744363018,864350470,piren,vessel_center,253.34957797998484,1037.687986453204,-41.48227086280209,0.002412999085742556,-0.006414256680924708,0.06816094028529647,0.997650801115334,-0.13977019379369726,-0.01887793848836744,-0.001316501318797324,0.012581046670675278,0.00164850486908108,0.004479565786522052,2
2025/04/11 11:16:59.977147731,1744363019,964995113,piren,vessel_center,253.24354623691033,1037.7019500256556,-41.485065918970356,0.0028323416754482775,-0.007246227585631634,0.03962296025080471,0.9991844129325548,-0.028082514300967934,0.05467475451969213,-0.003977752705424196,0.012368636205792427,0.00023481812968384475,-0.018870556281556802,2
2025/04/11 11:17:01.120367190,1744363021,104292110,piren,vessel_center,253.21368557070733,1037.7714625064493,-41.488655846940446,0.0030143838188652376,-0.006999607019963963,0.00916063787029945,0.9999289983321656,-0.025696156266735718,0.07625793120605513,-0.0021647941737115576,0.01566852256655693,0.009852154180407524,-0.025813532673914213,2
2025/04/11 11:17:02.163761763,1744363022,135546018,piren,vessel_center,253.15959013709156,1037.8440876624243,-41.48921458625704,0.0028504722530260764,-0.007896732363527828,-0.007119933020738238,0.9999394096542519,-0.08825060026745181,0.05913551551038827,0.001787662348749476,0.015877803787589073,0.0052013276144862175,-0.026066353705280418,2
2025/04/11 11:17:03.278511041,1744363023,267606286,piren,vessel_center,253.05643838160634,1037.8859541156996,-41.483980616612776,0.0018729083625484743,-0.006385143064515639,-0.022586178443063962,0.9997227549204076,-0.09168143045419587,0.005027983706895528,0.008365089417361471,0.004508825950324535,-0.0007066493853926659,-0.024072201115473556,2
2025/04/11 11:17:04.315747509,1744363024,310438568,piren,vessel_center,253.01538743647754,1037.8311732844356,-41.47237925126856,0.0028315122791448375,-0.007249197697755112,-0.02556383477231407,0.9996428972501559,0.025219054707736124,-0.13303531552355716,0.015833318578944412,0.006968293339014053,0.01243801973760128,-0.01874103105307327,2
2025/04/11 11:17:05.437841196,1744363025,418855584,piren,vessel_center,253.10343324839567,1037.5801779121384,-41.46817439478301,0.0027144434528101552,-0.007642636416652174,-0.018790869432296887,0.9997905406290474,0.1483771198221347,-0.33738725083967447,-0.013393710835220049,0.0068471599370241165,0.0030735067557543516,-0.003889268246276573,2
2025/04/11 11:17:06.451113866,1744363026,444869765,piren,vessel_center,253.26462233904104,1037.2307471954944,-41.48438663927364,0.003330868949542078,-0.007353640197626574,0.0034176544875009255,0.9999615737245552,0.1778884995628004,-0.36518628458761676,-0.01988035833275612,0.0180463008582592,-0.0026738394517451525,0.011210270750074396,2
2025/04/11 11:17:07.432649679,1744363027,425603537,piren,vessel_center,253.43265984384092,1036.9085137303625,-41.503531264643016,0.002258501813733272,-0.007116804614023968,0.017275669406911647,0.9998228850692438,0.15748657663089027,-0.27602705102053743,-0.018359857827823674,0.023676615208387375,0.007059216964989901,0.01194169311434724,2
2025/04/11 11:17:08.498347141,1744363028,440130552,piren,vessel_center,253.56939510461976,1036.7156647922734,-41.513636604677174,0.0029475244504962085,-0.006912390212730373,0.0013493933987919202,0.9999708546245816,0.10965539468427317,-0.08448262707279366,0.0006442864652341576,0.01635986566543579,0.0046784221194684505,-0.010358666212169996,2
2025/04/11 11:17:09.532445828,1744363029,519652248,piren,vessel_center,253.6503659977723,1036.7281724831132,-41.497841758778655,0.00256863108189948,-0.006420131052434962,-0.06545130142121931,0.9978318050623078,0.027754557725143,0.13333067728344744,0.03181020789567687,0.011458336375653744,0.00952083244919777,-0.054952326158091855,2
2025/04/11 11:17:10.515688025,1744363030,494474258,piren,vessel_center,253.62771094423047,1036.8862481037706,-41.47211428741048,0.0020039384607716763,-0.007865023698606692,-0.12054305498892505,0.9926749203675909,-0.08516620274540405,0.20575324399032963,0.02147543938942808,0.01594545505940914,0.004496866371482611,-0.06870378297299605,2
2025/04/11 11:17:11.465947340,1744363031,434276521,piren,vessel_center,253.51969137801007,1037.0629414110103,-41.465140466888364,0.0017004127077495364,-0.007963908008855231,-0.14456174393622917,0.9894622716182593,-0.1475937858672524,0.162478873387772,-0.009455463339759357,-0.003187223570421338,0.0024651656858623028,-0.05300273503452584,2
2025/04/11 11:17:12.419619939,1744363032,405940575,piren,vessel_center,253.40208264169456,1037.1911319893456,-41.476021227048626,0.00325749777903106,-0.008455102933539191,-0.1344116525359694,0.9908841544828298,-0.09500401205934855,0.10160900230730459,-0.013872119893903894,0.018545011058449745,-0.004630443640053272,-0.02356012357805064,2
2025/04/11 11:17:13.524898711,1744363033,504608074,piren,vessel_center,253.35588742545897,1037.2678673009627,-41.492458821040806,0.004638553037665891,-0.00721543891850301,-0.11735566995753184,0.9930529029189478,0.03932935438556334,0.020891364825365424,-0.016584994583121307,0.01747831515967846,4.309150608605705e-05,-0.005626181935173005,2
2025/04/11 11:17:14.681214777,1744363034,662831128,piren,vessel_center,253.43773558770036,1037.29055834657,-41.50337465473713,0.004538491950753738,-0.008281823903170045,-0.09729788857325355,0.9952104975143884,0.1232089355151401,0.017389291967265134,0.0026058429420685557,0.004832042381167412,0.011192764155566692,0.006293445801243951,2
2025/04/11 11:17:15.796231158,1744363035,785945204,piren,vessel_center,253.54852311192596,1037.3302958447146,-41.49638999311418,0.0038388493439917744,-0.009707180346535336,-0.06484624481130466,0.9978406678519904,0.05442824621618449,0.0632700956626648,0.011856558435653048,0.020594162866473198,0.0029437514021992683,0.025630730996729557,2
2025/04/11 11:17:16.737836747,1744363036,725638620,piren,vessel_center,253.56582902348157,1037.4044512902599,-41.486938690937954,0.0037553659769872026,-0.007096228030370662,-0.030050725226397623,0.9995161302787902,-0.01681360305744882,0.09238989021559955,0.00810584277365924,-0.008573719300329685,-0.00439617782831192,0.04320975592433293,2
2025/04/11 11:17:17.717148220,1744363037,700911956,piren,vessel_center,253.54745905613822,1037.4933043731019,-41.48442394220128,0.004747648231106991,-0.006780324132978444,0.0006617971435073337,0.9999655239384337,-0.022320049643531167,0.09482447801929066,-0.003834447585762839,0.020765889436006546,-0.003998786211013794,0.04522017517155219,2
2025/04/11 11:17:18.776550889,1744363038,767316104,piren,vessel_center,253.53655073044263,1037.5795132728451,-41.492926023772355,0.004385182383069542,-0.002064924685921765,0.031346148450942045,0.999496836032411,0.005859800140092297,0.057427591819941705,-0.01268019772919056,0.004613807424902916,0.014130103401839733,0.043454232802788935,2
2025/04/11 11:17:19.852724878,1744363039,844852269,piren,vessel_center,253.56485243476112,1037.6326226503886,-41.49966873472557,0.004808462091416472,-0.009801593186195154,0.04935084908111957,0.9987218337246365,0.05685096898073417,0.04088928204982931,0.002445389846138731,0.01268667634576559,0.0007990790763869882,0.04189959950272906,2
2025/04/11 11:17:20.865603153,1744363040,860300569,piren,vessel_center,253.60472765576637,1037.648704865484,-41.492639585036216,0.007878630887762564,-0.016551900113309693,0.06643871525371736,0.9976221022478446,0.017742693038121538,-0.016274975188025738,0.013011406804650866,0.006933823227882385,0.008483598940074444,0.038924166243316766,2
2025/04/11 11:17:21.932182671,1744363041,925225936,piren,vessel_center,253.60631302390914,1037.5648636223564,-41.48335197760517,0.010020947216151372,-0.012095635571498526,0.07813135629340268,0.9968193253447518,-0.01931120000551808,-0.15252670113204675,0.002627431397706822,0.028065387159585953,-0.0033949168864637613,0.028922478743358702,2
2025/04/11 11:17:22.969371634,1744363042,957704853,piren,vessel_center,253.60414732245093,1037.3675689440183,-41.489096057024966,0.006570939081957099,-0.011919824960561917,0.06838433249242067,0.9975662001100765,0.02017938248582133,-0.2556481281562812,-0.016654657414744724,0.00887899287045002,-0.0003304621495772153,0.01320437305953436,2
2025/04/11 11:17:23.962410908,1744363043,952359598,piren,vessel_center,253.63176224780307,1037.1354200825278,-41.50298680927357,0.0038841945070549147,-0.009474580552838362,0.055525160914268776,0.9984047785651988,0.03732790285957882,-0.20145217307090224,-0.010280303027468653,0.0060316408053040504,0.008200631476938725,0.0015383709829095685,2
2025/04/11 11:17:24.934290732,1744363044,922867758,piren,vessel_center,253.66520639702898,1036.9754072722542,-41.50285806020454,0.003955547788539783,-0.011079627315684645,0.04719998648648076,0.998816177670303,0.029290088733819098,-0.11574603477874935,0.011236388396883873,0.0041728755459189415,-0.0011000976664945483,-0.0017467472881014196,2
2025/04/11 11:17:26.74287635,1744363046,67535104,piren,vessel_center,253.68814126032262,1036.866656322121,-41.49110443090228,0.001806516565913484,-0.01055898124712021,0.0426482865033808,0.9990327162166641,0.007057955933646477,-0.06538132220903228,0.008822394995951204,0.010062516666948795,0.005712755490094423,-0.0031462013469691595,2
2025/04/11 11:17:27.180790649,1744363047,167872201,piren,vessel_center,253.69500332590528,1036.784609871512,-41.483905473850264,0.0023457913414351283,-0.011386899798578768,0.042648804769187795,0.9990224798410291,0.005190202502831122,-0.08629110556703401,0.0036371512565607604,0.016010485589504242,0.00322729186154902,-0.0010010427706745437,2
2025/04/11 11:17:28.237633002,1744363048,226070003,piren,vessel_center,253.70682941404866,1036.6747750969753,-41.48435719580232,-0.00044130178744506196,-0.01413155931987732,0.04398309891075502,0.9989322255759536,0.018376638710583315,-0.12601040870158634,-0.005199492175472737,0.008546928875148296,0.004628628492355347,-0.00034964566899953106,2
2025/04/11 11:17:29.271281073,1744363049,265919786,piren,vessel_center,253.7299564765866,1036.538192779296,-41.48835232859489,-0.004863787554501865,-0.020067160408821165,0.045496950073664014,0.9987510601635154,0.026316973968550803,-0.13494838855276634,-0.0021748929939520664,-0.008446688763797283,0.002736185910180211,0.001065286359457057,2
2025/04/11 11:17:30.415776876,1744363050,353582807,piren,vessel_center,253.7512826480927,1036.4059915801286,-41.48301626021686,-0.006456750497949336,-0.018189879566133438,0.04655421522392441,0.998729264465231,0.011799267520564092,-0.11311991366510504,0.01537406351076233,0.003073818748816848,-0.00383541127666831,0.0008161803472422844,2
2025/04/11 11:17:31.489198979,1744363051,472222213,piren,vessel_center,253.77274987588774,1036.2892656202614,-41.464425171482695,-0.008828540522450943,-0.021176420015370827,0.04579508529240498,0.9986873516124241,0.028110128997218375,-0.08554040221388298,0.01725685758716499,0.01743883080780506,0.0008900861139409244,-0.0001519858276148021,2
2025/04/11 11:17:32.431664432,1744363052,392529747,piren,vessel_center,253.79948547044145,1036.207584120448,-41.45675824147332,-0.010333258623679023,-0.018182707706804368,0.0450074718761885,0.9987677109228047,0.03144230975492511,-0.09643156032325371,-0.0009832063461432013,0.017511537298560143,0.0019763787277042866,-0.0003304169280679411,2
2025/04/11 11:17:33.493093976,1744363053,475820936,piren,vessel_center,253.84005755706943,1036.1052941020607,-41.462296038251566,-0.01167327361427288,-0.018859403443786907,0.045285965238101404,0.9987278102352635,0.043809532153613794,-0.08860494935834161,-0.010191966571096694,0.014081757515668869,0.009330911561846733,0.0003654127870442211,2
2025/04/11 11:17:34.488641756,1744363054,477742405,piren,vessel_center,253.88097962476868,1036.0088808778414,-41.47200904437698,-0.010404171144057192,-0.01823972574695414,0.045238132646027246,0.9987555141185362,0.03778025649442035,-0.10460890393114844,-0.009187612433862662,0.0016797464340925217,0.0029938151128590107,-0.0002445774181918928,2
2025/04/11 11:17:35.381203188,1744363055,370946805,piren,vessel_center,253.91190679779615,1035.9123977667698,-41.47687313996654,-0.007707508424804875,-0.01125271785381577,0.045625917215300626,0.9988654795982523,0.031486166023182625,-0.1096008502328916,-0.00216667001492406,0.02836243435740471,-0.010510801337659359,0.00027234979340185823,2
2025/04/11 11:17:36.366551947,1744363056,354327929,piren,vessel_center,253.9521805251072,1035.8069322334998,-41.4754177979535,-0.006708120904015091,-0.014247670376796005,0.04519839911783476,0.9988538980851785,0.05533503194549204,-0.11267222686001353,0.005923285800412165,0.029541276395320892,0.010763091035187244,-0.0005155027834938204,2
2025/04/11 11:17:37.355070549,1744363057,347951425,piren,vessel_center,254.00171261655476,1035.6982595294237,-41.470340629676464,-0.0056042548473366535,-0.012535073942205863,0.04546159312885096,0.9988717173887027,0.041961349131770395,-0.10349112937474295,0.003972244012783128,-0.0014768179971724749,0.0014488321030512452,0.0004720303976022778,2
2025/04/11 11:17:38.309031964,1744363058,289244729,piren,vessel_center,254.03808187413114,1035.6049306131881,-41.47223511068557,-0.004145228504357224,-0.012963137370986469,0.04604621194712556,0.9988465950862866,0.03387926337866239,-0.0919336834727803,-0.00910874622753122,0.033607643097639084,-0.00014677266881335527,0.00025759966299253713,2
2025/04/11 11:17:39.252832427,1744363059,242624881,piren,vessel_center,254.06849602493446,1035.5207903643432,-41.48005105649275,-0.004317350577410043,-0.012361208540211147,0.04567361967057184,0.9988706029679746,0.029787481393918746,-0.08454668734502795,-0.007174624360436702,-0.0059075728058815,0.00034671524190343916,-0.00016562717621840419,2
2025/04/11 11:17:40.312847306,1744363060,301739496,piren,vessel_center,254.10022376732095,1035.433527688674,-41.48605231006189,-0.005079109178127009,-0.013683559714674177,0.04536599438131452,0.9988637992225398,0.030827599547410423,-0.08107607541023773,-0.0036496189070988764,0.025508340448141098,0.008991358801722527,-9.993776741238424e-05,2
2025/04/11 11:17:41.530089257,1744363061,502323086,piren,vessel_center,254.12345395535783,1035.3514455138873,-41.48605428767821,-0.004832935271576886,-0.01624858641804183,0.060117270318685564,0.9980473635982946,-0.0008683364711260626,-0.046039439970445725,0.006430554509046167,-0.010349295102059841,-0.005784602370113134,0.012239301714158709,2
2025/04/11 11:17:42.578537336,1744363062,564326028,piren,vessel_center,254.11945621640535,1035.335482501168,-41.472328162100695,-0.004952137357996768,-0.01331121635658642,0.09435717104067327,0.995437096017572,-0.0071513563268809635,0.0255694482320903,0.020168850034372004,0.007656610105186701,-0.00177804846316576,0.031665975605474184,2
2025/04/11 11:17:43.585335142,1744363063,575332477,piren,vessel_center,254.1754245221031,1035.3765685984379,-41.45643031639083,-0.0023115838652813824,-0.01407297938232723,0.06874149235764669,0.9975325634082237,0.12330641446199014,0.057635898462649285,0.011338615428644422,0.021193426102399826,-0.0033575769048184156,-0.017382248949230336,2
2025/04/11 11:17:44.551090800,1744363064,543861511,piren,vessel_center,254.27896697400206,1035.4120357913916,-41.45436815503466,-0.0008768237440368795,-0.01252574665879785,0.05084130782625758,0.9986278076787554,0.0919627544252079,0.013187997198474272,-0.008732189164163722,0.011284257285296917,0.0033017336390912533,-0.0027224273023311292,2
2025/04/11 11:17:45.436370270,1744363065,424687749,piren,vessel_center,254.32770289629508,1035.4081660813267,-41.466786107198054,-0.0020815482431962825,-0.012996347163617424,0.06554736069280609,0.9977626499441244,0.021267841160215448,-0.01950128709759176,-0.018198228190698367,0.0071909502148628235,0.002120662247762084,0.007169160518837746,2
2025/04/11 11:17:46.483051560,1744363066,467969643,piren,vessel_center,254.3460290115209,1035.3862296191498,-41.47693936569061,-0.00027479349455670007,-0.008831584949868364,0.057824335622599705,0.9982876708672774,0.012964525773850164,-0.02253191431045727,0.00037065296071991244,0.014827183447778225,0.006863071117550135,-0.009078217590372731,2
2025/04/11 11:17:47.557985038,1744363067,547535120,piren,vessel_center,254.36446579619104,1035.3691633846831,-41.47283755985811,0.0005035873396794235,-0.00969739695083836,0.06110738002415508,0.9980839618983729,0.024093963179143335,-0.007308870048291487,0.008939342900157403,0.012831378728151321,-0.007047310005873442,0.006695221067726815,2
2025/04/11 11:17:48.615887198,1744363068,600638396,piren,vessel_center,254.39938451083884,1035.370909842327,-41.46621570923358,0.004698251350460221,-0.008988890352856441,0.060598593949177604,0.9981106835896784,0.04624040232165488,0.014371453324747357,0.0025790187607753028,0.018863100558519363,0.0013620901154354215,-0.005062471106038181,2
2025/04/11 11:17:49.643614109,1744363069,635239453,piren,vessel_center,254.43910160446023,1035.384158814713,-41.4704810156176,0.006171331059324035,-0.007025446716924361,0.05970699206566378,0.9981721459096395,0.025886776357492536,0.010131980351434117,-0.01349720439371263,0.016994262114167213,0.006680503487586975,0.0024475647740934913,2
2025/04/11 11:17:50.634793840,1744363070,619796562,piren,vessel_center,254.45177725260797,1035.3933438515623,-41.485555092986914,0.00796783118024994,-0.007601898126357595,0.06107165134060511,0.9980726317326265,-0.0014254501400274497,0.008175677319195324,-0.016759932334395083,0.004754859954118729,0.0010648228926584125,-0.0012415212946804645,2
2025/04/11 11:17:51.599604369,1744363071,589279102,piren,vessel_center,254.43681578328247,1035.4216273181871,-41.50405707767931,0.008731663216753087,-0.007875787298085734,0.03571928997529178,0.9992926810277185,-0.03276698997481172,0.055429641193222565,-0.022698004026642685,0.011876773089170456,0.014945377595722675,-0.025585304181210484,2
2025/04/11 11:17:52.689780057,1744363072,679279175,piren,vessel_center,254.3638124405114,1035.5680341697869,-41.52128690823351,0.007500052174584512,-0.008208648608528874,-0.03794417599476176,0.9992179976428962,-0.11787037410463208,0.252149971100516,-0.00488163743196433,0.022192956879734993,0.004164929036051035,-0.06585121429150088,2
2025/04/11 11:17:53.779919230,1744363073,768450818,piren,vessel_center,254.1677259456292,1035.9488577521038,-41.51322288619371,0.00607029146018577,-0.007872699266965868,-0.1340366059661018,0.9909265161599665,-0.25512666715239907,0.4659227607362479,0.022873008784523467,0.011850912123918533,0.012978547252714634,-0.10056725556582567,2
2025/04/11 11:17:54.888939543,1744363074,876521028,piren,vessel_center,253.85355285542045,1036.5243672341978,-41.48008720154953,0.004842226116963747,-0.00958123869397411,-0.20030042340542456,0.9796757081274032,-0.3244310220219859,0.5961117302425916,0.03935032448873121,0.015838056802749634,0.005171759054064751,-0.09412056077033823,2
2025/04/11 11:17:55.988689350,1744363075,979480888,piren,vessel_center,253.53472709477703,1037.1507811361846,-41.45221373398704,0.004956235733004561,-0.009221180461664771,-0.21950195694779717,0.9755558909946369,-0.23680739648325477,0.5285269807453002,0.003880715652763815,0.010472089983522892,0.008407656103372574,-0.06813732650301892,2
2025/04/11 11:17:57.72909632,1744363077,34178324,piren,vessel_center,253.36457775853228,1037.6279537404666,-41.459554725141004,0.005076484551944569,-0.00951659321909739,-0.2146313047661126,0.9766355854526766,-0.0563615444046264,0.3497559301405997,-0.022363471011914365,0.007966971024870872,0.005783791188150644,-0.04623680065028764,2
2025/04/11 11:17:58.119032233,1744363078,102736363,piren,vessel_center,253.34061656638588,1037.9016011674712,-41.47984275865624,0.004407714640739022,-0.0078098620511506765,-0.216735527980235,0.9761891666155268,0.024633424941180163,0.1344823602439644,-0.015016957840600847,0.010431446135044098,0.006367705762386322,-0.036083525370379795,2
2025/04/11 11:17:59.179882381,1744363079,171864345,piren,vessel_center,253.31997372605065,1037.958084506795,-41.49489201094476,0.004847067369333869,-0.004393830809625847,-0.23233139130587951,0.972614684652976,-0.07425492883749037,-0.054934596529347124,-0.01197451510026904,0.013718966394662857,-0.0030625860672444105,-0.03575091740620405,2
2025/04/11 11:18:00.149685082,1744363080,140197337,piren,vessel_center,253.18629087038968,1037.8835956140015,-41.49895438988766,0.0028362557797763344,-0.006892799070446864,-0.24725615951165042,0.9689214811106602,-0.21985792780624258,-0.10636162084119882,0.004889817995513019,0.01100768893957138,0.006206823978573084,-0.039928947697309265,2
2025/04/11 11:18:01.50732586,1744363081,44127550,piren,vessel_center,252.94871651108372,1037.8126098983885,-41.49401989571821,0.0014854855563763768,-0.010598458574584255,-0.25757230817270443,0.9661997578508753,-0.31130006507216884,-0.04944524537422717,0.006119448929251709,0.0010112767340615392,0.0022644121199846268,-0.031897094490994364,2
2025/04/11 11:18:02.35661334,1744363081,987025576,piren,vessel_center,252.65556868609016,1037.7957664027379,-41.486659817115914,0.005863143915963033,-0.01297827869910993,-0.25852287327052975,0.9659001562384067,-0.3052602329194088,0.019985301738597396,0.009681253534364392,0.0010220254771411419,-0.0026185305323451757,-0.019130123180621673,2
2025/04/11 11:18:02.913333054,1744363082,904107512,piren,vessel_center,252.41121872004408,1037.8141273059557,-41.480638545923874,0.006869530873807531,-0.004981281546176152,-0.24154269883006158,0.9703530909012563,-0.2355360778179375,0.020845614368954324,0.003502824445081293,0.008709062822163105,-0.0006439538556151092,0.0022350279500766216,2
2025/04/11 11:18:03.982637534,1744363083,945597012,piren,vessel_center,252.20067685185313,1037.7973271524688,-41.48140104817145,0.006095298164506968,-0.011933530580064257,-0.19914764884081593,0.9798778761403666,-0.1508932571023707,-0.06818886426717677,-0.006716319760346416,0.013149410486221313,0.028432270511984825,0.032747964875553,2
2025/04/11 11:18:04.983990504,1744363084,974188353,piren,vessel_center,252.04557645022905,1037.6949430736897,-41.488411445205145,0.007202627604423318,-0.008858111540322651,-0.13983179136252283,0.9901094515960743,-0.14399203405021133,-0.1318095193984848,-0.006629890406998222,0.008272743783891201,0.002979513257741928,0.058520364818335224,2
2025/04/11 11:18:05.943197475,1744363085,921603423,piren,vessel_center,251.90774501241313,1037.5576607192338,-41.49100168143234,0.006283386168664692,-0.007971589540599521,-0.08970993241485108,0.9959162117590891,-0.14619267849145678,-0.15671348074120056,0.0010055841957011102,0.0069150496274232864,0.009453502483665943,0.07459999017341323,2
2025/04/11 11:18:06.948929032,1744363086,935491368,piren,vessel_center,251.75261161012043,1037.427686015927,-41.48760018429055,0.007213172623341725,-0.007576533635503497,-0.03818133173329675,0.9992160688188757,-0.16656927822682527,-0.09482350611178869,0.006527124900838905,0.011018612422049046,-0.0022888043895363808,0.0776252439194776,2
2025/04/11 11:18:07.996612429,1744363087,988875632,piren,vessel_center,251.57783986329918,1037.3528051208446,-41.49135421923153,0.007798081643458133,-0.0066412702687218324,-0.0015757648152143523,0.9999462987666622,-0.16640991399551702,-0.038147769703209884,-0.017855261808796378,0.008817263878881931,0.01083744689822197,0.06867373062722855,2
2025/04/11 11:18:09.139603786,1744363089,124777073,piren,vessel_center,251.38915451574505,1037.3333103750892,-41.517481597286746,0.008781159337740223,-0.007851149622857361,0.025778674820086746,0.9995982746157603,-0.16086893967528804,0.012184020719177825,-0.02940671721439694,0.01202039048075676,0.0026097276713699102,0.05618554427198321,2
2025/04/11 11:18:10.152003159,1744363090,136582982,piren,vessel_center,251.23030841335552,1037.3989489187395,-41.531281538765356,0.008016731917087006,-0.007412622010420859,0.00931363891256736,0.9998970152843275,-0.15627270839297588,0.1355512229041776,0.006597253186356417,0.00411382969468832,0.004588448908179998,0.027329570726645012,2
2025/04/11 11:18:11.191940196,1744363091,176298720,piren,vessel_center,251.05097429033776,1037.5835641868678,-41.51252799612649,0.006401360661552591,-0.007991008692228565,-0.020682160447657996,0.9997336718351438,-0.18758030482144938,0.22273096896824401,0.031016452161804767,0.008224776946008205,0.00028067268431186676,-0.002562033848504643,2
2025/04/11 11:18:12.410541953,1744363092,399241019,piren,vessel_center,250.805963943721,1037.8418739832025,-41.4817238644561,0.005841112961660913,-0.008322904326942143,-0.04490366458390486,0.9989395735327887,-0.23404883161181267,0.20223739611828906,0.016174297920230077,0.012887603603303432,0.0035079000517725945,-0.00801321444788656,2
2025/04/11 11:18:13.494455161,1744363093,452180588,piren,vessel_center,250.55827793685384,1038.0234590966124,-41.47831303946045,0.006918493788829355,-0.008963250160719138,-0.04070428098662872,0.9991070793962036,-0.23847894285515855,0.1312944194496592,-0.015114232270468715,0.013800738379359245,0.008596102707087994,0.0018973355437659823,2
2025/04/11 11:18:14.509916501,1744363094,504797048,piren,vessel_center,250.34507895572668,1038.133906202465,-41.49676506913629,0.00723646238013863,-0.007710179098034155,-0.03362058271555743,0.9993787285951025,-0.15244990811586384,0.06801494533628984,-0.02100855826603843,0.008760055527091026,9.382855205330998e-05,0.0027811133116654578,2
2025/04/11 11:18:15.416773268,1744363095,406641661,piren,vessel_center,250.24514591265674,1038.1932778992837,-41.510503212478,0.0071905084271855916,-0.008322143721899428,-0.030854794225318116,0.9994633661049034,-0.06642114174956086,0.06393476524808621,-0.009076099165486181,0.00920941773802042,0.015902068465948105,0.004376189674371485,2
2025/04/11 11:18:16.403708495,1744363096,393707888,piren,vessel_center,250.17956313016168,1038.2704342232128,-41.515206626531565,0.007249218621618942,-0.008013595546575922,-0.027632999650156524,0.9995597273030393,-0.06444762292233017,0.09453982486374998,0.0010598318136827798,0.013170749880373478,0.0045560197904706,0.004214011827749212,2
2025/04/11 11:18:17.494147125,1744363097,487356222,piren,vessel_center,250.08854038483014,1038.3891408326779,-41.50705297266345,0.007815201031283346,-0.008103237605102105,-0.02141206908693837,0.9997073489129568,-0.10992049103438156,0.12743971061736348,0.016995373480722165,0.017238300293684006,0.004125636070966721,0.007518592130570916,2
2025/04/11 11:18:18.489724264,1744363098,474918847,piren,vessel_center,249.9659502408129,1038.511417139996,-41.49184077566585,0.007517678071924684,-0.007932184354270245,-0.017363116306266163,0.9997895214293416,-0.13675404192717913,0.11761197628074997,0.013427575837789519,0.007968680933117867,0.004648899659514427,0.006792967533945145,2
2025/04/11 11:18:19.511364447,1744363099,499823502,piren,vessel_center,249.8404925332742,1038.5745117273425,-41.479550296973116,0.008242727415903922,-0.007964959514858283,-0.009909247387738091,0.9998852052515241,-0.11068451556627686,-0.007932246544078494,0.01080356707729483,0.01890568807721138,0.00325402757152915,0.011203362672597824,2
2025/04/11 11:18:20.565033367,1744363100,556000997,piren,vessel_center,249.7470101547913,1038.4476004673093,-41.48552084728129,0.0077103456074604304,-0.007430843438489485,0.008726692116333711,0.9999045844384918,-0.058434869429288556,-0.2808126014710072,-0.029032308087386223,0.010270723141729832,0.000587554182857275,0.02078252082371508,2
2025/04/11 11:18:21.631526700,1744363101,617201507,piren,vessel_center,249.70598460206668,1038.0960645539756,-41.51047867218204,0.007854687259503518,-0.006841154689185905,0.028279214150156547,0.9995457911159566,-0.010450606366794166,-0.3685518777847394,-0.014625564561436119,0.00906513724476099,0.003078185487538576,0.022683566277881657,2
2025/04/11 11:18:22.735831712,1744363102,711018427,piren,vessel_center,249.71664888216608,1037.7339660798996,-41.51857492484053,0.008009795102816648,-0.0077326141188881325,0.03631389053504887,0.9992784152654894,0.0353314444322904,-0.2794112877261798,0.0018750696490882467,0.013087996281683445,0.006111107766628265,0.01768448832927263,2
2025/04/11 11:18:23.664689852,1744363103,658443992,piren,vessel_center,249.76797043663802,1037.5505734110097,-41.50949596704177,0.0077118954427573124,-0.007317558722928235,0.03193784404545358,0.9994333164952752,0.08015724912563646,-0.12287850079301302,0.018852308763126657,0.01606077514588833,0.0075248489156365395,0.01093646082713665,2
2025/04/11 11:18:24.622143204,1744363104,613579548,piren,vessel_center,249.84708858671772,1037.4629382258295,-41.49561025618445,0.0071012001482983625,-0.007501752981979695,0.0326281405492533,0.9994141789583283,0.07805190514677623,-0.05019891152405785,0.008610827223515017,0.009307647123932838,-0.0025637068320065737,0.008162831712220342,2
2025/04/11 11:18:25.598150246,1744363105,587060922,piren,vessel_center,249.91021767721907,1037.4090096565367,-41.4900569121853,0.006248261333763573,-0.007203627682182697,0.03386979866417295,0.9993807601294763,0.052632762610733054,-0.06452807229434279,0.0025582224665810296,0.012329215183854103,0.0008492430788464844,0.007345281031115446,2
2025/04/11 11:18:26.615233922,1744363106,603171032,piren,vessel_center,249.9560669574155,1037.3159493536514,-41.4939804423085,0.0069091244737422165,-0.007299931193015471,0.03714686749041183,0.9992592682778747,0.036978923340825434,-0.13022745751677597,-0.012375500562797112,0.010839986614882946,0.007425785064697266,0.006900557394784881,2
2025/04/11 11:18:27.562829990,1744363107,553504791,piren,vessel_center,249.9884405059164,1037.1745806583754,-41.50451472461009,0.007215395654442858,-0.008680018705024014,0.04278165268517464,0.999020683236516,0.03059923648020221,-0.1707709617288858,-0.009549617558275356,0.008288842625916004,0.004901229403913021,0.00995849702544426,2
2025/04/11 11:18:28.570206068,1744363108,518991771,piren,vessel_center,250.01391034187603,1037.005930859012,-41.508327903049015,0.006771710276428369,-0.00666756025399987,0.062113963730388404,0.9980238188990739,0.020023116968627522,-0.16653776435305212,0.0023000305737013067,0.012724821455776691,0.00448756106197834,0.022451158305355077,2
2025/04/11 11:18:29.585724135,1744363109,546427463,piren,vessel_center,250.04200452491037,1036.8618767157297,-41.50178850147999,0.007815804441141092,-0.007493126580109922,0.0898914048915831,0.9958927158994636,0.03861074527917471,-0.11483910947208664,0.012060287910332946,0.009294102899730206,0.010915786027908325,0.032835815115263046,2
2025/04/11 11:18:30.595129508,1744363110,587359813,piren,vessel_center,250.0961121229461,1036.7573410391992,-41.491027252081636,0.007991729139358429,-0.006769695684882646,0.10552575296576162,0.994361412639643,0.06985117254871501,-0.07787853731206291,0.0076790165014528075,0.008693140000104904,0.003857768839225173,0.024898140878752265,2
2025/04/11 11:18:31.570561859,1744363111,564243901,piren,vessel_center,250.16923272910978,1036.6823844078679,-41.48877729294264,0.007288415215146128,-0.006288487844552897,0.10829396021327954,0.994072307282325,0.07661626369726936,-0.07187230057443253,-0.0035197148812586487,0.012807212769985199,0.009574790485203266,0.020696965487248652,2
2025/04/11 11:18:32.649281972,1744363112,598592472,piren,vessel_center,250.22696397525422,1036.6004742864006,-41.491908462772436,0.007722326391427225,-0.00318605966003074,0.11484205395460796,0.99334863836542,0.03311993627762594,-0.09492736013417039,-0.0026237018677648916,0.016867784783244133,0.003515277523547411,0.019042916994811754,2
2025/04/11 11:18:33.691132890,1744363113,665484818,piren,vessel_center,250.25247687991163,1036.489700021834,-41.4908744924533,0.005398970497283795,-0.002686085130063935,0.12560215380120146,0.9920623644835757,0.010546752272102725,-0.10812565550077147,0.0054853471217255825,0.010747279040515423,0.010208717547357082,0.018440668518678736,2
2025/04/11 11:18:34.719544270,1744363114,712383456,piren,vessel_center,250.26848501983795,1036.3800924941697,-41.48807824501184,0.006261156536354706,-0.010111140505204883,0.13236258728767586,0.9911300158117621,0.020744739247402225,-0.10002077796725665,-0.0006388736330166988,0.009841624647378922,-0.0004103607207071036,0.01691490166105457,2
2025/04/11 11:18:35.745918082,1744363115,736663881,piren,vessel_center,250.28357008744092,1036.2834498716045,-41.49060434864057,0.00874771695622971,-0.010022450387020302,0.1387985933085979,0.9902312752240499,0.007733225085530553,-0.09225612237823974,-0.004977736700607335,0.007691042497754097,0.016325993463397026,0.016524438045560183,2
2025/04/11 11:18:36.719811168,1744363116,688137286,piren,vessel_center,250.29679388635643,1036.1919563210568,-41.49901552577298,0.0074741943749618385,-0.004195201577431671,0.14272317113864624,0.9897255342378001,0.021258027114913508,-0.10108773118881821,-0.013451532769244164,0.012059387750923634,-0.002425771439447999,0.01358474451098724,2
2025/04/11 11:18:37.774571982,1744363117,766440096,piren,vessel_center,250.3334907857382,1036.122206216035,-41.508093045913505,0.008656564255232696,-0.004981418141874926,0.1275169997158666,0.9917860979828537,0.04872051522017945,-0.015613937123998986,-0.0016569831825507721,0.019008295610547066,0.010547466576099396,-0.007739768449803641,2
2025/04/11 11:18:38.860621027,1744363118,851623632,piren,vessel_center,250.36389976778258,1036.1649691470732,-41.50917595264294,0.0077840437888910445,-0.003013119027791686,0.06750937788693173,0.9976837242700396,0.0009360060126481565,0.12061723879414761,-0.00014397659405754586,0.013639367185533047,0.0011801824439316988,-0.050570680032727515,2
2025/04/11 11:18:39.907100703,1744363119,892218981,piren,vessel_center,250.31280912798735,1036.3495868378134,-41.50401949702715,0.007175046558387036,-0.005466786733805412,-0.029680041535527932,0.9995187482404426,-0.11881831394280207,0.25391443965490884,0.012062092684294513,0.0030371490865945816,0.003394059371203184,-0.09656961543141163,2
2025/04/11 11:18:40.946801251,1744363120,931270067,piren,vessel_center,250.13421729844399,1036.6220403826826,-41.49014744864496,0.007044446654684334,-0.008437181282068348,-0.11981425683427743,0.9927354801771682,-0.24292493242633106,0.2674465635813246,0.014846754679797316,0.009844106622040272,0.0025308779440820217,-0.11155329415840043,2
2025/04/11 11:18:41.896627521,1744363121,888413690,piren,vessel_center,249.89819324329758,1036.850034585937,-41.48207657953127,0.007101021897057041,-0.008627722366115425,-0.17766573933707025,0.9840274503084774,-0.254571082856478,0.2070867652442755,0.0009609287547788364,0.013048483058810234,0.0037077441811561584,-0.12071301531831273,2
2025/04/11 11:18:43.26296064,1744363123,10862725,piren,vessel_center,249.69366542698558,1037.0365607610838,-41.48421252877202,0.003984825181366252,-0.010907539324704724,-0.2873448847002549,0.9577567874939604,-0.08104430882244754,0.1123381942958074,-0.006392510012318649,0.00501763541251421,0.010333727113902569,-0.14293808894372753,2
2025/04/11 11:18:43.968842192,1744363123,939476125,piren,vessel_center,249.63215591581374,1037.1501535846971,-41.49473129238641,0.0046933707763981355,-0.01009662430559612,-0.34217829357072543,0.9395690745535495,-0.04535044429885614,0.12811083036267495,-0.01662829960505415,0.007917871698737144,-0.0015838759718462825,-0.14190559839766909,2
2025/04/11 11:18:44.915744291,1744363124,908723864,piren,vessel_center,249.58558009700025,1037.2866884408145,-41.50744050485044,0.0038601219300514137,-0.010881216111982906,-0.3804816953342789,0.9247163771179586,-0.05342925722911798,0.1623576619473167,-0.009533278098234729,0.007507831323891878,0.007018196862190962,-0.11487889701188136,2
2025/04/11 11:18:45.846064143,1744363125,812823367,piren,vessel_center,249.51197568584462,1037.4448367576383,-41.510099705659464,0.001817773658169785,-0.010221401752713142,-0.3834748570310042,0.9234929629781639,-0.10061491522074004,0.1704274021170929,0.0036798756334120684,0.008098348043859005,-0.004515550099313259,-0.07430724900480713,2
2025/04/11 11:18:46.807876076,1744363126,798209956,piren,vessel_center,249.4138760176417,1037.5942061739322,-41.50065303159955,0.0022818468260290743,-0.010437986500730549,-0.363622659340853,0.9314850526051178,-0.10641037167044953,0.14156819843592505,0.01738156720967926,0.012623582035303116,0.0014410008443519473,-0.034908948404201466,2
2025/04/11 11:18:47.873169869,1744363127,864061738,piren,vessel_center,249.30188429579707,1037.7192318246969,-41.485374933858374,0.002879948301092308,-0.008770069185607266,-0.3259004503755254,0.945359026100292,-0.09569317424013672,0.07801861672105564,0.009430142208350291,0.00028092635329812765,-0.002350634429603815,0.0068798692536874454,2
2025/04/11 11:18:48.916955804,1744363128,855414045,piren,vessel_center,249.22868120101674,1037.770394729314,-41.48025187028653,0.005042970397633444,-0.009055174068149997,-0.2797069547352233,0.9600294744146723,-0.05517437976618578,0.025411045804139346,0.000633888922368344,0.010469187051057816,0.0073851062916219234,0.03139779282916496,2
2025/04/11 11:18:50.3522695,1744363129,987202144,piren,vessel_center,249.18043038541646,1037.792986594035,-41.48350388211382,0.005769216561684437,-0.00838692361382026,-0.24494471896024814,0.9694836049702158,-0.020152662693499336,0.010125215939660618,-0.008459403986194144,0.004585069138556719,0.0020218552090227604,0.03141742051656473,2
2025/04/11 11:18:51.227344589,1744363131,214386347,piren,vessel_center,249.14935989473588,1037.8261777398372,-41.48964344251235,0.0042111498820083994,-0.009341334839349354,-0.21447686556204512,0.9766753195503463,-0.03230744870343198,0.05237418315264199,0.0006291713670633654,0.007480425760149956,0.004040165338665247,0.038414404389267756,2
2025/04/11 11:18:52.268753704,1744363132,257390812,piren,vessel_center,249.09708515679048,1037.8975707644158,-41.48358405176226,0.005997557725753096,-0.00817757972546456,-0.1813944746050954,0.9833581245273267,-0.07825466992555913,0.09620222807898221,0.01310087216323258,0.004447974264621735,0.0017957697855308652,0.058301087493159855,2
2025/04/11 11:18:53.304204892,1744363133,291825090,piren,vessel_center,249.00888956875437,1037.9923272437616,-41.47200210234843,0.005796575693952058,-0.004925962332893452,-0.12547185971712427,0.9920680153217548,-0.09219550479062956,0.08185756514030776,0.0081019156033732,0.005802917759865522,0.0033341078087687492,0.07087707849317276,2
2025/04/11 11:18:54.237904882,1744363134,227935859,piren,vessel_center,248.95003402169903,1038.0432924452234,-41.47326915627372,0.004558651645539646,-0.0011860865913929156,-0.09330842891248403,0.9956261090327314,-0.03294435389595957,0.026589462440824482,-0.01037801873263798,0.007644403725862503,0.004164602141827345,0.07005344454336114,2
2025/04/11 11:18:55.182820401,1744363135,171447559,piren,vessel_center,248.94072477821211,1038.0657469094283,-41.482123608566845,0.006321077185458372,-0.012582296818898478,-0.0622902364548755,0.9979587447546979,0.012482836167646269,0.0207680767836789,-0.008292404296145247,0.007819957099854946,0.00797216221690178,0.06811731558638696,2
2025/04/11 11:18:56.72969992,1744363136,63035765,piren,vessel_center,248.92327799517068,1038.0841874168593,-41.49673004468409,0.005323660895057253,-0.011934271170174081,-0.03858661233393589,0.9991698079680459,-0.046740968375138546,0.020274814969343188,-0.023056015732976318,0.0071451785042881966,0.009849075227975845,0.06538843502214062,2
