time,header_stamp_secs,header_stamp_nsecs,header_frame_id,pose_position_x,pose_position_y,pose_position_z,pose_orientation_x,pose_orientation_y,pose_orientation_z,pose_orientation_w
2025/04/11 11:15:47.666066469,1744362947,651013136,piren,255.36128165409502,1038.881468003407,-41.474271203647206,-0.003945725479742575,-0.007628188052648394,-0.4260408334562326,0.904663169486517
2025/04/11 11:15:50.188471207,1744362950,183737058,piren,255.50524552965203,1038.9509123386242,-41.468972653875724,-0.0038065627931556534,-0.007398922108991554,-0.44005061009494495,0.897934422208211
2025/04/11 11:15:52.147368377,1744362952,141148672,piren,255.61018610049118,1039.0081966459502,-41.46546227432034,-0.0038562031230247886,-0.008246397587262243,-0.44235385915277703,0.896794396680171
2025/04/11 11:15:54.171977505,1744362953,639354734,piren,255.69331298183536,1039.0607974890902,-41.46879872278426,-0.003574474708705047,-0.008293884333080726,-0.44446849676906564,0.8957489547820157
2025/04/11 11:15:56.929560422,1744362956,94772936,piren,255.82556251967898,1039.1228233010834,-41.47596714612666,-0.00395054512167685,-0.008451572079895208,-0.45817481558773987,0.8888131426142172
2025/04/11 11:15:58.4248043,1744362957,964566039,piren,255.979488709659,1039.183828988587,-41.47185388064541,-0.004018929853279482,-0.008454866730950913,-0.4551389581234289,0.8903712103553866
2025/04/11 11:15:59.496724077,1744362959,494276089,piren,256.0221404373051,1039.3320495659566,-41.46829868522765,-0.004591355253314136,-0.008463016591198375,-0.419180011390347,0.9078520886454488
2025/04/11 11:16:01.160996132,1744362961,75170336,piren,255.95453750372394,1039.6062560115834,-41.463257180907235,-0.005554996317770238,-0.007177681008565388,-0.3259705717157991,0.9453363471730704
2025/04/11 11:16:02.216408902,1744362962,210320093,piren,255.82739287767455,1039.8823443351037,-41.46367375355502,-0.005323470263631135,-0.008048211594889894,-0.2416574607910786,0.9703136392932362
2025/04/11 11:16:03.594510869,1744362963,591803691,piren,255.67895408551323,1040.1408537823686,-41.4645151870533,-0.00397562272565443,-0.0074400953937633525,-0.14349831101839874,0.989614608895474
2025/04/11 11:16:04.596791035,1744362964,593232088,piren,255.5398182836921,1040.3658598255242,-41.45923992969819,-0.0023190324960884715,-0.007522318370232008,-0.0944787300920362,0.9954957590943395
2025/04/11 11:16:05.587312036,1744362965,584132990,piren,255.4834654536536,1040.5111974919996,-41.45631634775378,-0.002480662311974462,-0.008384028349515127,-0.09623965874125669,0.995319789046965
2025/04/11 11:16:06.692141887,1744362966,683057861,piren,255.3779799224504,1040.692724994296,-41.45632160642911,-0.0026221703448347515,-0.008689558886976477,-0.04794934902131255,0.9988085280560358
2025/04/11 11:16:07.803304668,1744362967,798640939,piren,255.2088469384859,1040.884062238547,-41.466957405380604,-0.002431291758485505,-0.008730165423950236,-0.030913880251462522,0.9994809678227264
2025/04/11 11:16:08.954562555,1744362968,952131076,piren,255.06942304674607,1041.0765934404287,-41.48191899955435,-0.003626950444470651,-0.008300180538900808,-0.01674154120682894,0.9998188201026799
2025/04/11 11:16:10.58575325,1744362970,54015527,piren,254.9864162716766,1041.2408694928422,-41.49006759961546,-0.00354928921368237,-0.008808337866476283,-0.014060595489468865,0.9998560473311091
2025/04/11 11:16:11.88272800,1744362971,85574407,piren,254.9235402436133,1041.3835932535455,-41.487187316242405,-0.0025988323204336147,-0.008558634664707585,-0.0073850514627151476,0.9999327261661853
2025/04/11 11:16:12.102268375,1744362972,99440157,piren,254.84730718762947,1041.510208026484,-41.480674986359354,-0.0011905081204762885,-0.009990836040777759,0.0024528396558355582,0.9999463732937103
2025/04/11 11:16:13.37537337,1744362973,25905619,piren,254.76401808310655,1041.6163004348055,-41.46901301649471,-0.0009386870339064324,-0.008910960554138793,0.008290817392779088,0.9999254852215813
2025/04/11 11:16:13.931138699,1744362973,928031848,piren,254.70338022845615,1041.661660652051,-41.460795402027536,-0.0011537664856910786,-0.008755192516674015,0.0064662102698166786,0.9999400999818134
2025/04/11 11:16:14.889962428,1744362974,885296340,piren,254.6751313670997,1041.597668705083,-41.457995512040114,-0.00036392926039968687,-0.009051570390638272,-0.008516081169968714,0.9999227035078578
2025/04/11 11:16:16.106480402,1744362976,99859565,piren,254.66668654684972,1041.3603099118502,-41.46345325400928,-0.0011353663777229697,-0.007421126895870273,-0.05266973919279282,0.9985837653357614
2025/04/11 11:16:17.251169852,1744362977,247032055,piren,254.64135641524885,1041.0129715055332,-41.48011564402601,-0.0018990620284837297,-0.007865574718791521,-0.0993754396124746,0.9950171095511788
2025/04/11 11:16:18.414211011,1744362978,407494046,piren,254.5377063587139,1040.7061082735468,-41.486969164555035,-0.0023325201294443305,-0.008154137193986737,-0.10745569938496703,0.9941736981363746
2025/04/11 11:16:19.402708483,1744362979,399556210,piren,254.38615476131554,1040.549412174269,-41.48038882667254,-0.001359799448414168,-0.00899194027517694,-0.0696003547806547,0.9975335014774966
2025/04/11 11:16:20.487730802,1744362980,483648951,piren,254.26575514145424,1040.4317156643683,-41.470984182657816,-0.001185921616872893,-0.008778535042951114,-0.0318286773693225,0.99945408409258
2025/04/11 11:16:21.600468862,1744362981,595639836,piren,254.26285530546753,1040.2888372819273,-41.47203588862136,-0.0008831346079598161,-0.009022019564678626,-0.01098982694874607,0.9998985183206721
2025/04/11 11:16:22.695434356,1744362982,692507558,piren,254.2646934659425,1040.1121914784787,-41.48136891389352,-0.0007866180698097803,-0.009439826571056976,0.0009842467772902589,0.9999546500539922
2025/04/11 11:16:23.814867144,1744362983,811528284,piren,254.1242316856874,1039.9475861455942,-41.48814273128124,-0.0006638155576549251,-0.00913885224007585,0.00992551704129584,0.9999087582575235
2025/04/11 11:16:25.54135774,1744362985,50614978,piren,253.88259210991748,1039.8243159861847,-41.48659872375361,-0.001332282426007221,-0.008439564977089368,0.020932050397425878,0.9997443913484558
2025/04/11 11:16:26.182447220,1744362986,177038700,piren,253.69035774172696,1039.7269561282617,-41.479833670635614,-0.0007533619909055674,-0.008959854133413096,0.03840746145589418,0.9992217073123125
2025/04/11 11:16:27.239253704,1744362987,238015286,piren,253.62589520322967,1039.6052165232875,-41.47156261824156,-0.0013417894577623336,-0.008740712659772215,0.06172689919669227,0.9980539010789006
2025/04/11 11:16:28.247221153,1744362988,242872165,piren,253.6635920076048,1039.4398872843142,-41.46990857172075,3.337492320937698e-05,-0.009795739230222028,0.08803993145343204,0.9960687791757771
2025/04/11 11:16:29.304971395,1744362989,301523137,piren,253.73069211052476,1039.2455483332542,-41.47351387000007,0.00048311136118277357,-0.00813399797971071,0.11027536032138263,0.9938676720702149
2025/04/11 11:16:30.249360851,1744362990,246500587,piren,253.7595482150659,1039.0858708196756,-41.47667353005123,0.0010888103113790952,-0.00788657832192467,0.11657989224345419,0.9931494072389021
2025/04/11 11:16:31.221761564,1744362991,206169390,piren,253.75549453370218,1038.9556697807416,-41.48040025813248,-0.0010641631242452212,-0.008013551389537807,0.1128864956287814,0.9935750045445112
2025/04/11 11:16:32.398121051,1744362992,393967445,piren,253.73642274088573,1038.8192365770794,-41.48082719511227,-0.0010055677180427016,-0.009153461386129552,0.08393593820107982,0.996428603190676
2025/04/11 11:16:33.454344428,1744362993,451490455,piren,253.72160597037217,1038.711033081598,-41.47140932311152,0.00018557041361365824,-0.009350932284736135,0.05442794479994259,0.9984738977328763
2025/04/11 11:16:34.523060675,1744362994,520336967,piren,253.70249388748616,1038.5659281468743,-41.46196188332389,0.0002455835019471674,-0.008814995017255026,0.03653177227184167,0.9992935830706948
2025/04/11 11:16:35.423761715,1744362995,421337567,piren,253.7286539290845,1038.3993466239701,-41.46448183935994,-0.002613252411159328,-0.009265053884739059,0.02558257493450274,0.9996263609709726
2025/04/11 11:16:36.428668476,1744362996,425612107,piren,253.82605150961098,1038.180277993892,-41.4765887603704,-0.002829800956037208,-0.008190381871099406,-0.0006406164256271314,0.999962249028407
2025/04/11 11:16:37.446993433,1744362997,444402710,piren,253.96281651854883,1037.9680443401642,-41.48736728234245,-0.0026262548476680544,-0.008419134709137454,-0.02395680377054061,0.9996740931470238
2025/04/11 11:16:38.470206807,1744362998,465536612,piren,254.08848914544959,1037.8184701076375,-41.49156568457007,-0.002267661570265094,-0.008816197229797,-0.05830111077208738,0.9982575383437627
2025/04/11 11:16:39.673492703,1744362999,668770575,piren,254.1926098766383,1037.8064995844666,-41.48217610168979,-0.0032533620452806795,-0.008748685139672361,-0.11676661286661971,0.9931155190930138
2025/04/11 11:16:40.860876788,1744363000,858126203,piren,254.24589433378802,1037.9562111803223,-41.45646603228622,-0.0014309656105533685,-0.0076244710036529224,-0.1270406976027765,0.9918671689958972
2025/04/11 11:16:41.869163644,1744363001,861950727,piren,254.26964798209474,1038.1084176189556,-41.45131898096582,-0.0014161173062549532,-0.008442305593401981,-0.09639286321048901,0.9953065547910988
2025/04/11 11:16:42.810191709,1744363002,804769791,piren,254.35362322610666,1038.1590042888383,-41.46323305045782,0.00015510523053608935,-0.007480179075691374,-0.07853873453609306,0.9968829871358184
2025/04/11 11:16:43.688118278,1744363003,684353456,piren,254.51846149079128,1038.130361475621,-41.47820700530263,0.0015535210900843,-0.008492416811409104,-0.06633613235022794,0.9977599826479999
2025/04/11 11:16:44.623010309,1744363004,620686152,piren,254.6962349294698,1038.0697007307351,-41.489885884359296,0.0017521711167162962,-0.00763918687771615,-0.03957487313432871,0.9991858696642116
2025/04/11 11:16:45.616527826,1744363005,613892951,piren,254.81510342828386,1038.0343133464944,-41.492694895716504,0.0020022582528727286,-0.007115509621849828,-0.0038387218606878142,0.9999653117479559
2025/04/11 11:16:46.613012270,1744363006,610466565,piren,254.85975361073372,1038.0402623605999,-41.489201153981654,0.0013519745168779405,-0.007747127335236636,0.036453476651249664,0.9993044071868162
2025/04/11 11:16:47.670097366,1744363007,667265764,piren,254.87758313958997,1038.0575680442305,-41.484728492121455,0.004513522336249324,-0.007498406211551099,0.09417354114286419,0.995517325900971
2025/04/11 11:16:48.701651986,1744363008,697633673,piren,254.93000129131568,1038.0521370216065,-41.48163073857885,0.0034004901877089265,-0.006920977541915776,0.11945066672632801,0.9928101907993206
2025/04/11 11:16:49.706183421,1744363009,701256748,piren,255.04702529837584,1038.0179111474451,-41.48538761794762,0.003646100787238132,-0.0078920468062919,0.11909508867274435,0.9928447922008192
2025/04/11 11:16:50.744025058,1744363010,739773699,piren,255.18048137886566,1037.9788669526326,-41.490481058210946,0.0036008487018526674,-0.007427582985240799,0.08289273087214007,0.9965242897532316
2025/04/11 11:16:51.771040359,1744363011,767684128,piren,255.23497501490817,1037.9483589397898,-41.48974377787921,0.0033774990121062704,-0.006657428115340986,0.04513516847929194,0.9989529957498793
2025/04/11 11:16:52.651674485,1744363012,646412634,piren,255.16882005370974,1037.9239975034525,-41.48272856591618,0.002449542270040775,-0.006995232289720539,0.03169379340900563,0.9994701445902361
2025/04/11 11:16:53.665870929,1744363013,658544341,piren,254.9711966077552,1037.8862529526216,-41.47825063092888,0.002349159769224322,-0.00694737568592037,0.02069631255428042,0.9997589099708554
2025/04/11 11:16:54.794095969,1744363014,790100735,piren,254.61163539196704,1037.8353165583442,-41.480980459934074,0.001605156237749568,-0.0064415566539581925,0.025517463560995112,0.9996523340015465
2025/04/11 11:16:55.798338668,1744363015,790987206,piren,254.2124828893736,1037.7909444681056,-41.48567102817376,0.0025331165576457887,-0.007082822352258553,0.044290426707844374,0.9989903778565982
2025/04/11 11:16:56.839111170,1744363016,832817274,piren,253.81579207843373,1037.7506216436684,-41.48779206040629,0.0024198201315085376,-0.006627400925368238,0.06079789088824465,0.9981251617362658
2025/04/11 11:16:57.857824174,1744363017,847248053,piren,253.53625389178077,1037.7147956993092,-41.48480951892495,0.0032861945166497396,-0.006618294537429484,0.07000991230202197,0.9975189277815624
2025/04/11 11:16:58.872006649,1744363018,864350470,piren,253.34957797998484,1037.687986453204,-41.48227086280209,0.002412999085742556,-0.006414256680924708,0.06816094028529647,0.997650801115334
2025/04/11 11:16:59.967888396,1744363019,964995113,piren,253.24354623691033,1037.7019500256556,-41.485065918970356,0.0028323416754482775,-0.007246227585631634,0.03962296025080471,0.9991844129325548
2025/04/11 11:17:01.109542890,1744363021,104292110,piren,253.21368557070733,1037.7714625064493,-41.488655846940446,0.0030143838188652376,-0.006999607019963963,0.00916063787029945,0.9999289983321656
2025/04/11 11:17:02.137816733,1744363022,135546018,piren,253.15959013709156,1037.8440876624243,-41.48921458625704,0.0028504722530260764,-0.007896732363527828,-0.007119933020738238,0.9999394096542519
2025/04/11 11:17:03.270336505,1744363023,267606286,piren,253.05643838160634,1037.8859541156996,-41.483980616612776,0.0018729083625484743,-0.006385143064515639,-0.022586178443063962,0.9997227549204076
2025/04/11 11:17:04.311496107,1744363024,310438568,piren,253.01538743647754,1037.8311732844356,-41.47237925126856,0.0028315122791448375,-0.007249197697755112,-0.02556383477231407,0.9996428972501559
2025/04/11 11:17:05.427489634,1744363025,418855584,piren,253.10343324839567,1037.5801779121384,-41.46817439478301,0.0027144434528101552,-0.007642636416652174,-0.018790869432296887,0.9997905406290474
2025/04/11 11:17:06.446140395,1744363026,444869765,piren,253.26462233904104,1037.2307471954944,-41.48438663927364,0.003330868949542078,-0.007353640197626574,0.0034176544875009255,0.9999615737245552
2025/04/11 11:17:07.429117541,1744363027,425603537,piren,253.43265984384092,1036.9085137303625,-41.503531264643016,0.002258501813733272,-0.007116804614023968,0.017275669406911647,0.9998228850692438
2025/04/11 11:17:08.441432949,1744363028,440130552,piren,253.56939510461976,1036.7156647922734,-41.513636604677174,0.0029475244504962085,-0.006912390212730373,0.0013493933987919202,0.9999708546245816
2025/04/11 11:17:09.523247402,1744363029,519652248,piren,253.6503659977723,1036.7281724831132,-41.497841758778655,0.00256863108189948,-0.006420131052434962,-0.06545130142121931,0.9978318050623078
2025/04/11 11:17:10.503199521,1744363030,494474258,piren,253.62771094423047,1036.8862481037706,-41.47211428741048,0.0020039384607716763,-0.007865023698606692,-0.12054305498892505,0.9926749203675909
2025/04/11 11:17:11.435455197,1744363031,434276521,piren,253.51969137801007,1037.0629414110103,-41.465140466888364,0.0017004127077495364,-0.007963908008855231,-0.14456174393622917,0.9894622716182593
2025/04/11 11:17:12.408667425,1744363032,405940575,piren,253.40208264169456,1037.1911319893456,-41.476021227048626,0.00325749777903106,-0.008455102933539191,-0.1344116525359694,0.9908841544828298
2025/04/11 11:17:13.507500171,1744363033,504608074,piren,253.35588742545897,1037.2678673009627,-41.492458821040806,0.004638553037665891,-0.00721543891850301,-0.11735566995753184,0.9930529029189478
2025/04/11 11:17:14.670135215,1744363034,662831128,piren,253.43773558770036,1037.29055834657,-41.50337465473713,0.004538491950753738,-0.008281823903170045,-0.09729788857325355,0.9952104975143884
2025/04/11 11:17:15.788249816,1744363035,785945204,piren,253.54852311192596,1037.3302958447146,-41.49638999311418,0.0038388493439917744,-0.009707180346535336,-0.06484624481130466,0.9978406678519904
2025/04/11 11:17:16.730080758,1744363036,725638620,piren,253.56582902348157,1037.4044512902599,-41.486938690937954,0.0037553659769872026,-0.007096228030370662,-0.030050725226397623,0.9995161302787902
2025/04/11 11:17:17.705261549,1744363037,700911956,piren,253.54745905613822,1037.4933043731019,-41.48442394220128,0.004747648231106991,-0.006780324132978444,0.0006617971435073337,0.9999655239384337
2025/04/11 11:17:18.770632435,1744363038,767316104,piren,253.53655073044263,1037.5795132728451,-41.492926023772355,0.004385182383069542,-0.002064924685921765,0.031346148450942045,0.999496836032411
2025/04/11 11:17:19.847326237,1744363039,844852269,piren,253.56485243476112,1037.6326226503886,-41.49966873472557,0.004808462091416472,-0.009801593186195154,0.04935084908111957,0.9987218337246365
2025/04/11 11:17:20.862822489,1744363040,860300569,piren,253.60472765576637,1037.648704865484,-41.492639585036216,0.007878630887762564,-0.016551900113309693,0.06643871525371736,0.9976221022478446
2025/04/11 11:17:21.929954528,1744363041,925225936,piren,253.60631302390914,1037.5648636223564,-41.48335197760517,0.010020947216151372,-0.012095635571498526,0.07813135629340268,0.9968193253447518
2025/04/11 11:17:22.967613314,1744363042,957704853,piren,253.60414732245093,1037.3675689440183,-41.489096057024966,0.006570939081957099,-0.011919824960561917,0.06838433249242067,0.9975662001100765
2025/04/11 11:17:23.953254861,1744363043,952359598,piren,253.63176224780307,1037.1354200825278,-41.50298680927357,0.0038841945070549147,-0.009474580552838362,0.055525160914268776,0.9984047785651988
2025/04/11 11:17:24.932551084,1744363044,922867758,piren,253.66520639702898,1036.9754072722542,-41.50285806020454,0.003955547788539783,-0.011079627315684645,0.04719998648648076,0.998816177670303
2025/04/11 11:17:26.68457294,1744363046,67535104,piren,253.68814126032262,1036.866656322121,-41.49110443090228,0.001806516565913484,-0.01055898124712021,0.0426482865033808,0.9990327162166641
2025/04/11 11:17:27.169141850,1744363047,167872201,piren,253.69500332590528,1036.784609871512,-41.483905473850264,0.0023457913414351283,-0.011386899798578768,0.042648804769187795,0.9990224798410291
2025/04/11 11:17:28.230163764,1744363048,226070003,piren,253.70682941404866,1036.6747750969753,-41.48435719580232,-0.00044130178744506196,-0.01413155931987732,0.04398309891075502,0.9989322255759536
2025/04/11 11:17:29.267083644,1744363049,265919786,piren,253.7299564765866,1036.538192779296,-41.48835232859489,-0.004863787554501865,-0.020067160408821165,0.045496950073664014,0.9987510601635154
2025/04/11 11:17:30.354877944,1744363050,353582807,piren,253.7512826480927,1036.4059915801286,-41.48301626021686,-0.006456750497949336,-0.018189879566133438,0.04655421522392441,0.998729264465231
2025/04/11 11:17:31.475220777,1744363051,472222213,piren,253.77274987588774,1036.2892656202614,-41.464425171482695,-0.008828540522450943,-0.021176420015370827,0.04579508529240498,0.9986873516124241
2025/04/11 11:17:32.403157600,1744363052,392529747,piren,253.79948547044145,1036.207584120448,-41.45675824147332,-0.010333258623679023,-0.018182707706804368,0.0450074718761885,0.9987677109228047
2025/04/11 11:17:33.487479456,1744363053,475820936,piren,253.84005755706943,1036.1052941020607,-41.462296038251566,-0.01167327361427288,-0.018859403443786907,0.045285965238101404,0.9987278102352635
2025/04/11 11:17:34.478578596,1744363054,477742405,piren,253.88097962476868,1036.0088808778414,-41.47200904437698,-0.010404171144057192,-0.01823972574695414,0.045238132646027246,0.9987555141185362
2025/04/11 11:17:35.372899454,1744363055,370946805,piren,253.91190679779615,1035.9123977667698,-41.47687313996654,-0.007707508424804875,-0.01125271785381577,0.045625917215300626,0.9988654795982523
2025/04/11 11:17:36.357048671,1744363056,354327929,piren,253.9521805251072,1035.8069322334998,-41.4754177979535,-0.006708120904015091,-0.014247670376796005,0.04519839911783476,0.9988538980851785
2025/04/11 11:17:37.349398625,1744363057,347951425,piren,254.00171261655476,1035.6982595294237,-41.470340629676464,-0.0056042548473366535,-0.012535073942205863,0.04546159312885096,0.9988717173887027
2025/04/11 11:17:38.292266288,1744363058,289244729,piren,254.03808187413114,1035.6049306131881,-41.47223511068557,-0.004145228504357224,-0.012963137370986469,0.04604621194712556,0.9988465950862866
2025/04/11 11:17:39.245498541,1744363059,242624881,piren,254.06849602493446,1035.5207903643432,-41.48005105649275,-0.004317350577410043,-0.012361208540211147,0.04567361967057184,0.9988706029679746
2025/04/11 11:17:40.305713022,1744363060,301739496,piren,254.10022376732095,1035.433527688674,-41.48605231006189,-0.005079109178127009,-0.013683559714674177,0.04536599438131452,0.9988637992225398
2025/04/11 11:17:41.509540594,1744363061,502323086,piren,254.12345395535783,1035.3514455138873,-41.48605428767821,-0.004832935271576886,-0.01624858641804183,0.060117270318685564,0.9980473635982946
2025/04/11 11:17:42.567492191,1744363062,564326028,piren,254.11945621640535,1035.335482501168,-41.472328162100695,-0.004952137357996768,-0.01331121635658642,0.09435717104067327,0.995437096017572
2025/04/11 11:17:43.580346785,1744363063,575332477,piren,254.1754245221031,1035.3765685984379,-41.45643031639083,-0.0023115838652813824,-0.01407297938232723,0.06874149235764669,0.9975325634082237
2025/04/11 11:17:44.545168772,1744363064,543861511,piren,254.27896697400206,1035.4120357913916,-41.45436815503466,-0.0008768237440368795,-0.01252574665879785,0.05084130782625758,0.9986278076787554
2025/04/11 11:17:45.433559037,1744363065,424687749,piren,254.32770289629508,1035.4081660813267,-41.466786107198054,-0.0020815482431962825,-0.012996347163617424,0.06554736069280609,0.9977626499441244
2025/04/11 11:17:46.471666991,1744363066,467969643,piren,254.3460290115209,1035.3862296191498,-41.47693936569061,-0.00027479349455670007,-0.008831584949868364,0.057824335622599705,0.9982876708672774
2025/04/11 11:17:47.552316141,1744363067,547535120,piren,254.36446579619104,1035.3691633846831,-41.47283755985811,0.0005035873396794235,-0.00969739695083836,0.06110738002415508,0.9980839618983729
2025/04/11 11:17:48.601953971,1744363068,600638396,piren,254.39938451083884,1035.370909842327,-41.46621570923358,0.004698251350460221,-0.008988890352856441,0.060598593949177604,0.9981106835896784
2025/04/11 11:17:49.638258443,1744363069,635239453,piren,254.43910160446023,1035.384158814713,-41.4704810156176,0.006171331059324035,-0.007025446716924361,0.05970699206566378,0.9981721459096395
2025/04/11 11:17:50.623344698,1744363070,619796562,piren,254.45177725260797,1035.3933438515623,-41.485555092986914,0.00796783118024994,-0.007601898126357595,0.06107165134060511,0.9980726317326265
2025/04/11 11:17:51.592103792,1744363071,589279102,piren,254.43681578328247,1035.4216273181871,-41.50405707767931,0.008731663216753087,-0.007875787298085734,0.03571928997529178,0.9992926810277185
2025/04/11 11:17:52.684712773,1744363072,679279175,piren,254.3638124405114,1035.5680341697869,-41.52128690823351,0.007500052174584512,-0.008208648608528874,-0.03794417599476176,0.9992179976428962
2025/04/11 11:17:53.773143704,1744363073,768450818,piren,254.1677259456292,1035.9488577521038,-41.51322288619371,0.00607029146018577,-0.007872699266965868,-0.1340366059661018,0.9909265161599665
2025/04/11 11:17:54.888929937,1744363074,876521028,piren,253.85355285542045,1036.5243672341978,-41.48008720154953,0.004842226116963747,-0.00958123869397411,-0.20030042340542456,0.9796757081274032
2025/04/11 11:17:55.984484877,1744363075,979480888,piren,253.53472709477703,1037.1507811361846,-41.45221373398704,0.004956235733004561,-0.009221180461664771,-0.21950195694779717,0.9755558909946369
2025/04/11 11:17:57.71405962,1744363077,34178324,piren,253.36457775853228,1037.6279537404666,-41.459554725141004,0.005076484551944569,-0.00951659321909739,-0.2146313047661126,0.9766355854526766
2025/04/11 11:17:58.105453495,1744363078,102736363,piren,253.34061656638588,1037.9016011674712,-41.47984275865624,0.004407714640739022,-0.0078098620511506765,-0.216735527980235,0.9761891666155268
2025/04/11 11:17:59.174870258,1744363079,171864345,piren,253.31997372605065,1037.958084506795,-41.49489201094476,0.004847067369333869,-0.004393830809625847,-0.23233139130587951,0.972614684652976
2025/04/11 11:18:00.142456166,1744363080,140197337,piren,253.18629087038968,1037.8835956140015,-41.49895438988766,0.0028362557797763344,-0.006892799070446864,-0.24725615951165042,0.9689214811106602
2025/04/11 11:18:01.45472199,1744363081,44127550,piren,252.94871651108372,1037.8126098983885,-41.49401989571821,0.0014854855563763768,-0.010598458574584255,-0.25757230817270443,0.9661997578508753
2025/04/11 11:18:01.991645133,1744363081,987025576,piren,252.65556868609016,1037.7957664027379,-41.486659817115914,0.005863143915963033,-0.01297827869910993,-0.25852287327052975,0.9659001562384067
2025/04/11 11:18:02.908247714,1744363082,904107512,piren,252.41121872004408,1037.8141273059557,-41.480638545923874,0.006869530873807531,-0.004981281546176152,-0.24154269883006158,0.9703530909012563
2025/04/11 11:18:03.946738936,1744363083,945597012,piren,252.20067685185313,1037.7973271524688,-41.48140104817145,0.006095298164506968,-0.011933530580064257,-0.19914764884081593,0.9798778761403666
2025/04/11 11:18:04.976935123,1744363084,974188353,piren,252.04557645022905,1037.6949430736897,-41.488411445205145,0.007202627604423318,-0.008858111540322651,-0.13983179136252283,0.9901094515960743
2025/04/11 11:18:05.922858295,1744363085,921603423,piren,251.90774501241313,1037.5576607192338,-41.49100168143234,0.006283386168664692,-0.007971589540599521,-0.08970993241485108,0.9959162117590891
2025/04/11 11:18:06.938315581,1744363086,935491368,piren,251.75261161012043,1037.427686015927,-41.48760018429055,0.007213172623341725,-0.007576533635503497,-0.03818133173329675,0.9992160688188757
2025/04/11 11:18:07.991599538,1744363087,988875632,piren,251.57783986329918,1037.3528051208446,-41.49135421923153,0.007798081643458133,-0.0066412702687218324,-0.0015757648152143523,0.9999462987666622
2025/04/11 11:18:09.138848389,1744363089,124777073,piren,251.38915451574505,1037.3333103750892,-41.517481597286746,0.008781159337740223,-0.007851149622857361,0.025778674820086746,0.9995982746157603
2025/04/11 11:18:10.137814232,1744363090,136582982,piren,251.23030841335552,1037.3989489187395,-41.531281538765356,0.008016731917087006,-0.007412622010420859,0.00931363891256736,0.9998970152843275
2025/04/11 11:18:11.183001635,1744363091,176298720,piren,251.05097429033776,1037.5835641868678,-41.51252799612649,0.006401360661552591,-0.007991008692228565,-0.020682160447657996,0.9997336718351438
2025/04/11 11:18:12.400560507,1744363092,399241019,piren,250.805963943721,1037.8418739832025,-41.4817238644561,0.005841112961660913,-0.008322904326942143,-0.04490366458390486,0.9989395735327887
2025/04/11 11:18:13.462680449,1744363093,452180588,piren,250.55827793685384,1038.0234590966124,-41.47831303946045,0.006918493788829355,-0.008963250160719138,-0.04070428098662872,0.9991070793962036
2025/04/11 11:18:14.506268167,1744363094,504797048,piren,250.34507895572668,1038.133906202465,-41.49676506913629,0.00723646238013863,-0.007710179098034155,-0.03362058271555743,0.9993787285951025
2025/04/11 11:18:15.408385444,1744363095,406641661,piren,250.24514591265674,1038.1932778992837,-41.510503212478,0.0071905084271855916,-0.008322143721899428,-0.030854794225318116,0.9994633661049034
2025/04/11 11:18:16.395822808,1744363096,393707888,piren,250.17956313016168,1038.2704342232128,-41.515206626531565,0.007249218621618942,-0.008013595546575922,-0.027632999650156524,0.9995597273030393
2025/04/11 11:18:17.489211614,1744363097,487356222,piren,250.08854038483014,1038.3891408326779,-41.50705297266345,0.007815201031283346,-0.008103237605102105,-0.02141206908693837,0.9997073489129568
2025/04/11 11:18:18.477873591,1744363098,474918847,piren,249.9659502408129,1038.511417139996,-41.49184077566585,0.007517678071924684,-0.007932184354270245,-0.017363116306266163,0.9997895214293416
2025/04/11 11:18:19.502648985,1744363099,499823502,piren,249.8404925332742,1038.5745117273425,-41.479550296973116,0.008242727415903922,-0.007964959514858283,-0.009909247387738091,0.9998852052515241
2025/04/11 11:18:20.557433590,1744363100,556000997,piren,249.7470101547913,1038.4476004673093,-41.48552084728129,0.0077103456074604304,-0.007430843438489485,0.008726692116333711,0.9999045844384918
2025/04/11 11:18:21.621128845,1744363101,617201507,piren,249.70598460206668,1038.0960645539756,-41.51047867218204,0.007854687259503518,-0.006841154689185905,0.028279214150156547,0.9995457911159566
2025/04/11 11:18:22.714908760,1744363102,711018427,piren,249.71664888216608,1037.7339660798996,-41.51857492484053,0.008009795102816648,-0.0077326141188881325,0.03631389053504887,0.9992784152654894
2025/04/11 11:18:23.659781989,1744363103,658443992,piren,249.76797043663802,1037.5505734110097,-41.50949596704177,0.0077118954427573124,-0.007317558722928235,0.03193784404545358,0.9994333164952752
2025/04/11 11:18:24.616259470,1744363104,613579548,piren,249.84708858671772,1037.4629382258295,-41.49561025618445,0.0071012001482983625,-0.007501752981979695,0.0326281405492533,0.9994141789583283
2025/04/11 11:18:25.590682093,1744363105,587060922,piren,249.91021767721907,1037.4090096565367,-41.4900569121853,0.006248261333763573,-0.007203627682182697,0.03386979866417295,0.9993807601294763
2025/04/11 11:18:26.605250843,1744363106,603171032,piren,249.9560669574155,1037.3159493536514,-41.4939804423085,0.0069091244737422165,-0.007299931193015471,0.03714686749041183,0.9992592682778747
2025/04/11 11:18:27.556462908,1744363107,553504791,piren,249.9884405059164,1037.1745806583754,-41.50451472461009,0.007215395654442858,-0.008680018705024014,0.04278165268517464,0.999020683236516
2025/04/11 11:18:28.523937675,1744363108,518991771,piren,250.01391034187603,1037.005930859012,-41.508327903049015,0.006771710276428369,-0.00666756025399987,0.062113963730388404,0.9980238188990739
2025/04/11 11:18:29.549799627,1744363109,546427463,piren,250.04200452491037,1036.8618767157297,-41.50178850147999,0.007815804441141092,-0.007493126580109922,0.0898914048915831,0.9958927158994636
2025/04/11 11:18:30.590046379,1744363110,587359813,piren,250.0961121229461,1036.7573410391992,-41.491027252081636,0.007991729139358429,-0.006769695684882646,0.10552575296576162,0.994361412639643
2025/04/11 11:18:31.566483126,1744363111,564243901,piren,250.16923272910978,1036.6823844078679,-41.48877729294264,0.007288415215146128,-0.006288487844552897,0.10829396021327954,0.994072307282325
2025/04/11 11:18:32.606179482,1744363112,598592472,piren,250.22696397525422,1036.6004742864006,-41.491908462772436,0.007722326391427225,-0.00318605966003074,0.11484205395460796,0.99334863836542
2025/04/11 11:18:33.669157710,1744363113,665484818,piren,250.25247687991163,1036.489700021834,-41.4908744924533,0.005398970497283795,-0.002686085130063935,0.12560215380120146,0.9920623644835757
2025/04/11 11:18:34.714891811,1744363114,712383456,piren,250.26848501983795,1036.3800924941697,-41.48807824501184,0.006261156536354706,-0.010111140505204883,0.13236258728767586,0.9911300158117621
2025/04/11 11:18:35.741144973,1744363115,736663881,piren,250.28357008744092,1036.2834498716045,-41.49060434864057,0.00874771695622971,-0.010022450387020302,0.1387985933085979,0.9902312752240499
2025/04/11 11:18:36.688940762,1744363116,688137286,piren,250.29679388635643,1036.1919563210568,-41.49901552577298,0.0074741943749618385,-0.004195201577431671,0.14272317113864624,0.9897255342378001
2025/04/11 11:18:37.772833362,1744363117,766440096,piren,250.3334907857382,1036.122206216035,-41.508093045913505,0.008656564255232696,-0.004981418141874926,0.1275169997158666,0.9917860979828537
2025/04/11 11:18:38.854788680,1744363118,851623632,piren,250.36389976778258,1036.1649691470732,-41.50917595264294,0.0077840437888910445,-0.003013119027791686,0.06750937788693173,0.9976837242700396
2025/04/11 11:18:39.901185981,1744363119,892218981,piren,250.31280912798735,1036.3495868378134,-41.50401949702715,0.007175046558387036,-0.005466786733805412,-0.029680041535527932,0.9995187482404426
2025/04/11 11:18:40.934222195,1744363120,931270067,piren,250.13421729844399,1036.6220403826826,-41.49014744864496,0.007044446654684334,-0.008437181282068348,-0.11981425683427743,0.9927354801771682
2025/04/11 11:18:41.889517095,1744363121,888413690,piren,249.89819324329758,1036.850034585937,-41.48207657953127,0.007101021897057041,-0.008627722366115425,-0.17766573933707025,0.9840274503084774
2025/04/11 11:18:43.15182605,1744363123,10862725,piren,249.69366542698558,1037.0365607610838,-41.48421252877202,0.003984825181366252,-0.010907539324704724,-0.2873448847002549,0.9577567874939604
2025/04/11 11:18:43.943651457,1744363123,939476125,piren,249.63215591581374,1037.1501535846971,-41.49473129238641,0.0046933707763981355,-0.01009662430559612,-0.34217829357072543,0.9395690745535495
2025/04/11 11:18:44.913657219,1744363124,908723864,piren,249.58558009700025,1037.2866884408145,-41.50744050485044,0.0038601219300514137,-0.010881216111982906,-0.3804816953342789,0.9247163771179586
2025/04/11 11:18:45.816706424,1744363125,812823367,piren,249.51197568584462,1037.4448367576383,-41.510099705659464,0.001817773658169785,-0.010221401752713142,-0.3834748570310042,0.9234929629781639
2025/04/11 11:18:46.800512175,1744363126,798209956,piren,249.4138760176417,1037.5942061739322,-41.50065303159955,0.0022818468260290743,-0.010437986500730549,-0.363622659340853,0.9314850526051178
2025/04/11 11:18:47.867248845,1744363127,864061738,piren,249.30188429579707,1037.7192318246969,-41.485374933858374,0.002879948301092308,-0.008770069185607266,-0.3259004503755254,0.945359026100292
2025/04/11 11:18:48.857953856,1744363128,855414045,piren,249.22868120101674,1037.770394729314,-41.48025187028653,0.005042970397633444,-0.009055174068149997,-0.2797069547352233,0.9600294744146723
2025/04/11 11:18:49.990532805,1744363129,987202144,piren,249.18043038541646,1037.792986594035,-41.48350388211382,0.005769216561684437,-0.00838692361382026,-0.24494471896024814,0.9694836049702158
2025/04/11 11:18:51.218772103,1744363131,214386347,piren,249.14935989473588,1037.8261777398372,-41.48964344251235,0.0042111498820083994,-0.009341334839349354,-0.21447686556204512,0.9766753195503463
2025/04/11 11:18:52.260969873,1744363132,257390812,piren,249.09708515679048,1037.8975707644158,-41.48358405176226,0.005997557725753096,-0.00817757972546456,-0.1813944746050954,0.9833581245273267
2025/04/11 11:18:53.293061995,1744363133,291825090,piren,249.00888956875437,1037.9923272437616,-41.47200210234843,0.005796575693952058,-0.004925962332893452,-0.12547185971712427,0.9920680153217548
2025/04/11 11:18:54.230885919,1744363134,227935859,piren,248.95003402169903,1038.0432924452234,-41.47326915627372,0.004558651645539646,-0.0011860865913929156,-0.09330842891248403,0.9956261090327314
2025/04/11 11:18:55.173093774,1744363135,171447559,piren,248.94072477821211,1038.0657469094283,-41.482123608566845,0.006321077185458372,-0.012582296818898478,-0.0622902364548755,0.9979587447546979
2025/04/11 11:18:56.66162246,1744363136,63035765,piren,248.92327799517068,1038.0841874168593,-41.49673004468409,0.005323660895057253,-0.011934271170174081,-0.03858661233393589,0.9991698079680459
2025/04/11 11:18:56.957992892,1744363136,956711337,piren,248.8650286632545,1038.1105976054757,-41.51090084617848,0.006762387086326133,-0.012452890169171855,-0.015358478844994191,0.999781632545276
2025/04/11 11:18:57.921972833,1744363137,916702087,piren,248.77279029947326,1038.1515474292771,-41.51307619259541,0.006620879628527748,-0.013875543469821557,0.025904812853518935,0.9995461839842048
2025/04/11 11:18:58.960566479,1744363138,955305815,piren,248.69868016540204,1038.1869437473558,-41.504296824325465,0.012711303023688673,0.0026229807785500075,0.056881051771741624,0.9982965935515435
2025/04/11 11:18:59.973277533,1744363139,968954995,piren,248.70284548184088,1038.2020002870518,-41.50046292702989,0.001228277238318484,-0.009379590337926572,0.0854518129522128,0.9962973965053299
2025/04/11 11:19:01.87441827,1744363141,84134721,piren,248.74141259118926,1038.2162387633036,-41.50183841950184,0.008904043185137872,-0.007143299202844352,0.11051036876305137,0.9938094131609492
2025/04/11 11:19:02.72257327,1744363142,67225779,piren,248.71509542598903,1038.2466414041357,-41.49839342013523,0.009711501636079105,-0.006812998248278232,0.1215634217005137,0.9925127728625485
2025/04/11 11:19:03.202203454,1744363143,198410766,piren,248.6628204131929,1038.2652356804545,-41.49740879209915,0.010175044619149521,-0.00793815571599128,0.12970887386430693,0.9914681347333762
2025/04/11 11:19:04.256246629,1744363144,254884988,piren,248.6171912453709,1038.270910499418,-41.49858819108056,0.01179742048018326,-0.009932313334297074,0.12841851841659577,0.9916001483206472
2025/04/11 11:19:05.398484865,1744363145,395796234,piren,248.58711229511732,1038.2785587534306,-41.50209893994543,0.009077702359041219,-0.006520855401981454,0.13905976048193813,0.9902209131195994
2025/04/11 11:19:06.550145414,1744363146,548669087,piren,248.61163534089093,1038.3072997810277,-41.505184176390024,0.00867478968122476,-0.006113188027141035,0.14911165357395234,0.9887634154460677
2025/04/11 11:19:07.614035294,1744363147,611314480,piren,248.70870543139182,1038.3677961930896,-41.50872497881901,0.008891174476797882,-0.00601869097210514,0.1524007684523285,0.988260455624197
2025/04/11 11:19:08.653217836,1744363148,649288147,piren,248.8047755729971,1038.4246070029335,-41.51207316045346,0.009772623366570225,-0.004477294354593233,0.14006802553423983,0.9900835307643174
2025/04/11 11:19:09.611303806,1744363149,608183673,piren,248.8573519216533,1038.4611114431968,-41.51044304762578,0.016060997825143752,0.00012634429131343499,0.12881938665300494,0.991537994233365
2025/04/11 11:19:10.607982544,1744363150,605235459,piren,248.87609842467273,1038.4691088544232,-41.51292155290532,0.012970755115392679,-0.008066417193108934,0.12510040005076678,0.9920265028377726
2025/04/11 11:19:11.608588892,1744363151,605520937,piren,248.87719812606036,1038.4642886282256,-41.51779835322972,0.018506706400816402,-0.00907755153151301,0.12299872700607122,0.9921927297815041
2025/04/11 11:19:12.582677012,1744363152,579234166,piren,248.87731632328865,1038.4743596846336,-41.52020289216831,0.015610646027838945,-0.009262977733810043,0.12208524480992185,0.9923536153880824
2025/04/11 11:19:13.650541718,1744363153,646489724,piren,248.90707056442898,1038.5040757658046,-41.52346003714945,0.011449123237817408,-0.009364778407479903,0.11977271210708597,0.99269114831199
2025/04/11 11:19:14.658198508,1744363154,656313554,piren,248.95909018416853,1038.555568978695,-41.51833906462429,0.007281884261224834,-0.009384308336825718,0.11997424967681686,0.9927059425293728
2025/04/11 11:19:15.592076427,1744363155,589522793,piren,249.01058961545172,1038.61406889344,-41.50727594084464,0.008819319093213355,-0.004052030323569962,0.11920345048432333,0.9928224101286295
2025/04/11 11:19:16.554669435,1744363156,551585016,piren,249.05962151410694,1038.65968780556,-41.49674272293403,0.0074532332738477735,-0.0054125672144561135,0.11888305437254071,0.9928655361190508
2025/04/11 11:19:17.593593011,1744363157,592874753,piren,249.10757682829689,1038.6826117404648,-41.48992606579697,0.004843911056964772,-0.006489716127744305,0.11791272827169387,0.9929909408558465
2025/04/11 11:19:18.583023698,1744363158,581031637,piren,249.13514349560535,1038.6917410810504,-41.48513558747547,0.008948834783184662,-0.005708107700113501,0.11745718653988106,0.9930212209175808
2025/04/11 11:19:19.658479812,1744363159,657112864,piren,249.15781034383255,1038.7002661674205,-41.48670347209523,0.009315326446782726,-0.005638938350791784,0.1179630694902568,0.9929582777256569
2025/04/11 11:19:20.771236920,1744363160,768339029,piren,249.1983642382104,1038.7129465540017,-41.50423837684823,0.007829240647363579,-0.00737786427915009,0.11224255048120639,0.9936226043981881
2025/04/11 11:19:21.858161080,1744363161,853745558,piren,249.2366221511582,1038.7764689127002,-41.518785561863204,0.008440600890125983,-0.007980546084464645,0.08640081369662887,0.9961927356357142
2025/04/11 11:19:22.992456489,1744363162,989522772,piren,249.23634378538088,1038.962518089186,-41.51722384519014,0.00848586251757205,-0.0096277549467502,0.01840004557035823,0.9997483357300612
2025/04/11 11:19:24.62113763,1744363164,58839644,piren,249.14797054639214,1039.2306008091134,-41.49907789764109,0.00761880269774868,-0.00937824426529208,-0.047388290435230226,0.9988034603011644
2025/04/11 11:19:25.212426766,1744363165,204776466,piren,248.97296241880892,1039.5268995643023,-41.479635162975946,0.008029979826469224,-0.008509345140625516,-0.11230516583171557,0.9936048813269666
2025/04/11 11:19:26.398410130,1744363166,395397164,piren,248.80564028970687,1039.7521393457705,-41.4788912346865,0.004138353855830565,-0.007344731982394183,-0.14843765413102214,0.9888858335397215
2025/04/11 11:19:27.444317044,1744363167,440291539,piren,248.71698555214,1039.891307379283,-41.48939752887285,0.0058486497072772065,-0.009556640570602558,-0.14039897486578531,0.9900316115025027
2025/04/11 11:19:28.752708714,1744363168,748759702,piren,248.67500352239455,1040.05150232127,-41.49996059680947,0.006645457474090827,-0.0034417560357524737,-0.1511439171287151,0.9884834386702381
2025/04/11 11:19:29.974786732,1744363169,973581872,piren,248.69423297188828,1040.203991251129,-41.50244160838926,0.004695004446893227,-0.006723379678932081,-0.150027229615908,0.9886478561513762
2025/04/11 11:19:31.212753619,1744363171,210983767,piren,248.68900436202054,1040.3551505342978,-41.4943236208775,0.0005322935953650052,-0.010273453256517668,-0.1434186621814172,0.9896086398975138
2025/04/11 11:19:32.298601319,1744363172,296273694,piren,248.61594813995737,1040.5043093657027,-41.48678287767656,0.004924386335792323,-0.011000077870812416,-0.12734797305730078,0.9917848771100762
2025/04/11 11:19:33.252053235,1744363173,249959463,piren,248.5352874102101,1040.6190335637282,-41.488948084535124,0.005691541053754113,-0.014329267482680205,-0.11466436452795326,0.9932846329029982
2025/04/11 11:19:34.269123268,1744363174,267353342,piren,248.47808021500583,1040.7083422195542,-41.50058266679674,0.012930266819084046,-0.0012781485140593292,-0.10596499257690661,0.9942849666391117
2025/04/11 11:19:35.172592290,1744363175,170088883,piren,248.48500659217683,1040.7576331656169,-41.51446923000848,0.008584818539367413,-0.011628641559333642,-0.10239538270587334,0.9946387591415531
2025/04/11 11:19:36.121604137,1744363176,119501675,piren,248.49931748652529,1040.818757249278,-41.5181617962003,0.0053264877305581925,-0.005574327271929027,-0.09741032493395789,0.9952144412136424
2025/04/11 11:19:37.54654986,1744363177,53335623,piren,248.4775236049177,1040.913841155254,-41.50849660344387,-0.005642760324988105,-0.007021278171803444,-0.09380852996220534,0.9955495068629581
2025/04/11 11:19:38.137574086,1744363178,131987967,piren,248.4253982532337,1041.0691502504117,-41.48736820811591,0.007590443025295639,-0.005550124691285066,-0.08659268113690517,0.9961994222363881
2025/04/11 11:19:39.219596460,1744363179,217384410,piren,248.36988963895953,1041.2028427708317,-41.48346377492937,0.007179700917181238,-0.009589633906196987,-0.0849957435223376,0.9963092965537208
2025/04/11 11:19:40.278095010,1744363180,270990083,piren,248.3470038097215,1041.2994166109938,-41.509531774365,0.0057559827851248,-0.010120897947845752,-0.10307505000667304,0.9946054344075487
2025/04/11 11:19:41.453643515,1744363181,440939244,piren,248.35547703512057,1041.527842528276,-41.526304835724815,0.004419198925115066,-0.013132791220197452,-0.16201881669376345,0.9866903787474467
2025/04/11 11:19:42.617237051,1744363182,614623203,piren,248.35052982273268,1042.028703071842,-41.51284579871986,0.0033789410408500854,-0.009832166920559859,-0.2634751321204166,0.9646101627109357
2025/04/11 11:19:43.705536619,1744363183,699739564,piren,248.2647493852781,1042.645800638604,-41.49429942661641,0.003640271633747879,-0.008823674876599722,-0.3434784747062845,0.9391120426219381
2025/04/11 11:19:44.770652745,1744363184,762850757,piren,248.12236949248376,1043.319564855822,-41.488743811337,0.0020061697193914318,-0.010860795596785109,-0.4023518693722976,0.9154184789563075
2025/04/11 11:19:45.833480910,1744363185,830006461,piren,248.01834539379834,1043.8260136436488,-41.48861649058349,0.0024007832163253995,-0.008829507982721859,-0.4243932521636105,0.905431744278234
2025/04/11 11:19:46.877261552,1744363186,866593291,piren,247.96094853147343,1044.0835634075809,-41.477072553269366,0.0020829879682815926,-0.009850345435420228,-0.45291029022535817,0.891499243333335
2025/04/11 11:19:47.833289207,1744363187,831992038,piren,247.85073879390077,1044.1262873642454,-41.472985752987526,0.0020464330266952305,-0.009641370499937867,-0.46464211020952156,0.885443711088849
2025/04/11 11:19:48.788564621,1744363188,787162775,piren,247.60207666713265,1044.0856968617913,-41.48090362480633,0.0019082387080407812,-0.009774742936106877,-0.4736680020622417,0.8806471693294259
2025/04/11 11:19:49.844527182,1744363189,834878357,piren,247.21729904483067,1044.0442333928647,-41.49735746282974,0.0024706978350345432,-0.00905420948791825,-0.4832801923070825,0.8754154286202558
2025/04/11 11:19:50.942909498,1744363190,933640176,piren,246.82508266907078,1044.0583601044905,-41.50884822601009,0.002360749739871268,-0.009217800600659893,-0.4976564355131028,0.8673220458429183
2025/04/11 11:19:51.937752886,1744363191,936531820,piren,246.598929818655,1044.1000351158496,-41.50125214715194,0.0013556102135896886,-0.00935934652114416,-0.5144222170332421,0.8574848964129047
2025/04/11 11:19:52.955172473,1744363192,954550913,piren,246.500349984588,1044.0633754208409,-41.48817558415502,0.0015062150370831501,-0.009945370102466987,-0.5386094793580747,0.8424954894095344
2025/04/11 11:19:54.79239358,1744363194,75293201,piren,246.49379992609178,1043.8329779979135,-41.476445477844514,0.00077994921910757,-0.009580803959874684,-0.5672139914981356,0.8235143518624621
2025/04/11 11:19:55.207259850,1744363195,198025844,piren,246.5080803765644,1043.4818518996276,-41.48121487838372,0.00030221868437439823,-0.010054070627707056,-0.5841714981568884,0.8115679177178066
2025/04/11 11:19:56.390754436,1744363196,386931428,piren,246.48174538909376,1043.1333217507906,-41.48607429664428,-9.4298432161871e-05,-0.009624922632403924,-0.6060107780623001,0.7953981951478465
2025/04/11 11:19:57.442435684,1744363197,439331335,piren,246.41365444674835,1042.9580717790961,-41.47945365966419,0.00010178542995133676,-0.00960472181571096,-0.6140756898159052,0.7891886885502662
2025/04/11 11:19:58.507885737,1744363198,505776721,piren,246.34890780205276,1042.8630436504784,-41.47357219618073,-0.0007219970352356558,-0.009551265081171057,-0.6267695344491052,0.7791458160973993
2025/04/11 11:19:59.473662297,1744363199,472429439,piren,246.32634158242925,1042.7584510130664,-41.47322474621099,7.247218498398438e-05,-0.009962175207071176,-0.6337936422994922,0.7734380187149256
2025/04/11 11:20:00.396696825,1744363200,394218617,piren,246.33277830332958,1042.6357927291085,-41.479405854499596,-0.001013246564443236,-0.010282651407986763,-0.6279347422217936,0.7781974042119848
2025/04/11 11:20:01.331619187,1744363201,330185304,piren,246.34750892157996,1042.5024973215213,-41.4933764758337,-0.0003808485902348129,-0.009585639284640464,-0.6093376231879373,0.7928528434971596
2025/04/11 11:20:02.260339008,1744363202,258145490,piren,246.35039263718963,1042.3978293577659,-41.50120563750046,0.0001528776806932093,-0.010496204629440755,-0.5758500944292523,0.817487905147601
2025/04/11 11:20:03.190234907,1744363203,188332591,piren,246.3331338530163,1042.3160806778542,-41.49639992330134,0.0004355135777420793,-0.010379062226011848,-0.524836117880051,0.8511399031674108
2025/04/11 11:20:04.205574363,1744363204,200609156,piren,246.30476877190648,1042.2501463311164,-41.48815891023978,0.0014713973130194972,-0.009024665107312951,-0.45633733477532556,0.889759870582957
2025/04/11 11:20:05.299622253,1744363205,295467544,piren,246.28730460999614,1042.183235862463,-41.49392268379625,0.0032819621058149903,-0.01013057392062976,-0.36324903883425397,0.9316312231686771
2025/04/11 11:20:06.481489631,1744363206,478496687,piren,246.31343834352194,1042.1017238298557,-41.51076767954678,0.0043270187595825516,-0.009853951105318125,-0.27408015005149655,0.9616466335946992
2025/04/11 11:20:07.468284634,1744363207,466087541,piren,246.40767134070987,1041.9975499486332,-41.51469359943975,0.00408728314605302,-0.008974328736614958,-0.2574775208542769,0.9662339684543008
2025/04/11 11:20:08.365864933,1744363208,363232709,piren,246.544450232518,1041.8874463090474,-41.5036023461369,0.00428662462886318,-0.009655869019662812,-0.24307918983413537,0.9699489143827869
2025/04/11 11:20:09.357743734,1744363209,355059501,piren,246.69693942007385,1041.7780549031438,-41.484477600495026,0.004052326012808678,-0.009187953181699068,-0.22043852578426873,0.9753491767158443
2025/04/11 11:20:10.359971172,1744363210,356153565,piren,246.89556806268772,1041.652012734618,-41.473076835732314,0.005373194570091654,-0.01029468873445237,-0.20950785642362496,0.9777380049178566
2025/04/11 11:20:11.434119010,1744363211,431374974,piren,247.1929884966157,1041.476543377249,-41.481046491277034,0.005711688268273,-0.010185633063599394,-0.20442752616508925,0.9788120432658365
2025/04/11 11:20:12.536415314,1744363212,535046485,piren,247.5215605071193,1041.28199727925,-41.50094373431901,0.004491606863697637,-0.01067369235352568,-0.20470724019227624,0.9787547412769892
2025/04/11 11:20:13.554389585,1744363213,550315487,piren,247.79098099957736,1041.1285720794215,-41.51252385674628,0.006152978504846823,-0.008291407838759642,-0.20437199386345395,0.978838843495622
2025/04/11 11:20:14.508687934,1744363214,506429277,piren,248.0295550377965,1041.0023431623829,-41.50751165533473,0.0026410861731077195,-0.0010656873514406312,-0.2025965062868239,0.9792581603513286
2025/04/11 11:20:15.475654688,1744363215,474262652,piren,248.31626516097896,1040.8704320231398,-41.48744786009007,0.00046997106545583044,-0.011702312418748964,-0.19834676067193271,0.9800619355643819
2025/04/11 11:20:16.560620735,1744363216,556174757,piren,248.63325444242093,1040.737697655804,-41.470021106584156,0.013115858105893686,-0.01506149149891182,-0.19468203611099127,0.9806630565875586
2025/04/11 11:20:17.757475182,1744363217,753950824,piren,248.94440308087673,1040.5741931612667,-41.48329289603566,0.005173488458305877,-0.004766076593440385,-0.1911915240448826,0.9815275445266283
2025/04/11 11:20:18.962073526,1744363218,960051722,piren,249.21475421513009,1040.3933900141253,-41.51663615931424,0.0030709831357436726,-0.010645724931738841,-0.17659305913420204,0.9842215853500075
2025/04/11 11:20:20.53414691,1744363220,50287997,piren,249.45838220455786,1040.2795599338326,-41.51209636356089,0.007585774129342669,-0.009760778100745675,-0.14524164757073282,0.9893189814476753
2025/04/11 11:20:21.223672536,1744363221,218798890,piren,249.69965875005465,1040.1896707908495,-41.493617401964194,0.006118030391221246,-0.00847888122801195,-0.11067875353511043,0.9938012335437946
2025/04/11 11:20:22.340666344,1744363222,335683990,piren,249.92934879250018,1040.0755999803748,-41.482840507735666,0.006833687699990329,-0.013198112089707895,-0.10143595995042011,0.9947310473583416
2025/04/11 11:20:23.439912588,1744363223,431754489,piren,250.14744967416632,1039.8748120124503,-41.48414106218795,0.000741145185708642,-0.014006388108710037,-0.10738497746112204,0.9941185736176728
2025/04/11 11:20:24.667233159,1744363224,665835294,piren,250.31025971656112,1039.560012934839,-41.501268089346034,0.009739200549598866,-0.003854192669866843,-0.11605054540459943,0.9931880809206347
2025/04/11 11:20:25.913384869,1744363225,912447710,piren,250.40120927013436,1039.2650032722445,-41.513136730806956,0.004610019991262222,-0.00798042471077523,-0.10336417758610247,0.9946008784075472
2025/04/11 11:20:26.925204254,1744363226,923730912,piren,250.45827840129465,1039.088598096541,-41.516035059674515,0.007000720066622641,-0.0004166479140014301,-0.0821095947299081,0.9965986307317278
2025/04/11 11:20:28.60409266,1744363228,55401284,piren,250.54816763360083,1038.9470038196414,-41.506849299016494,0.006040067046036374,-0.00963048182094889,-0.05990498137372801,0.9981393513015049
2025/04/11 11:20:29.60568567,1744363229,57577811,piren,250.66763167230005,1038.8221280086857,-41.49752586377716,0.00614953501723609,-0.010062641659486995,-0.05028144173006018,0.9986654610426112
2025/04/11 11:20:30.129738643,1744363230,126030689,piren,250.77632112331597,1038.6700340685368,-41.499148267631725,0.0055286926475493926,-0.010050707556513386,-0.03451152935414692,0.9993384667753265
2025/04/11 11:20:31.41447158,1744363231,35459391,piren,250.83463091879813,1038.538823759608,-41.51033166233457,0.006273778731121754,-0.007678903818720979,-0.029457451920791654,0.9995168496143074
2025/04/11 11:20:32.9284205,1744363232,5633274,piren,250.88785254392664,1038.4092276735782,-41.51453173002576,0.007826826498041204,-0.0071973420917663886,-0.018508307753474618,0.9997721648445141
2025/04/11 11:20:33.40454231,1744363233,35929800,piren,250.95437018815485,1038.2751278645342,-41.510985789975486,0.00997333630715788,-0.008838446943839093,-0.006895941086120098,0.9998874238708387
2025/04/11 11:20:33.999727184,1744363233,997830527,piren,251.02472960588875,1038.1601189586916,-41.51059115977118,0.006854388563722479,-0.008793709579618012,-0.0003323070933732028,0.9999377868653843
2025/04/11 11:20:34.925606754,1744363234,922860714,piren,251.09431504986412,1038.057189530813,-41.51278487698786,0.006759988332451971,-0.009989242793723806,0.007418858086672874,0.99989973403879
2025/04/11 11:20:35.830725128,1744363235,826002741,piren,251.1481625386402,1037.9718837649498,-41.510648045869075,-0.0013525640614768923,-0.009486436311839314,0.013629544039931796,0.9998611971798009
2025/04/11 11:20:36.861470629,1744363236,858615799,piren,251.19892075454206,1037.8900996125792,-41.49737500611889,0.00878677187335914,-0.0066616062225829595,0.023538951000502767,0.9996621096292371
2025/04/11 11:20:37.997579174,1744363237,987867943,piren,251.2684392139532,1037.7918100528386,-41.48369560345803,0.011823930788053778,-0.005709936732009774,0.034642705103105007,0.9993135014930876
2025/04/11 11:20:38.938189004,1744363238,934654662,piren,251.35147587525074,1037.670264077202,-41.49637603092888,0.003980468253079174,-0.01159849911863139,0.03774895148806457,0.9992120132145295
2025/04/11 11:20:39.876464995,1744363239,873875622,piren,251.42424957070259,1037.5613395493376,-41.51034691211722,0.008705308253633536,-0.00798244206608883,0.04373633766012673,0.9989732884291502
2025/04/11 11:20:40.942082380,1744363240,939061232,piren,251.47952831786588,1037.4752092855035,-41.51491983275588,0.006658262616460078,-0.008978078081589454,0.05188528092486897,0.9985904962877619
2025/04/11 11:20:41.975723265,1744363241,974323796,piren,251.53175063258095,1037.4029351636748,-41.50875283808433,0.007949371761456214,-0.0077216757928333145,0.05927180725109914,0.9981803624980493
2025/04/11 11:20:42.966887474,1744363242,965631931,piren,251.59233292467874,1037.331850562098,-41.496435644985226,0.008595106437425169,-0.0075906374362007655,0.06671732611832348,0.9977060212127934
2025/04/11 11:20:43.872745996,1744363243,870063457,piren,251.66063730368393,1037.2560527697199,-41.50037029220495,0.010008402038467156,-0.008462071088527624,0.07182205532477899,0.9973313479533538
2025/04/11 11:20:44.749450124,1744363244,746735621,piren,251.72688639762322,1037.1789289400876,-41.511933409236,0.007760145452917394,-0.008258059786720295,0.07634475844451206,0.9970170823256528
2025/04/11 11:20:45.670377146,1744363245,668698208,piren,251.795271767551,1037.0932834087232,-41.51646154355029,0.006895992203776438,-0.007213533049276756,0.08402180415575765,0.9964139434285753
2025/04/11 11:20:46.633744501,1744363246,632575562,piren,251.86007211887775,1037.0180182853128,-41.51363624974303,0.0069690960450664325,-0.0069335673769223335,0.09093620131599435,0.9958081967095678
2025/04/11 11:20:47.659084026,1744363247,656117609,piren,251.92627229811848,1036.9547905571792,-41.5065792957858,0.006278634038212335,-0.009455033690120906,0.09791521157581691,0.9951300379521241
2025/04/11 11:20:48.626275253,1744363248,623506270,piren,251.99142649206897,1036.8987210080004,-41.500348982468594,0.006606689139021131,-0.004678816340937532,0.10481532977823686,0.9944587507683502
2025/04/11 11:20:49.550147014,1744363249,547583719,piren,252.05921088835936,1036.8385301992496,-41.4980072204498,0.006951661734661307,-0.008093403340080163,0.1094448039203866,0.9939356146734706
2025/04/11 11:20:50.518382447,1744363250,515694703,piren,252.1412777809515,1036.7553636352022,-41.494646321913784,0.01228335905608843,-0.015860311822729685,0.11649579317250441,0.9929885698094888
2025/04/11 11:20:51.531018278,1744363251,528028232,piren,252.20330371585894,1036.656618210361,-41.49503105776065,0.008759845201311208,-0.008014881204727962,0.12162236237548293,0.9925054295879343
2025/04/11 11:20:52.500992357,1744363252,499068443,piren,252.2606764935707,1036.5656000223967,-41.50328231098217,0.009466543823229097,-0.008796691502644373,0.12702171997353473,0.9918157517511078
2025/04/11 11:20:53.436076050,1744363253,433260320,piren,252.34552966770931,1036.5012976520525,-41.508737883892245,0.0073393048898715875,0.00121763353348788,0.13279710750925686,0.991115321347363
2025/04/11 11:20:54.410316809,1744363254,406627426,piren,252.45283687270174,1036.4532196022692,-41.50728126723582,0.005912424678390952,-0.002943801483821868,0.13683286793657165,0.9905721293876075
2025/04/11 11:20:55.474126184,1744363255,471244206,piren,252.578502236059,1036.3983013925663,-41.500948467094005,0.005647399139188922,-0.006676451452369776,0.14474823711118445,0.9894298761065239
2025/04/11 11:20:56.564604120,1744363256,559280019,piren,252.65905030742763,1036.3273655986877,-41.495224151973154,0.008926205980399494,-0.006554658517205942,0.1498913546614962,0.9886404508699105
2025/04/11 11:20:57.687551105,1744363257,686556414,piren,252.7207949214856,1036.2263836288942,-41.49768164490868,0.008561643732465738,-0.006689811309696539,0.15692455540883798,0.9875508232951749
2025/04/11 11:20:58.798131412,1744363258,796743979,piren,252.79403136588252,1036.1240835936328,-41.506552522540616,0.010157333469165968,-0.008467796208414813,0.1615967114868463,0.986768274642434
2025/04/11 11:20:59.911789331,1744363259,906205185,piren,252.89466495689013,1036.036442800057,-41.51267300308088,0.012277475630381627,-0.009871451526776065,0.16651503086873837,0.9859130603312257
2025/04/11 11:21:00.891110184,1744363260,888005117,piren,252.99548121645813,1035.9644464368055,-41.51079404362939,0.009088124208831962,-0.007561508178168488,0.1702699750988402,0.9853265271838959
2025/04/11 11:21:02.8434963,1744363262,2864508,piren,253.10405516159832,1035.892391615917,-41.50564689505001,0.007101688300191991,-0.0026136306449868448,0.1760789436631873,0.9843469614706974
2025/04/11 11:21:03.208466767,1744363263,204182349,piren,253.22379390489655,1035.828166475004,-41.50632690340727,0.006031061802020532,-0.0054425532081633175,0.18279268552280706,0.9831179171531138
2025/04/11 11:21:04.215938807,1744363264,213253357,piren,253.3259762403497,1035.7741580829252,-41.507405082852955,0.008856406670602958,-0.00480340613410218,0.18554925932283922,0.9825833113355538
2025/04/11 11:21:05.235135498,1744363265,233140695,piren,253.4120920090543,1035.7076635421186,-41.50753242879338,0.014079532438199637,-0.009881829587343046,0.1891759917202739,0.9817925240940569
2025/04/11 11:21:06.380046872,1744363266,377258804,piren,253.49838079684665,1035.6031808509733,-41.51203213689564,0.008089485252276894,-0.00780714744081884,0.19584821317369533,0.980569776239234
2025/04/11 11:21:07.401543147,1744363267,398258045,piren,253.5661446636843,1035.5196705244664,-41.517507279724526,0.0077940968905929695,-0.0063890731130752335,0.19851506663090632,0.9800460193883462
