time,header_stamp_secs,header_stamp_nsecs,header_frame_id,twist_linear_x,twist_linear_y,twist_linear_z,twist_angular_x,twist_angular_y,twist_angular_z
2025/04/11 11:15:48.308434627,1744362947,651013136,piren,0.01873307091392162,0.07209029892591622,0.002016931100479366,0.012910923920571804,0.011025318875908852,-0.010285945795361934
2025/04/11 11:15:50.205543323,1744362950,183737058,piren,0.014476575432776233,0.07940249919899284,0.0029170951879979707,0.004936140030622482,0.01660432666540146,-0.008949513495708697
2025/04/11 11:15:52.186237718,1744362952,141148672,piren,0.004710627163675346,0.0752715619957622,-0.0011889756382798284,0.019935909658670425,0.0012850241037085652,-0.00966420234924645
2025/04/11 11:15:58.18136992,1744362957,964566039,piren,-0.03377322680808732,0.07499923612841415,0.002270613966962595,0.003717737039551139,-0.0033778322394937277,-0.0020960840990356683
2025/04/11 11:15:59.545487356,1744362959,494276089,piren,-0.11588638417926365,0.07031414716444497,0.005621238129243897,0.0024583274498581886,-0.002212515799328685,0.01776450292070262
2025/04/11 11:16:01.168346997,1744362961,75170336,piren,-0.18690700142197594,0.10113009374166892,0.004637871531871562,0.019227923825383186,0.0053168730810284615,0.051784581559978234
2025/04/11 11:16:02.233603331,1744362962,210320093,piren,-0.16722821058406048,0.11443886182734411,0.0008761998234045915,0.011122569441795349,0.01364937424659729,0.0792610303226101
2025/04/11 11:16:03.604719446,1744362963,591803691,piren,-0.16717892154979933,0.13373147600734245,0.008345490886791734,0.014446953311562538,0.009018599055707455,0.0949099687896827
2025/04/11 11:16:04.619878988,1744362964,593232088,piren,-0.08891630510157236,0.1331705128903606,0.0035595412699157667,-0.0031793760135769844,0.006415402516722679,0.08273964791366072
2025/04/11 11:16:05.632767927,1744362965,584132990,piren,-0.07390622975714183,0.12882959866770563,0.006080996976725127,0.015158931724727154,-0.009225829504430294,0.07649577639487769
2025/04/11 11:16:06.692166675,1744362966,683057861,piren,-0.17505456023089155,0.1559776923696792,-0.0039313913620943495,0.021068207919597626,0.0019194954074919224,0.06916043027376108
2025/04/11 11:16:07.805562979,1744362967,798640939,piren,-0.15572075324471127,0.16708116253670074,-0.009180702002755595,0.0038801846094429493,0.00920893531292677,0.059970877928802055
2025/04/11 11:16:08.969482358,1744362968,952131076,piren,-0.09431585655047467,0.15249763541731176,-0.010898927943101199,0.011619683355093002,0.00032954171183519065,0.044299592503773806
2025/04/11 11:16:10.72200165,1744362970,54015527,piren,-0.05859260188122157,0.13838031848698837,0.004012740404759714,0.009460044093430042,-0.004265177063643932,0.03470266897891157
2025/04/11 11:16:11.116565719,1744362971,85574407,piren,-0.0690179480735465,0.12912604892241725,0.005599117002025814,0.013908043503761292,-0.0002693778951652348,0.030344046785187928
2025/04/11 11:16:12.130848003,1744362972,99440157,piren,-0.08725026185046775,0.12242252660026885,0.012152423240080389,0.01861608400940895,0.003109247423708439,0.028880515493708334
2025/04/11 11:16:13.39113097,1744362973,25905619,piren,-0.08534002883876635,0.10316064890897417,0.016092897689923242,0.00592546071857214,0.0023741365876048803,0.02289162416972917
2025/04/11 11:16:13.938782360,1744362973,928031848,piren,-0.04606931503903393,-0.003932875290456369,0.004335858196859779,0.014285283163189888,0.009007486514747143,0.01387446081937421
2025/04/11 11:16:14.895572512,1744362974,885296340,piren,-0.00780632577031745,-0.14185851933507632,0.002297780912192671,0.007580277509987354,-0.004124211147427559,-0.0053169194920215665
2025/04/11 11:16:16.162968856,1744362976,99859565,piren,0.02975264523300716,-0.2962649631876252,-0.017489680196749985,0.02260981872677803,0.00804378092288971,-0.03083118524409443
2025/04/11 11:16:17.326083059,1744362977,247032055,piren,0.005860702849723297,-0.314077226393866,-0.01179485808102874,0.002329754875972867,0.0007331850938498974,-0.044204169619279726
2025/04/11 11:16:18.439800316,1744362978,407494046,piren,-0.10142015358802837,-0.22297575590121316,0.0035201919184076986,0.00803391169756651,0.0010460354387760162,-0.02246702058932933
2025/04/11 11:16:19.407968968,1744362979,399556210,piren,-0.14166312384010288,-0.12569180896019716,0.014401176670302433,0.00036360384547151625,0.0007901226636022329,0.01089130541445048
2025/04/11 11:16:20.511835769,1744362980,483648951,piren,-0.027798102232867966,-0.11238310864038599,0.003516723904866688,0.012280923314392567,0.004148795735090971,0.023696507071050664
2025/04/11 11:16:21.608186334,1744362981,595639836,piren,0.050046448484015724,-0.1583065488321254,-0.008497230086237186,0.0046928576193749905,0.0015486294869333506,0.02414221628799183
2025/04/11 11:16:22.702077658,1744362982,692507558,piren,-0.06775156855040958,-0.1626289604233746,-0.009230815138288724,0.012014896608889103,0.008332653902471066,0.022938527949953706
2025/04/11 11:16:23.837866588,1744362983,811528284,piren,-0.19991301896627756,-0.11224986696617317,0.00358292838046862,0.016568250954151154,0.0012971434043720365,0.01881725972363621
2025/04/11 11:16:25.67041645,1744362985,50614978,piren,-0.2107166185223061,-0.07007988745949001,0.006714427417135543,0.008475874550640583,0.0012036236003041267,0.019774307789383515
2025/04/11 11:16:26.193907273,1744362986,177038700,piren,-0.11754668750173718,-0.08376422208305104,0.011235732123542463,0.002374779200181365,0.011147154495120049,0.025476807666959127
2025/04/11 11:16:27.250272268,1744362987,238015286,piren,-0.009630692511003376,-0.149500136326132,0.005459944694223198,0.004063405562192202,0.0020838449709117413,0.03438229126340538
2025/04/11 11:16:28.252905670,1744362988,242872165,piren,0.041480675607763126,-0.19606017493888,-0.004948935261825409,0.013221800327301025,0.016031725332140923,0.040607519416661186
2025/04/11 11:16:29.314205173,1744362989,301523137,piren,0.006034252544104189,-0.19024847004658432,-0.003150757500545452,0.009182865731418133,-0.0026948421727865934,0.03673114094575122
2025/04/11 11:16:30.254773713,1744362990,246500587,piren,-0.024992811496581873,-0.14695672746586877,-0.003396650952903097,0.003549422137439251,0.018404582515358925,0.031041719080360408
2025/04/11 11:16:31.228964436,1744362991,206169390,piren,-0.04818273502744124,-0.11513355197777095,-0.003714604716555036,0.0005553237861022353,0.0032213537488132715,0.014476192780499572
2025/04/11 11:16:32.407015345,1744362992,393967445,piren,-0.022600683893991256,-0.0945348171361704,0.006320942722170594,0.01409485749900341,0.0006211154977791011,-0.013471568276171107
2025/04/11 11:16:33.473225194,1744362993,451490455,piren,-0.036519326707820716,-0.10826132903453566,0.01344200909471942,0.0054033477790653706,0.0076261255890131,-0.02091553276345304
2025/04/11 11:16:34.569379738,1744362994,520336967,piren,-0.019379947070705967,-0.15658736515732607,0.003516022730938122,0.014696638099849224,0.0075172968208789825,-0.022232224279751578
2025/04/11 11:16:35.427541466,1744362995,421337567,piren,0.05038175780284308,-0.21212087459444945,-0.010162110134228176,-0.005696409847587347,0.0017646369524300098,-0.02747595945978226
2025/04/11 11:16:36.432782766,1744362996,425612107,piren,0.1363369834308357,-0.22922530488569465,-0.020046247513589303,0.013014305382966995,-0.0015392611967399716,-0.03485461940985719
2025/04/11 11:16:37.454014191,1744362997,444402710,piren,0.14616028544000548,-0.18287267882897815,-0.006657891401714213,0.015867924317717552,0.0002678245073184371,-0.03709410166099763
2025/04/11 11:16:38.476057121,1744362998,465536612,piren,0.10841112985023575,-0.07493678993195864,-0.007029635041997001,0.020400304347276688,-0.0013709533959627151,-0.048472364003571904
2025/04/11 11:16:39.694095616,1744362999,668770575,piren,0.043021866256376294,0.1170795197731808,0.026290959030683618,-0.0066702282056212425,0.00471611600369215,-0.06214018567863675
2025/04/11 11:16:40.874327919,1744363000,858126203,piren,-0.03392105778131879,0.16993775855882348,0.016144620622916432,0.026001371443271637,0.008200076408684254,-0.0357055926112654
2025/04/11 11:16:41.870505585,1744363001,861950727,piren,0.015327792925724172,0.11709767472137536,-0.0075804868321779064,0.006978087592869997,0.004901418928056955,-0.006342075594938227
2025/04/11 11:16:42.814913756,1744363002,804769791,piren,0.15176301219020916,0.02022734782220957,-0.021769771461785558,0.006461803335696459,-0.0016533618327230215,-0.001437605272224928
2025/04/11 11:16:43.695133238,1744363003,684353456,piren,0.22102329171496807,-0.03285956582180726,-0.01715968987406684,0.0113022830337286,-0.005891281180083752,0.0104303892377472
2025/04/11 11:16:44.629805125,1744363004,620686152,piren,0.16479120960406518,-0.053003663328005185,-0.013314987720762339,0.01001280453056097,0.008036542683839798,0.027273748109440596
2025/04/11 11:16:45.642095978,1744363005,613892951,piren,0.07479596153900565,-0.0023068214531810597,0.0049173166416597545,0.016823621466755867,0.0030370899476110935,0.04003055051453581
2025/04/11 11:16:46.621554628,1744363006,610466565,piren,0.015134029111561554,0.016078705537742065,0.0006688456688374421,0.012719592079520226,0.0022616765927523375,0.05783973500701324
2025/04/11 11:16:47.684731688,1744363007,667265764,piren,0.02149507557342615,0.010184541750435261,0.007588272803713418,0.01996470056474209,0.016222452744841576,0.06599336380460931
2025/04/11 11:16:48.732926350,1744363008,697633673,piren,0.08598935026246192,-0.05273075437616702,-0.00429806421980798,0.0031943677458912134,0.0075155156664550304,0.06063603536406465
2025/04/11 11:16:49.737950292,1744363009,701256748,piren,0.13048576277863255,-0.0715011230631347,-0.006093973091542134,0.024057846516370773,0.009032674133777618,0.032689549933826105
2025/04/11 11:16:50.765636429,1744363010,739773699,piren,0.0962683355546031,-0.0518959659032946,-0.006771671336222084,-0.006909620016813278,0.0026854376774281263,-0.0065579937567505735
2025/04/11 11:16:51.790073613,1744363011,767684128,piren,-0.009804338081780531,-0.02118259911005518,0.008297626967953473,0.013568381778895855,0.00044710945803672075,-0.01980299030295723
2025/04/11 11:16:52.656679972,1744363012,646412634,piren,-0.14644514500132613,-0.025713096355718074,0.010649389916080035,0.010435855016112328,-0.0028214275371283293,-0.022162379107311978
2025/04/11 11:16:53.714706483,1744363013,658544341,piren,-0.26787521760101696,-0.030240551767375962,0.0031736941388595596,0.01145515963435173,0.0023364273365586996,-0.01778215583091937
2025/04/11 11:16:54.795383998,1744363014,790100735,piren,-0.38838286824814255,-0.029124932281579533,3.0373398090906816e-05,0.00339979724958539,0.005778961349278688,-0.004285216522060227
2025/04/11 11:16:55.807818401,1744363015,790987206,piren,-0.41859365165687423,-0.0016242361479900601,0.0018337252039345455,0.005470616742968559,0.007577235344797373,0.00824310639226209
2025/04/11 11:16:56.876382122,1744363016,832817274,piren,-0.3262405687961531,0.0014364661112088515,0.005451744750370516,0.007092286366969347,0.012277545407414436,0.013543755345425883
2025/04/11 11:16:57.906085505,1744363017,847248053,piren,-0.2238479892737756,-0.0014364668220346077,0.008572371010742728,0.016365068033337593,0.009519524872303009,0.013887558108239235
2025/04/11 11:16:58.892029937,1744363018,864350470,piren,-0.14104410044600318,0.0003058058068791244,0.0005338750854947275,0.012581046670675278,0.00164850486908108,0.004479565786522052
2025/04/11 11:16:59.977155542,1744363019,964995113,piren,-0.0237229072351556,0.05670673308611901,-0.003917780347343573,0.012368636205792427,0.00023481812968384475,-0.018870556281556802
2025/04/11 11:17:01.119898043,1744363021,104292110,piren,-0.02432592306706213,0.07670281144446786,-0.0022757495416370365,0.01566852256655693,0.009852154180407524,-0.025813532673914213
2025/04/11 11:17:02.163772063,1744363022,135546018,piren,-0.0890471803833233,0.057886323091156204,0.0028542325911240615,0.015877803787589073,0.0052013276144862175,-0.026066353705280418
2025/04/11 11:17:03.277246679,1744363023,267606286,piren,-0.09170151075474688,0.0009184313933552268,0.009525200277031414,0.004508825950324535,-0.0007066493853926659,-0.024072201115473556
2025/04/11 11:17:04.315754977,1744363024,310438568,piren,0.0322154440503754,-0.13147590601221423,0.016166050133878753,0.006968293339014053,0.01243801973760128,-0.01874103105307327
2025/04/11 11:17:05.435423502,1744363025,418855584,piren,0.16074262840517448,-0.3316516171123957,-0.013940246982458023,0.0068471599370241165,0.0030735067557543516,-0.003889268246276573
2025/04/11 11:17:06.451123052,1744363026,444869765,piren,0.17509410214142554,-0.3665256742290854,-0.020038834827741412,0.0180463008582592,-0.0026738394517451525,0.011210270750074396
2025/04/11 11:17:07.432505228,1744363027,425603537,piren,0.14758736512691886,-0.28138334846661534,-0.019272258665719834,0.023676615208387375,0.007059216964989901,0.01194169311434724
2025/04/11 11:17:08.498359277,1744363028,440130552,piren,0.10942887703360821,-0.08477746172729232,-0.0003712408580453591,0.01635986566543579,0.0046784221194684505,-0.010358666212169996
2025/04/11 11:17:09.532453867,1744363029,519652248,piren,0.010491457711354865,0.13600072236641358,0.030870813670064518,0.011458336375653744,0.00952083244919777,-0.054952326158091855
2025/04/11 11:17:10.515694951,1744363030,494474258,piren,-0.1316030493345791,0.1795190022599886,0.022415156323410835,0.01594545505940914,0.004496866371482611,-0.06870378297299605
2025/04/11 11:17:11.465956873,1744363031,434276521,piren,-0.18803640843282146,0.11341418774343981,-0.0072281970876886545,-0.003187223570421338,0.0024651656858623028,-0.05300273503452584
2025/04/11 11:17:12.419627434,1744363032,405940575,piren,-0.11884941125550834,0.07251307912069715,-0.012619753098380202,0.018545011058449745,-0.004630443640053272,-0.02356012357805064
2025/04/11 11:17:13.525149195,1744363033,504608074,piren,0.03315155278873961,0.02929842385191168,-0.01734607141294691,0.01747831515967846,4.309150608605705e-05,-0.005626181935173005
2025/04/11 11:17:14.680805352,1744363034,662831128,piren,0.11753089709969836,0.04093891408998978,0.00033648686159289847,0.004832042381167412,0.011192764155566692,0.006293445801243951
2025/04/11 11:17:15.796243239,1744363035,785945204,piren,0.045991377822561914,0.06988152188981415,0.010367402452697487,0.020594162866473198,0.0029437514021992683,0.025630730996729557
2025/04/11 11:17:16.737610459,1744363036,725638620,piren,-0.022223389931821238,0.09127559125362375,0.007692927279969772,-0.008573719300329685,-0.00439617782831192,0.04320975592433293
2025/04/11 11:17:17.717155991,1744363037,700911956,piren,-0.02225059786217053,0.09481472535267821,-0.00443260499940674,0.020765889436006546,-0.003998786211013794,0.04522017517155219
2025/04/11 11:17:18.776558304,1744363038,767316104,piren,0.009389823840618898,0.056835730554438274,-0.013213020659806275,0.004613807424902916,0.014130103401839733,0.043454232802788935
2025/04/11 11:17:19.852735471,1744363039,844852269,piren,0.060638989286628864,0.03509986646906708,0.0009264686979403,0.01268667634576559,0.0007990790763869882,0.04189959950272906
2025/04/11 11:17:20.865470056,1744363040,860300569,piren,0.015866469673707428,-0.018309981062973782,0.012726916917260005,0.006933823227882385,0.008483598940074444,0.038924166243316766
2025/04/11 11:17:21.931910764,1744363041,925225936,piren,-0.04272375723272527,-0.14757363771752544,0.006397063260841501,0.028065387159585953,-0.0033949168864637613,0.028922478743358702
2025/04/11 11:17:22.969282564,1744363042,957704853,piren,-0.015265637819298074,-0.25618255793094696,-0.013341957684275733,0.00887899287045002,-0.0003304621495772153,0.01320437305953436
2025/04/11 11:17:23.962256845,1744363043,952359598,piren,0.014571293303400347,-0.20441425077505174,-0.00919382884113148,0.0060316408053040504,0.008200631476938725,0.0015383709829095685
2025/04/11 11:17:24.934071624,1744363044,922867758,piren,0.018501939050426797,-0.11791392885826697,0.011631591543117548,0.0041728755459189415,-0.0011000976664945483,-0.0017467472881014196
2025/04/11 11:17:26.74296224,1744363046,67535104,piren,0.0016492831759043884,-0.06572086184766146,0.008967433982664922,0.010062516666948795,0.005712755490094423,-0.0031462013469691595
2025/04/11 11:17:27.180666505,1744363047,167872201,piren,-0.00209516619653369,-0.08640528430302259,0.004007379990373004,0.016010485589504242,0.00322729186154902,-0.0010010427706745437
2025/04/11 11:17:28.237523281,1744363048,226070003,piren,0.007077211945012896,-0.1271263421499814,-0.005671408376600282,0.008546928875148296,0.004628628492355347,-0.00034964566899953106
2025/04/11 11:17:29.271289600,1744363049,265919786,piren,0.01381012521405279,-0.13674477960371043,-0.004304247215225639,-0.008446688763797283,0.002736185910180211,0.001065286359457057
2025/04/11 11:17:30.415794328,1744363050,353582807,piren,0.0017440608968006428,-0.11393891571447742,0.013659470994627559,0.003073818748816848,-0.00383541127666831,0.0008161803472422844
2025/04/11 11:17:31.489209054,1744363051,472222213,piren,0.020826615896795332,-0.08806677623556344,0.014684477883104225,0.01743883080780506,0.0008900861139409244,-0.0001519858276148021
2025/04/11 11:17:32.431676852,1744363052,392529747,piren,0.022553518388392077,-0.09881336080562321,-0.003986213544613891,0.017511537298560143,0.0019763787277042866,-0.0003304169280679411
2025/04/11 11:17:33.493133261,1744363053,475820936,piren,0.035171588397351065,-0.09190589922390241,-0.013793237413760909,0.014081757515668869,0.009330911561846733,0.0003654127870442211
2025/04/11 11:17:34.488650417,1744363054,477742405,piren,0.027781843879733936,-0.10735161540159951,-0.012592958588213257,0.0016797464340925217,0.0029938151128590107,-0.0002445774181918928
2025/04/11 11:17:35.381211492,1744363055,370946805,piren,0.021290975101810987,-0.11196037384904013,-0.004470855439730053,0.02836243435740471,-0.010510801337659359,0.00027234979340185823
2025/04/11 11:17:36.366313635,1744363056,354327929,piren,0.045056407176816395,-0.11727453699282363,0.002947019869651231,0.029541276395320892,0.010763091035187244,-0.0005155027834938204
2025/04/11 11:17:37.355082003,1744363057,347951425,piren,0.03245849620882718,-0.10691090593095579,0.00185785349236207,-0.0014768179971724749,0.0014488321030512452,0.0004720303976022778
2025/04/11 11:17:38.308715533,1744363058,289244729,piren,0.025025294801537774,-0.09456715980821817,-0.010647197175536412,0.033607643097639084,-0.00014677266881335527,0.00025759966299253713
2025/04/11 11:17:39.252841555,1744363059,242624881,piren,0.02175634789407277,-0.08683556293387971,-0.008553242647828158,-0.0059075728058815,0.00034671524190343916,-0.00016562717621840419
2025/04/11 11:17:40.312738840,1744363060,301739496,piren,0.023231975048106705,-0.08348619499204823,-0.005226968247747359,0.025508340448141098,0.008991358801722527,-9.993776741238424e-05
2025/04/11 11:17:41.528843968,1744363061,502323086,piren,-0.006188724230087185,-0.04567504299043877,0.006101328751893307,-0.010349295102059841,-0.005784602370113134,0.012239301714158709
2025/04/11 11:17:42.578545020,1744363062,564326028,piren,-0.0016991606658984131,0.026205842320174005,0.020544774840289555,0.007656610105186701,-0.00177804846316576,0.031665975605474184
2025/04/11 11:17:43.585342990,1744363063,575332477,piren,0.1303151293056027,0.04011366706319045,0.007987091317566987,0.021193426102399826,-0.0033575769048184156,-0.017382248949230336
2025/04/11 11:17:44.550995399,1744363064,543861511,piren,0.09258024377949385,0.0038100511663733973,-0.0110319794695197,0.011284257285296917,0.0033017336390912533,-0.0027224273023311292
2025/04/11 11:17:45.436378343,1744363065,424687749,piren,0.018059056127707515,-0.02200766154371193,-0.018797076914066062,0.0071909502148628235,0.002120662247762084,0.007169160518837746
2025/04/11 11:17:46.483060333,1744363066,467969643,piren,0.010280896182393005,-0.02387851490008041,0.000152231748987121,0.014827183447778225,0.006863071117550135,-0.009078217590372731
2025/04/11 11:17:47.557760744,1744363067,547535120,piren,0.023191618288020487,-0.010195121647134946,0.008488747276848093,0.012831378728151321,-0.007047310005873442,0.006695221067726815
2025/04/11 11:17:48.615893266,1744363068,600638396,piren,0.04767834386152273,0.008689123515026617,0.001624645950765589,0.018863100558519363,0.0013620901154354215,-0.005062471106038181
2025/04/11 11:17:49.643622427,1744363069,635239453,piren,0.026707214390980887,0.006816167991256113,-0.013972161459827765,0.016994262114167213,0.006680503487586975,0.0024475647740934913
2025/04/11 11:17:50.634800679,1744363070,619796562,piren,-0.0006895976443900915,0.008036595206595908,-0.0168732490101042,0.004754859954118729,0.0010648228926584125,-0.0012415212946804645
2025/04/11 11:17:51.599472133,1744363071,589279102,piren,-0.029101356917366115,0.057240093908910224,-0.02319488772293372,0.011876773089170456,0.014945377595722675,-0.025585304181210484
2025/04/11 11:17:52.689169912,1744363072,679279175,piren,-0.1367437107094446,0.24239584393238947,-0.006501986411133662,0.022192956879734993,0.004164929036051035,-0.06585121429150088
2025/04/11 11:17:53.779927430,1744363073,768450818,piren,-0.36942092314599045,0.3817228261272179,0.022642335362078568,0.011850912123918533,0.012978547252714634,-0.10056725556582567
2025/04/11 11:17:54.888948559,1744363074,876521028,piren,-0.5316812277771931,0.4214800944310834,0.042693477817068635,0.015838056802749634,0.005171759054064751,-0.09412056077033823
2025/04/11 11:17:55.988471455,1744363075,979480888,piren,-0.4402885310069158,0.37622768525260986,0.005684247719214502,0.010472089983522892,0.008407656103372574,-0.06813732650301892
2025/04/11 11:17:57.72916542,1744363077,34178324,piren,-0.1981886071430351,0.29357748277345,-0.023227070392105222,0.007966971024870872,0.005783791188150644,-0.04623680065028764
2025/04/11 11:17:58.119040709,1744363078,102736363,piren,-0.03479957499845327,0.13208457343449267,-0.01613923494040842,0.010431446135044098,0.006367705762386322,-0.036083525370379795
2025/04/11 11:17:59.179740769,1744363079,171864345,piren,-0.041481828694291366,-0.08269431074791311,-0.010765789450594646,0.013718966394662857,-0.0030625860672444105,-0.03575091740620405
2025/04/11 11:18:00.149426055,1744363080,140197337,piren,-0.14192963492394267,-0.1986463265750245,0.00835636259722077,0.01100768893957138,0.006206823978573084,-0.039928947697309265
2025/04/11 11:18:01.50648946,1744363081,44127550,piren,-0.24519194821432191,-0.19776769944815198,0.012603810737334213,0.0010112767340615392,0.0022644121199846268,-0.031897094490994364
2025/04/11 11:18:02.35671768,1744363081,987025576,piren,-0.274124446433023,-0.13491780246039237,0.0181637882788369,0.0010220254771411419,-0.0026185305323451757,-0.019130123180621673
2025/04/11 11:18:02.913342282,1744363082,904107512,piren,-0.2177915347005344,-0.09192818641129429,0.006333192503469166,0.008709062822163105,-0.0006439538556151092,0.0022350279500766216
2025/04/11 11:18:03.982649644,1744363083,945597012,piren,-0.11239953820388777,-0.12175601962605506,-0.0023282389278796987,0.013149410486221313,0.028432270511984825,0.032747964875553
2025/04/11 11:18:04.984005336,1744363084,974188353,piren,-0.10192689181298889,-0.16660497218497544,-0.0022589133167026584,0.008272743783891201,0.002979513257741928,0.058520364818335224
2025/04/11 11:18:05.943206155,1744363085,921603423,piren,-0.11578780082573095,-0.18027277091184618,0.005228645886808955,0.0069150496274232864,0.009453502483665943,0.07459999017341323
2025/04/11 11:18:06.946095074,1744363086,935491368,piren,-0.15872360410028596,-0.10713079970027048,0.01045152509470886,0.011018612422049046,-0.0022888043895363808,0.0776252439194776
2025/04/11 11:18:07.996620790,1744363087,988875632,piren,-0.16650695112537772,-0.038928954208356306,-0.015043069326435543,0.008817263878881931,0.01083744689822197,0.06867373062722855
2025/04/11 11:18:09.139612666,1744363089,124777073,piren,-0.16048393736070155,0.019974434488381373,-0.027165215746246297,0.01202039048075676,0.0026097276713699102,0.05618554427198321
2025/04/11 11:18:10.151519447,1744363090,136582982,piren,-0.15362106259548017,0.13854434660408232,0.0066970381499948705,0.00411382969468832,0.004588448908179998,0.027329570726645012
2025/04/11 11:18:11.191951958,1744363091,176298720,piren,-0.19614196061932085,0.21519153472292188,0.03127955030285144,0.008224776946008205,0.00028067268431186676,-0.002562033848504643
2025/04/11 11:18:12.410549587,1744363092,399241019,piren,-0.2509749024524516,0.18063462424680385,0.017976616560720055,0.012887603603303432,0.0035079000517725945,-0.00801321444788656
2025/04/11 11:18:13.493908994,1744363093,452180588,piren,-0.24860780221299164,0.11125949062584489,-0.012424057532314594,0.013800738379359245,0.008596102707087994,0.0018973355437659823
2025/04/11 11:18:14.509927732,1744363094,504797048,piren,-0.15697882951414294,0.05731177415324923,-0.01952881004638938,0.008760055527091026,9.382855205330998e-05,0.0027811133116654578
2025/04/11 11:18:15.416782136,1744363095,406641661,piren,-0.07038335251172236,0.05958263282916634,-0.008825610973766542,0.00920941773802042,0.015902068465948105,0.004376189674371485
2025/04/11 11:18:16.403431425,1744363096,393707888,piren,-0.06955789096017567,0.09084863276601512,0.0007896573932446026,0.013170749880373478,0.0045560197904706,0.004214011827749212
2025/04/11 11:18:17.494159167,1744363097,487356222,piren,-0.11500763702047319,0.12288680086184421,0.01686162839510693,0.017238300293684006,0.004125636070966721,0.007518592130570916
2025/04/11 11:18:18.489729629,1744363098,474918847,piren,-0.14054229452614575,0.11300166887576046,0.01389356043579346,0.007968680933117867,0.004648899659514427,0.006792967533945145
2025/04/11 11:18:19.511372035,1744363099,499823502,piren,-0.11032019082617307,-0.009928639372730443,0.012711302028276509,0.01890568807721138,0.00325402757152915,0.011203362672597824
2025/04/11 11:18:20.565041817,1744363100,556000997,piren,-0.06372333540114652,-0.2801538478678554,-0.023798825038247984,0.010270723141729832,0.000587554182857275,0.02078252082371508
2025/04/11 11:18:21.631533780,1744363101,617201507,piren,-0.03143506989848751,-0.36754899977668976,-0.008554418417638208,0.00906513724476099,0.003078185487538576,0.022683566277881657
2025/04/11 11:18:22.735119453,1744363102,711018427,piren,0.015020337356206986,-0.2811781231617133,0.005978886319802873,0.013087996281683445,0.006111107766628265,0.01768448832927263
2025/04/11 11:18:23.664610410,1744363103,658443992,piren,0.0724395436798312,-0.12745765372173237,0.019666700522378146,0.01606077514588833,0.0075248489156365395,0.01093646082713665
2025/04/11 11:18:24.622150769,1744363104,613579548,piren,0.07474151301833297,-0.05506766735550981,0.008211894085291894,0.009307647123932838,-0.0025637068320065737,0.008162831712220342
2025/04/11 11:18:25.597821576,1744363105,587060922,piren,0.04818187028860668,-0.06791213699751045,0.002659575186657358,0.012329215183854103,0.0008492430788464844,0.007345281031115446
2025/04/11 11:18:26.615242480,1744363106,603171032,piren,0.02703124811900122,-0.1327687921920122,-0.011024696000952214,0.010839986614882946,0.007425785064697266,0.006900557394784881
2025/04/11 11:18:27.562681538,1744363107,553504791,piren,0.015735073116157128,-0.17287808833121915,-0.007470199961288018,0.008288842625916004,0.004901229403913021,0.00995849702544426
2025/04/11 11:18:28.570216615,1744363108,518991771,piren,-0.0007333402430307311,-0.1676925765202621,0.004438952756677514,0.012724821455776691,0.00448756106197834,0.022451158305355077
2025/04/11 11:18:29.585736038,1744363109,546427463,piren,0.017631519342904786,-0.11971523170453982,0.013477910944373133,0.009294102899730206,0.010915786027908325,0.032835815115263046
2025/04/11 11:18:30.594711658,1744363110,587359813,piren,0.05207014592883917,-0.09068968218575238,0.008203756622605165,0.008693140000104904,0.003857768839225173,0.024898140878752265
2025/04/11 11:18:31.570570137,1744363111,564243901,piren,0.059295786569819264,-0.08672791170093831,-0.003216655514215233,0.012807212769985199,0.009574790485203266,0.020696965487248652
2025/04/11 11:18:32.649289685,1744363112,598592472,piren,0.01057077204810457,-0.10000858951776083,-0.0012483963883429792,0.016867784783244133,0.003515277523547411,0.019042916994811754
2025/04/11 11:18:33.690041281,1744363113,665484818,piren,-0.016692390380434456,-0.10728139931460745,0.006674268386374662,0.010747279040515423,0.010208717547357082,0.018440668518678736
2025/04/11 11:18:34.719558122,1744363114,712383456,piren,-0.006230750064585051,-0.10196002654411666,0.0004890111375302861,0.009841624647378922,-0.0004103607207071036,0.01691490166105457
2025/04/11 11:18:35.745799467,1744363115,736663881,piren,-0.018020867360059728,-0.09088686014413332,-0.003255724479234597,0.007691042497754097,0.016325993463397026,0.016524438045560183
2025/04/11 11:18:36.719823676,1744363116,688137286,piren,-0.008301484623091607,-0.10314806023659392,-0.011964107574064516,0.012059387750923634,-0.002425771439447999,0.01358474451098724
2025/04/11 11:18:37.774579857,1744363117,766440096,piren,0.04316558851148372,-0.0274576891430334,-0.001742556880276309,0.019008295610547066,0.010547466576099396,-0.007739768449803641
2025/04/11 11:18:38.859982026,1744363118,851623632,piren,0.017168649963422388,0.1193748848368181,-0.0020711010283588427,0.013639367185533047,0.0011801824439316988,-0.050570680032727515
2025/04/11 11:18:39.907119795,1744363119,892218981,piren,-0.1335602437331366,0.2465775206255736,0.009849674588081744,0.0030371490865945816,0.003394059371203184,-0.09656961543141163
2025/04/11 11:18:40.946813490,1744363120,931270067,piren,-0.2993461495810592,0.20221907336736347,0.016122728917839328,0.009844106622040272,0.0025308779440820217,-0.11155329415840043
2025/04/11 11:18:41.896640783,1744363121,888413690,piren,-0.3108826506721356,0.10502772520386458,0.0036663878269547973,0.013048483058810234,0.0037077441811561584,-0.12071301531831273
2025/04/11 11:18:43.26306038,1744363123,10862725,piren,-0.12960293427165204,0.049094089398694286,-0.004665178313770235,0.00501763541251421,0.010333727113902569,-0.14293808894372753
2025/04/11 11:18:43.968850820,1744363123,939476125,piren,-0.1173709161751925,0.06868762082832867,-0.01586274828687836,0.007917871698737144,-0.0015838759718462825,-0.14190559839766909
2025/04/11 11:18:44.915678820,1744363124,908723864,piren,-0.1523716534235757,0.07760562416536682,-0.008113300390241164,0.007507831323891878,0.007018196862190962,-0.11487889701188136
2025/04/11 11:18:45.846075217,1744363125,812823367,piren,-0.1916535098424909,0.04908471323574831,0.006482679504184714,0.008098348043859005,-0.004515550099313259,-0.07430724900480713
2025/04/11 11:18:46.807785389,1744363126,798209956,piren,-0.17384617771628524,0.03225660734078327,0.020096235030511524,0.012623582035303116,0.0014410008443519473,-0.034908948404201466
2025/04/11 11:18:47.873182965,1744363127,864061738,piren,-0.1232903423126781,0.00258974298391932,0.011216080286346138,0.00028092635329812765,-0.002350634429603815,0.0068798692536874454
2025/04/11 11:18:48.916825901,1744363128,855414045,piren,-0.0601722759221511,-0.008183587540228273,0.001631365050868811,0.010469187051057816,0.0073851062916219234,0.03139779282916496
2025/04/11 11:18:50.3530013,1744363129,987202144,piren,-0.022655097690633504,-0.0007891791842287202,-0.00814463455947456,0.004585069138556719,0.0020218552090227604,0.03141742051656473
2025/04/11 11:18:51.226721656,1744363131,214386347,piren,-0.051265367346836344,0.034028947053013577,0.0010559509920610635,0.007480425760149956,0.004040165338665247,0.038414404389267756
2025/04/11 11:18:52.268779934,1744363132,257390812,piren,-0.10724195377980751,0.06214804587180399,0.013677669675857103,0.004447974264621735,0.0017957697855308652,0.058301087493159855
2025/04/11 11:18:53.303757768,1744363133,291825090,piren,-0.10960410764452923,0.056430758693086884,0.00829591294023487,0.005802917759865522,0.0033341078087687492,0.07087707849317276
2025/04/11 11:18:54.237913695,1744363134,227935859,piren,-0.03732691162922309,0.01990812918665211,-0.010507202284193847,0.007644403725862503,0.004164602141827345,0.07005344454336114
2025/04/11 11:18:55.182600016,1744363135,171447559,piren,0.009594977185817885,0.022037593186073304,-0.008841893488420804,0.007819957099854946,0.00797216221690178,0.06811731558638696
2025/04/11 11:18:56.72978358,1744363136,63035765,piren,-0.048694800639141944,0.016348557217548177,-0.022111245459829485,0.0071451785042881966,0.009849075227975845,0.06538843502214062
2025/04/11 11:18:56.967066443,1744363136,956711337,piren,-0.09079794965379653,0.03848060920365742,-0.008856604272506938,0.01587221585214138,0.002770662307739258,0.0653660644192391
2025/04/11 11:18:57.928338966,1744363137,916702087,piren,-0.09292036480249773,0.04549503636555774,0.008759319187997147,0.005906612612307072,0.01762985996901989,0.06415001351273086
2025/04/11 11:18:58.966537721,1744363138,955305815,piren,-0.04287251159212574,0.034092268244669134,0.010439080057837854,0.017331834882497787,-0.001297462615184486,0.06391428528081136
2025/04/11 11:18:59.977880208,1744363139,968954995,piren,0.061203354820923886,-0.013060387527633095,-0.0066092842075004925,0.009190117940306664,0.008570768870413303,0.05643923163484764
2025/04/11 11:19:01.141529453,1744363141,84134721,piren,0.0010387080231780159,0.037166810932637614,0.004576866834259841,0.005247940309345722,-0.0039538973942399025,0.05205124137331919
2025/04/11 11:19:02.79853141,1744363142,67225779,piren,-0.039439872766273636,0.034687027571588785,0.0016138319407986623,0.012077266350388527,0.009967347607016563,0.044849575005907485
2025/04/11 11:19:03.209531500,1744363143,198410766,piren,-0.04571269904039854,0.01823372714758278,0.00032718940106137744,0.018130993470549583,-0.004872447811067104,0.029046716264480157
2025/04/11 11:19:04.265874853,1744363144,254884988,piren,-0.033477833680952404,0.013685901327435293,-0.0019776782242890913,0.007502376567572355,0.011394666507840157,0.022903999713212424
2025/04/11 11:19:05.446055749,1744363145,395796234,piren,-0.006966022664923745,0.012054212486564596,-0.004122804095556931,0.008515278808772564,0.0031421957537531853,0.021552189956331944
2025/04/11 11:19:06.556340582,1744363146,548669087,piren,0.08446294383888835,0.026436298661491147,-0.0021180423622124515,0.01590028777718544,0.00277295452542603,0.02046777345922417
2025/04/11 11:19:07.649778200,1744363147,611314480,piren,0.12095631776886218,0.02568686648066796,-0.008874099032793506,0.0071928659453988075,-0.0005291621782816947,0.014762443464139654
2025/04/11 11:19:08.656477622,1744363148,649288147,piren,0.09188270008453343,0.02674625668518472,-0.0005326711088671848,0.018417509272694588,0.00449502095580101,-0.0004895328795813435
2025/04/11 11:19:09.617378499,1744363149,608183673,piren,0.030404118595449923,0.016242584332127576,0.001909401596151028,0.019542669877409935,0.0043877242133021355,-0.004255238462484917
2025/04/11 11:19:10.620832854,1744363150,605235459,piren,0.006821434184261253,-0.014389790479249981,-0.008791400037302928,-0.002865901216864586,0.0032155148219317198,-0.00397035058776379
2025/04/11 11:19:11.617756586,1744363151,605520937,piren,-0.009408429565683097,0.007037340855041225,0.00044818137482622336,0.021597471088171005,0.0021054658573120832,-0.004283934490912766
2025/04/11 11:19:12.586005495,1744363152,579234166,piren,0.018021588470219504,0.013121085659388703,-0.006940381761451502,0.013555522076785564,0.000595152610912919,-0.002850904140227426
2025/04/11 11:19:13.665974613,1744363153,646489724,piren,0.05708155554609532,0.03114495271776087,-0.0006356771999749361,0.0027908566407859325,0.001288701663725078,-0.004129625053798246
2025/04/11 11:19:14.693844757,1744363154,656313554,piren,0.07043893637227826,0.046217338104477396,0.008203914056713436,-0.0077850595116615295,0.008301355876028538,-0.001399552813052272
2025/04/11 11:19:15.595256320,1744363155,589522793,piren,0.06388089228522058,0.04811519847797712,0.011908587270188032,0.021725747734308243,0.0033153898548334837,-0.003019447106713518
2025/04/11 11:19:16.587342539,1744363156,551585016,piren,0.05894524342135819,0.018647036684871346,0.007420805794957249,0.010471868328750134,-0.0025407015345990658,-0.0009759275104777717
2025/04/11 11:19:17.600517274,1744363157,592874753,piren,0.03643189120182358,-0.0009325944405890651,0.003278678740155132,0.018603626638650894,0.004955655429512262,-0.002231585504569188
2025/04/11 11:19:18.588604279,1744363158,581031637,piren,0.019353080652354325,0.006919743343894773,0.005725998824957183,0.010776976123452187,0.003842982230708003,-0.0011018884606298974
2025/04/11 11:19:19.715372639,1744363159,657112864,piren,0.02781238899260009,-0.002988789091046892,-0.012550845847892574,0.008039076812565327,0.0036570499651134014,-0.0005661747582461443
2025/04/11 11:19:20.774691475,1744363160,768339029,piren,0.04862318463509728,0.009916825254169181,-0.02033640848629659,0.002319370862096548,0.001168245100416243,-0.005473011296884327
2025/04/11 11:19:21.866156436,1744363161,853745558,piren,0.04311139590608843,0.11090806337621296,-0.008372123982462388,0.008895615115761757,0.005522741470485926,-0.02531029172471601
2025/04/11 11:19:23.23249348,1744363162,989522772,piren,-0.030189469591789968,0.2374168569812678,0.00992490317550018,0.008547226898372173,0.00985780917108059,-0.06088825755474633
2025/04/11 11:19:24.64826886,1744363164,58839644,piren,-0.17373837026219052,0.26790542194966294,0.021785150468340692,0.0063964067958295345,-0.005694043822586536,-0.07940456708829251
2025/04/11 11:19:25.218229171,1744363165,204776466,piren,-0.20270891825170861,0.1749017622945127,0.006835485982855076,-0.00027132281684316695,0.008837740868330002,-0.08098922674179576
2025/04/11 11:19:26.405226854,1744363166,395397164,piren,-0.14156035297771802,0.10118370720665194,-0.009730886456398287,0.01069660671055317,-0.0010184271959587932,-0.06691558824242581
2025/04/11 11:19:27.447371484,1744363167,440291539,piren,-0.0871286525602281,0.10388757418897043,-0.009179553901918493,0.010476755909621716,0.002072023693472147,-0.04323954393344181
2025/04/11 11:19:28.793637422,1744363168,748759702,piren,-0.024876224052402585,0.1196699896637842,-0.007577934228400849,0.024210026487708092,-0.0035924334079027176,-0.03121413614937911
2025/04/11 11:19:29.993541371,1744363169,973581872,piren,-0.016346893061417837,0.12269528108970908,0.003397536664234173,0.010440440848469734,0.008535278029739857,-0.022216011597979243
2025/04/11 11:19:31.220168432,1744363171,210983767,piren,-0.08418235104164225,0.11422168647448111,0.011864113711751315,0.007591631263494492,-0.0036095164250582457,-0.010532076276235574
2025/04/11 11:19:32.303198198,1744363172,296273694,piren,-0.1258931442259286,0.11074566447539567,0.002282577833068564,0.02762966975569725,0.011654755100607872,0.001621307427550676
2025/04/11 11:19:33.280939181,1744363173,249959463,piren,-0.09500050113525277,0.07950996298005289,-0.00485507371081614,0.010820982046425343,0.010979875922203064,0.0073760320968802185
2025/04/11 11:19:34.272887353,1744363174,267353342,piren,-0.045280457146216375,0.06008368306939552,-0.01826584786714177,0.022208761423826218,0.00784403644502163,0.008790481310962979
2025/04/11 11:19:35.178266066,1744363175,170088883,piren,0.03161638055480131,0.050013260407356035,-0.016002926681432744,0.01599135622382164,0.008980649523437023,0.008940660114402066
2025/04/11 11:19:36.166201916,1744363176,119501675,piren,-0.026660238011953268,0.08153576319231454,0.005501975153663615,0.010000072419643402,-0.0002487861493136734,0.009386823702959965
2025/04/11 11:19:37.59110428,1744363177,53335623,piren,-0.06200193879345198,0.11805770723628616,0.01774732293859148,0.010085878893733025,-0.008703100495040417,0.009131608598093066
2025/04/11 11:19:38.172579064,1744363178,131987967,piren,-0.08698291040017751,0.14944354548407424,0.023147695735571766,0.03758757561445236,0.004848335403949022,0.009488240616761488
2025/04/11 11:19:39.229277510,1744363179,217384410,piren,-0.04980226437511881,0.062318567391706436,-0.02345330372000642,0.0036854781210422516,0.00971889216452837,0.005955896369332772
2025/04/11 11:19:40.288107877,1744363180,270990083,piren,-0.02741258999858951,0.11407900151565796,-0.02761439277245075,0.015924112871289253,0.006982728373259306,-0.012193159466453071
2025/04/11 11:19:41.453659223,1744363181,440939244,piren,-0.08310866893980294,0.3222183368331067,0.0030194700050385037,0.0024466062895953655,0.0009636569884605706,-0.04845570505697554
2025/04/11 11:19:42.664354835,1744363182,614623203,piren,-0.31569172885504687,0.4452750187017418,0.020377554494592023,0.01674620807170868,0.0017237315187230706,-0.0914994880363757
2025/04/11 11:19:43.712233869,1744363183,699739564,piren,-0.5196920164151039,0.41099971719219724,0.016149286008117988,0.018001697957515717,-0.0031129061244428158,-0.1142862638656814
2025/04/11 11:19:44.776861700,1744363184,762850757,piren,-0.5024620343235009,0.28997466371802216,-0.0008876765216563158,0.01995735988020897,0.004017139319330454,-0.09898685752005856
2025/04/11 11:19:45.885643388,1744363185,830006461,piren,-0.3173607382382293,0.18555646863571673,0.011744136902598469,0.004591703414916992,-0.0021520701702684164,-0.08524804385519681
2025/04/11 11:19:46.880434965,1744363186,866593291,piren,-0.1151402654493031,0.025331684059618446,0.01421276133152297,0.015448318794369698,-0.0002596540143713355,-0.07972562459472313
2025/04/11 11:19:47.838864262,1744363187,831992038,piren,-0.08737220444578035,-0.1788330849115879,-0.002103712866049858,0.010093089193105698,0.003334860084578395,-0.06531888929298454
2025/04/11 11:19:48.801356234,1744363188,787162775,piren,-0.13847399051161904,-0.3150069893259671,-0.005377927805155022,0.008370522409677505,0.005068102385848761,-0.05077291754913883
2025/04/11 11:19:49.864800247,1744363189,834878357,piren,-0.20514843839297414,-0.35023003212174564,-0.01425104822166951,0.00648973323404789,0.0026914358604699373,-0.037512535360668765
2025/04/11 11:19:50.942930609,1744363190,933640176,piren,-0.18746037684565106,-0.2165661600148618,0.012071153154773017,0.020081421360373497,0.004655033349990845,-0.038408570155806954
2025/04/11 11:19:51.954495366,1744363191,936531820,piren,-0.09661201543319639,-0.12283760294753003,0.011726354004678528,0.006828500889241695,0.004035509657114744,-0.042044444394680094
2025/04/11 11:19:52.964640671,1744363192,954550913,piren,0.09847083225259515,-0.07407425770720508,0.018093365253007927,0.013768344186246395,0.0060792043805122375,-0.04769958930308085
2025/04/11 11:19:54.115815529,1744363194,75293201,piren,0.29852267317726694,-0.08969602465551552,-0.0047486720150948835,0.006635820027440786,-0.0002131082146661356,-0.045068454944096115
2025/04/11 11:19:55.213046198,1744363195,198025844,piren,0.3133831299752659,-0.10699159806286693,-0.012514866479206603,0.013991146348416805,0.010605700314044952,-0.04485989307533403
2025/04/11 11:19:56.418622599,1744363196,386931428,piren,0.1951690645803443,-0.11359509146209384,0.0027190787545555563,0.01476973295211792,-0.0007003513746894896,-0.04152843808356751
2025/04/11 11:19:57.450292893,1744363197,439331335,piren,0.07284063266156962,-0.09561031245825172,0.009032204734797523,0.015422332100570202,-0.003346996381878853,-0.038211904618494205
2025/04/11 11:19:58.513497631,1744363198,505776721,piren,0.07440878210202286,-0.06027974619838918,0.00030173095605554213,0.006886181887239218,0.0023890777956694365,-0.03619893454081211
2025/04/11 11:19:59.501773916,1744363199,472429439,piren,0.1221931527170418,-0.025389503124615943,-0.0017071519759571184,0.008916066959500313,0.0023564500734210014,-0.03010344830673606
2025/04/11 11:20:00.400490503,1744363200,394218617,piren,0.1484250332031699,-0.016076288406050406,-0.01655488792036755,0.01602022722363472,0.00851090345531702,-0.013427585000124472
2025/04/11 11:20:01.338039323,1744363201,330185304,piren,0.1297548367786116,-0.01919753930284264,-0.01717597817100708,0.002427141647785902,0.00926967803388834,0.011011538696250722
2025/04/11 11:20:02.294357333,1744363202,258145490,piren,0.0919571020698884,-0.04296152441210162,-0.002637146512085412,0.011849821545183659,0.007865579798817635,0.039477033342587994
2025/04/11 11:20:03.195668773,1744363203,188332591,piren,0.048408249343978596,-0.05597512486701312,0.01278524776923668,0.00943915918469429,0.0001785816712072119,0.0687013626343171
2025/04/11 11:20:04.262490792,1744363204,200609156,piren,0.03466623017201056,-0.05954785864454051,0.0021963675704098303,0.024384256452322006,0.0046045188792049885,0.09581496231987684
2025/04/11 11:20:05.306598932,1744363205,295467544,piren,0.04095294302568589,-0.04066230803354131,-0.016561402834053995,-0.006880654953420162,0.0025908024981617928,0.119810851921142
2025/04/11 11:20:06.488399815,1744363206,478496687,piren,0.08569995258627565,-0.044625202556553736,-0.011321466537964887,0.018439896404743195,0.00561453215777874,0.11739577933232022
2025/04/11 11:20:07.471839915,1744363207,466087541,piren,0.18608794938125164,-0.03924539263388983,0.0007442887600032787,0.004260283894836903,0.0024188044480979443,0.10102308772795762
2025/04/11 11:20:08.370103599,1744363208,363232709,piren,0.1974540906105735,-0.02855285013491804,0.017266232003671507,0.017286047339439392,0.001031584688462317,0.087379962820854
2025/04/11 11:20:09.372182604,1744363209,355059501,piren,0.19382608183275907,-0.031214357199779313,0.017372532338460187,0.01204461045563221,0.006964813452214003,0.07021791573967463
2025/04/11 11:20:10.406352587,1744363210,356153565,piren,0.28492478624459117,-0.030803580269847555,-0.004578958951879382,-0.0013366336934268475,0.015281463973224163,0.05081108581852404
2025/04/11 11:20:11.438371608,1744363211,431374974,piren,0.3523698325333636,-0.04474221745442203,-0.023918147272696238,0.012809481471776962,0.003657481400296092,0.03433922086425433
2025/04/11 11:20:12.544636484,1744363212,535046485,piren,0.33161422891156683,-0.039705096314972294,-0.023424286883133374,0.027237053960561752,0.011941921897232533,0.025207041953776998
2025/04/11 11:20:13.562963432,1744363213,550315487,piren,0.27757703683148044,-0.023966264631954913,-0.007154985982120142,0.006237547844648361,0.013234161771833897,0.020444540598940217
2025/04/11 11:20:14.515365849,1744363214,506429277,piren,0.2898799676155508,-0.019165983216326492,0.01574968473270555,0.009429479017853737,0.0016354462131857872,0.015865349229310176
2025/04/11 11:20:15.482235199,1744363215,474262652,piren,0.3430676386040682,0.0025233431463489186,0.016621651181624637,0.012570003047585487,0.00775742344558239,0.013694683487994132
2025/04/11 11:20:16.573213046,1744363216,556174757,piren,0.30587756673343264,-0.0033902217901550682,-0.0018379160566351015,0.009329062886536121,0.0010083955712616444,0.010604035004238713
2025/04/11 11:20:17.816898509,1744363217,753950824,piren,0.2658024829748065,-0.07065237225944056,-0.041479077559460106,0.002187488367781043,0.008931269869208336,0.008434864837431
2025/04/11 11:20:18.969761374,1744363218,960051722,piren,0.26306998820534444,-0.03640788841477797,-0.01046118857369345,0.020592710003256798,0.004425595514476299,0.017660179040816664
2025/04/11 11:20:20.65272408,1744363220,50287997,piren,0.21383395934026136,-0.008338318673332101,0.015496533160834621,0.005815816577523947,0.00937574915587902,0.03427359772361941
2025/04/11 11:20:21.229597075,1744363221,218798890,piren,0.21305307414333136,-0.03664997966008919,0.007257513956543595,0.0066315485164523125,-0.003081723814830184,0.03581340184059944
2025/04/11 11:20:22.343937911,1744363222,335683990,piren,0.245876137468102,-0.08791415213355934,0.004737443648078437,0.01225222833454609,0.0024108935613185167,0.028827077143158308
2025/04/11 11:20:23.452797765,1744363223,431754489,piren,0.21043132398552342,-0.21400321332235728,-0.022309493275578372,0.001804444589652121,0.004404016770422459,0.012487330058319342
2025/04/11 11:20:24.678251879,1744363224,665835294,piren,0.13738897687574503,-0.2226171899382874,-0.004027499500330948,0.018947197124361992,-0.001218063640408218,0.00499079831892277
2025/04/11 11:20:25.927173222,1744363225,912447710,piren,0.10087097070456992,-0.2008120975077864,-0.011535458657098561,0.015491660684347153,-0.0004571436729747802,0.016477245343213386
2025/04/11 11:20:26.932701939,1744363226,923730912,piren,0.07741281859476759,-0.12182291810269483,0.00870491482556537,0.009762592613697052,0.0020301241893321276,0.02655849707594625
2025/04/11 11:20:28.109804385,1744363228,55401284,piren,0.13433418788628906,-0.10677588673589307,0.00938591459847378,0.006443179212510586,0.00231708656065166,0.026441773374418966
2025/04/11 11:20:29.66786112,1744363229,57577811,piren,0.13082382365569228,-0.11587710996226154,0.0068495261152838995,0.006409392226487398,-0.00039887032471597195,0.025657817853979845
2025/04/11 11:20:30.170914101,1744363230,126030689,piren,0.08397650860565203,-0.14534277060003792,-0.01325587272823709,0.009647706523537636,0.0008330315467901528,0.025221578092859864
2025/04/11 11:20:31.65115215,1744363231,35459391,piren,0.06290857229026603,-0.13727775527172242,-0.010646895044282257,0.012218726798892021,0.006332013290375471,0.024106010906817892
2025/04/11 11:20:32.13682485,1744363232,5633274,piren,0.06224893610363467,-0.12915113389414726,0.0051243278195502754,0.0057478914968669415,0.005685742013156414,0.022809191177933525
2025/04/11 11:20:33.48043609,1744363233,35929800,piren,0.07358169777677151,-0.12132174262048483,0.003713903731455953,0.0199389960616827,0.008398517966270447,0.02081634703261239
2025/04/11 11:20:34.4495760,1744363233,997830527,piren,0.07677781553818165,-0.11952805536077064,-0.0018517854873081052,0.008700253441929817,0.00410726061090827,0.020693254979209746
2025/04/11 11:20:34.932477174,1744363234,922860714,piren,0.06808067701391483,-0.09818839285583751,-0.0025146890988080248,0.022239631041884422,0.0037238607183098793,0.01860032324912641
2025/04/11 11:20:35.834019126,1744363235,826002741,piren,0.04928896958116597,-0.09449253941759232,0.005282746271331256,0.003776054596528411,0.011171719990670681,0.01858959309744163
2025/04/11 11:20:36.867247890,1744363236,858615799,piren,0.04662837025131904,-0.06900533137056722,0.02266300713416977,0.016655847430229187,0.011382628232240677,0.017200075717891304
2025/04/11 11:20:37.997598932,1744363237,987867943,piren,0.07018306960244691,-0.12091134148262841,-0.0029648511259354527,0.010847719386219978,0.011073394678533077,0.016469495753707944
2025/04/11 11:20:38.942420481,1744363238,934654662,piren,0.08645237933515292,-0.14964674679928128,-0.024308976850096205,0.018986308947205544,-0.002610304392874241,0.015619307277699373
2025/04/11 11:20:39.895385760,1744363239,873875622,piren,0.04803122857858802,-0.09261450038371659,-0.005689610858167306,0.008098077028989792,0.010446867905557156,0.0145684202298928
2025/04/11 11:20:40.949695655,1744363240,939061232,piren,0.03993129895985859,-0.07820847598950181,-0.0011901984724356524,0.00912734679877758,0.004144177306443453,0.014124566718310423
2025/04/11 11:20:42.16868431,1744363241,974323796,piren,0.044325580187360374,-0.06872951555559413,0.014665058665651603,0.009376268833875656,0.0027578535955399275,0.014406075552503667
2025/04/11 11:20:42.973430809,1744363242,965631931,piren,0.058765325823618444,-0.08786415751345206,0.010614210369607704,0.016779853031039238,0.003401817288249731,0.015255410030136831
2025/04/11 11:20:43.876037347,1744363243,870063457,piren,0.06732189859383443,-0.0993266499278569,-0.016180007726824278,0.013318613171577454,-0.008537658490240574,0.014633074732782655
2025/04/11 11:20:44.798644779,1744363244,746735621,piren,0.059627267298951944,-0.10346898927508283,-0.010105380005328908,0.013754952698946,0.010555258952081203,0.013817360042746862
2025/04/11 11:20:45.694688119,1744363245,668698208,piren,0.05364531051989475,-0.09776862417729655,0.0011606313862249037,0.009295432828366756,0.003224768675863743,0.013851599298929361
2025/04/11 11:20:46.644668246,1744363246,632575562,piren,0.05329098808306774,-0.08023045972222946,0.005808422075407455,0.006132309325039387,0.00026550760958343744,0.014302871286642309
2025/04/11 11:20:47.714994768,1744363247,656117609,piren,0.05354457612731872,-0.06696955747428171,0.008601855026130246,0.0030432099010795355,0.009258066304028034,0.013231124149293429
2025/04/11 11:20:48.634645714,1744363248,623506270,piren,0.051566554727710656,-0.06894096866454112,0.0036056979296640555,0.014035732485353947,0.004589681047946215,0.014085787415773232
2025/04/11 11:20:49.567041534,1744363249,547583719,piren,0.06773884796428048,-0.09484834506246372,0.0017906957834575722,0.011897744610905647,0.0027881625574082136,0.013365349955568756
2025/04/11 11:20:50.557287219,1744363250,515694703,piren,0.05457787496545961,-0.10421371543707766,0.005285070129687793,0.015327448956668377,0.001916288398206234,0.012666870179104193
2025/04/11 11:20:51.535859252,1744363251,528028232,piren,0.014143798570864284,-0.11862849798353328,-0.005815730987080331,0.01209593191742897,0.004831336904317141,0.011922859145531638
2025/04/11 11:20:52.510083266,1744363252,499068443,piren,0.0594249252277861,-0.09536412012833065,-0.00982967755276845,0.013381537050008774,-0.00031694697099737823,0.012737374360751124
2025/04/11 11:20:53.477317494,1744363253,433260320,piren,0.0799251616194576,-0.08033435471312884,0.0008030033978848202,0.023135848343372345,0.002308943308889866,0.012207425612679563
2025/04/11 11:20:54.417006123,1744363254,406627426,piren,0.11396261382917956,-0.07736031297260583,0.003882463188144493,-0.00384105509147048,0.010836613364517689,0.010594856483968646
2025/04/11 11:20:55.479224962,1744363255,471244206,piren,0.07300578609441588,-0.08217427796806519,0.007805618647034531,0.024809526279568672,0.0012082669418305159,0.011808870919507245
2025/04/11 11:20:56.568595465,1744363256,559280019,piren,0.026724137069103992,-0.09330860788808304,0.002713507714963474,0.006908404640853405,-0.004799691494554281,0.010881990206514374
2025/04/11 11:20:57.748073968,1744363257,686556414,piren,0.021171297698941882,-0.11075849034592122,-0.0070972201149753136,0.010092905722558498,0.013285966590046883,0.011023268266623825
2025/04/11 11:20:58.807246878,1744363258,796743979,piren,0.05347788561998459,-0.10727800430857827,-0.006767678761161235,0.02097485028207302,0.008140776306390762,0.01012977904253261
2025/04/11 11:20:59.916660030,1744363259,906205185,piren,0.07197749553545593,-0.10176086217568535,-0.0020961252458688074,0.005216917023062706,0.0011825748952105641,0.010114208486828232
2025/04/11 11:21:00.895784847,1744363260,888005117,piren,0.07032110145549245,-0.10068778496615226,0.007901538632611203,0.020440327003598213,0.008416978642344475,0.00994930246346274
2025/04/11 11:21:02.12459276,1744363262,2864508,piren,0.07122129917106607,-0.08649507585638992,0.0007581489043769204,0.009944209828972816,-0.0067373220808804035,0.00960286630780564
2025/04/11 11:21:03.211990247,1744363263,204182349,piren,0.08068881477325307,-0.08291122568087378,-0.0021021768849655348,0.01068643294274807,0.004167953040450811,0.00988911507189493
2025/04/11 11:21:04.225518434,1744363264,213253357,piren,0.0621332525088482,-0.08346886152360596,0.0004773571999558891,0.007961946539580822,0.0069820876233279705,0.00875912031352542
2025/04/11 11:21:05.290822027,1744363265,233140695,piren,0.0470572941019482,-0.106388787806362,0.0011343105933462239,0.00466330349445343,0.017090894281864166,0.008841887393604003
2025/04/11 11:21:06.385112117,1744363266,377258804,piren,0.0188081406944617,-0.12063344523599924,-0.0077560947083290905,0.007567531429231167,0.001969814533367753,0.009230246338214608
2025/04/11 11:21:07.432359090,1744363267,398258045,piren,0.045243365236963935,-0.08046753986027982,-0.0005721682187621991,-0.0005229995003901422,0.006158282980322838,0.008711077530004276
2025/04/11 11:21:08.541347540,1744363268,531985448,piren,0.11393488445610234,-0.01904008887140915,0.0005270264745020833,0.002822806593030691,0.009002217091619968,-0.007931572134864635
2025/04/11 11:21:09.640282265,1744363269,602260565,piren,0.11669686142527022,0.05871163716728601,0.006936388691442564,0.013445836491882801,0.004857302643358707,-0.04148741266186474
2025/04/11 11:21:10.762603496,1744363270,751762318,piren,0.05043633434316062,0.03199985571273175,-0.01251657451199382,0.009629304520785809,-0.0018005771562457085,-0.04385197454446892
2025/04/11 11:21:11.787759068,1744363271,778705772,piren,-0.03051624057168641,0.021557425416352888,0.009205276746025061,0.007014247123152018,-0.0011731188278645277,-0.041736885106835084
2025/04/11 11:21:12.857486785,1744363272,848110610,piren,-0.006247939993253812,-0.014091097180610523,0.009559304342742306,0.008060759864747524,0.00802422221750021,-0.03966955890768608
2025/04/11 11:21:13.943566565,1744363273,906617398,piren,0.06008973274596648,0.005595020662252021,-0.0033038132626656016,0.009024088270962238,0.0021244403906166553,-0.03766848180186338
2025/04/11 11:21:14.938004133,1744363274,930444278,piren,0.08300710774590096,0.039463414845281854,-0.010456305962379588,0.006783194839954376,0.0030513249803334475,-0.0358347274565553
2025/04/11 11:21:16.62730233,1744363276,21082868,piren,0.06567635152285961,0.0458029697474744,0.0016200311113196385,0.016468608751893044,-0.0021453227382153273,-0.034209862784473806
2025/04/11 11:21:17.156143789,1744363277,145377136,piren,0.02289087337103614,0.026258414454713296,0.004720903941586614,0.021144922822713852,0.002894147066399455,-0.0319469379596543
2025/04/11 11:21:18.258677415,1744363278,249490084,piren,0.007274135051141653,0.003929604770754605,-0.008230245630303657,-0.0006973452400416136,0.003016166854649782,-0.02965444832997056
2025/04/11 11:21:19.278722235,1744363279,250734045,piren,0.005487907264875806,0.007204795669519817,-0.010802181886245883,0.006250219885259867,0.01108477357774973,-0.028075005891427966
2025/04/11 11:21:20.263047435,1744363280,255262622,piren,0.03801391078955435,0.028357015396375418,-0.003341173946860111,-0.0017598781269043684,0.0038068750873208046,-0.02696058212041376
2025/04/11 11:21:21.294415047,1744363281,287942539,piren,0.04645101051445636,0.04159624980297766,0.005682855397660788,0.004142110235989094,-0.0012893726816400886,-0.02652401472487518
2025/04/11 11:21:22.404067114,1744363282,365330252,piren,0.04073556925273916,0.04399751161197792,0.007757709925591529,0.004870336037129164,-0.0004949577851220965,-0.025558940031549522
2025/04/11 11:21:23.397791295,1744363283,390185040,piren,0.02465400665411142,0.03943254516924761,0.004923293620204657,0.008067909628152847,0.0018507017521187663,-0.024900627337290433
2025/04/11 11:21:24.474959604,1744363284,427026596,piren,0.023895234790793876,0.02207504089639735,-0.0015918509221313302,0.016315773129463196,0.0010740305297076702,-0.02324530618419423
2025/04/11 11:21:25.499027368,1744363285,491082692,piren,0.036464399960663335,0.011861493337916584,-0.0048562519161276406,0.009733397513628006,0.007777646649628878,-0.021752359942730573
2025/04/11 11:21:26.592728497,1744363286,538808862,piren,0.024600887358904405,0.014983437491375606,0.0011228959758362437,0.0057101137936115265,0.01354143489152193,-0.0200127688496199
2025/04/11 11:21:27.591550225,1744363287,552559445,piren,0.01330160563783559,0.02417237736615688,0.0026161448521061434,0.002108163433149457,-0.002775027882307768,-0.019177993801433604
2025/04/11 11:21:28.604839742,1744363288,596410502,piren,0.029204292160313464,0.03891671754938653,-0.0007923579370593954,0.011483305133879185,0.0068062348291277885,-0.018680338695708325
2025/04/11 11:21:29.593498984,1744363289,587052352,piren,0.030034453099873945,0.03673614449176393,-0.004583850215453808,0.015802660956978798,0.006789117120206356,-0.01771419407365591
2025/04/11 11:21:30.746881855,1744363290,732327358,piren,0.020140351459136854,0.026247712804935017,0.005270839351299391,0.011718171648681164,0.004798241890966892,-0.017071964155934413
2025/04/11 11:21:31.996362584,1744363291,985811117,piren,0.03516936349918889,0.01048574169178463,-0.005158529146882343,0.014142324216663837,0.003507537767291069,-0.015127579955326757
