time,header_stamp_secs,header_stamp_nsecs,header_frame_id,twist_linear_x,twist_linear_y,twist_linear_z,twist_angular_x,twist_angular_y,twist_angular_z
2025/04/11 11:15:48.306754693,1744362947,651013136,piren,0.06748424856496049,0.031506026565693825,0.002292082420524276,0.012910923920571804,0.011025318875908852,-0.010285945795361934
2025/04/11 11:15:50.205479794,1744362950,183737058,piren,0.07159352095827662,0.03724778054838672,0.003131798310681598,0.004936140030622482,0.01660432666540146,-0.008949513495708697
2025/04/11 11:15:52.186217328,1744362952,141148672,piren,0.06260530780953094,0.04205749184238804,-0.0010744908686434415,0.019935909658670425,0.0012850241037085652,-0.00966420234924645
2025/04/11 11:15:58.17391817,1744362957,964566039,piren,0.04098894095588994,0.07132854148858306,0.0016786438243854278,0.003717737039551139,-0.0033778322394937277,-0.0020960840990356683
2025/04/11 11:15:59.529027992,1744362959,494276089,piren,-0.021687248426042152,0.13388078549905905,0.0033060819068565723,0.0024583274498581886,-0.002212515799328685,0.01776450292070262
2025/04/11 11:16:01.167839572,1744362961,75170336,piren,-0.084878689410266,0.1948793061890682,0.000834863080035486,0.019227923825383186,0.0053168730810284615,0.051784581559978234
2025/04/11 11:16:02.233080845,1744362962,210320093,piren,-0.09400841853864686,0.1794889520515425,-0.002903200461048616,0.011122569441795349,0.01364937424659729,0.0792610303226101
2025/04/11 11:16:03.603817668,1744362963,591803691,piren,-0.12239896878493264,0.1757748091029497,0.004925000406552638,0.014446953311562538,0.009018599055707455,0.0949099687896827
2025/04/11 11:16:04.619856425,1744362964,593232088,piren,-0.062315753216285075,0.14753577313749694,0.0017628659217108658,-0.0031793760135769844,0.006415402516722679,0.08273964791366072
2025/04/11 11:16:05.632744948,1744362965,584132990,piren,-0.047939039192124354,0.14063716541586466,0.004383039944508393,0.015158931724727154,-0.009225829504430294,0.07649577639487769
2025/04/11 11:16:06.692126606,1744362966,683057861,piren,-0.15920857644596262,0.17199397438052977,-0.007700478912562491,0.021068207919597626,0.0019194954074919224,0.06916043027376108
2025/04/11 11:16:07.804173467,1744362967,798640939,piren,-0.144908561809848,0.17632652254778797,-0.012641966436632488,0.0038801846094429493,0.00920893531292677,0.059970877928802055
2025/04/11 11:16:08.968563903,1744362968,952131076,piren,-0.08895607436738837,0.1554777998426288,-0.0135376077749755,0.011619683355093002,0.00032954171183519065,0.044299592503773806
2025/04/11 11:16:10.65419111,1744362970,54015527,piren,-0.05473111111166426,0.13999538390253283,0.0020262250103995957,0.009460044093430042,-0.004265177063643932,0.03470266897891157
2025/04/11 11:16:11.115504817,1744362971,85574407,piren,-0.0671831079100003,0.13015629142864774,0.0037594668363737146,0.013908043503761292,-0.0002693778951652348,0.030344046785187928
2025/04/11 11:16:12.130800078,1744362972,99440157,piren,-0.08807229880496842,0.12201897005033963,0.010109685150263115,0.01861608400940895,0.003109247423708439,0.028880515493708334
2025/04/11 11:16:13.39088914,1744362973,25905619,piren,-0.08731049821788027,0.10175771793146843,0.014361932457217019,0.00592546071857214,0.0023741365876048803,0.02289162416972917
2025/04/11 11:16:13.938766915,1744362973,928031848,piren,-0.04608360341014767,-0.004519705134589533,0.0035387462118534607,0.014285283163189888,0.009007486514747143,0.01387446081937421
2025/04/11 11:16:14.895547192,1744362974,885296340,piren,-0.01026239908956094,-0.14170298209191978,0.0022374222392328672,0.007580277509987354,-0.004124211147427559,-0.0053169194920215665
2025/04/11 11:16:16.162950931,1744362976,99859565,piren,-0.0013277694809404154,-0.29780297984980286,-0.016602995063965495,0.02260981872677803,0.00804378092288971,-0.03083118524409443
2025/04/11 11:16:17.317418166,1744362977,247032055,piren,-0.056197066718709804,-0.30909348999757646,-0.011003398913021642,0.002329754875972867,0.0007331850938498974,-0.044204169619279726
2025/04/11 11:16:18.439129443,1744362978,407494046,piren,-0.1467691510670648,-0.19613605710910642,0.0024678779194913705,0.00803391169756651,0.0010460354387760162,-0.02246702058932933
2025/04/11 11:16:19.407948737,1744362979,399556210,piren,-0.15797965605090675,-0.10474899002692846,0.012014272665788807,0.00036360384547151625,0.0007901226636022329,0.01089130541445048
2025/04/11 11:16:20.511818945,1744362980,483648951,piren,-0.03495138535090528,-0.11037677919721327,0.00322989451081517,0.012280923314392567,0.004148795735090971,0.023696507071050664
2025/04/11 11:16:21.604303751,1744362981,595639836,piren,0.04669766353231343,-0.15938384890105234,-0.007343722370103563,0.0046928576193749905,0.0015486294869333506,0.02414221628799183
2025/04/11 11:16:22.702050987,1744362982,692507558,piren,-0.06724737724880478,-0.16277716279892054,-0.010249257623667147,0.012014896608889103,0.008332653902471066,0.022938527949953706
2025/04/11 11:16:23.837851364,1744362983,811528284,piren,-0.19767905508178962,-0.11619408848710017,0.00010072009284832137,0.016568250954151154,0.0012971434043720365,0.01881725972363621
2025/04/11 11:16:25.64740718,1744362985,50614978,piren,-0.207684123728609,-0.07882665888482743,0.0033808406476395314,0.008475874550640583,0.0012036236003041267,0.019774307789383515
2025/04/11 11:16:26.190031322,1744362986,177038700,piren,-0.11095465132980288,-0.09253171642958487,0.009319716896908319,0.002374779200181365,0.011147154495120049,0.025476807666959127
2025/04/11 11:16:27.250256499,1744362987,238015286,piren,0.008764937738328538,-0.1495384698269846,0.005854391862931067,0.004063405562192202,0.0020838449709117413,0.03438229126340538
2025/04/11 11:16:28.251235990,1744362988,242872165,piren,0.0753128880976873,-0.18573680170284215,-0.0038131333245474634,0.013221800327301025,0.016031725332140923,0.040607519416661186
2025/04/11 11:16:29.314184188,1744362989,301523137,piren,0.047640922966775086,-0.1842899611321628,-0.002893530099908132,0.009182865731418133,-0.0026948421727865934,0.03673114094575122
2025/04/11 11:16:30.254754735,1744362990,246500587,piren,0.009774183559784343,-0.14873521600766262,-0.0038416749694307256,0.003549422137439251,0.018404582515358925,0.031041719080360408
2025/04/11 11:16:31.228955502,1744362991,206169390,piren,-0.021063411311547584,-0.12300933745391385,-0.004018038951113651,0.0005553237861022353,0.0032213537488132715,0.014476192780499572
2025/04/11 11:16:32.406994258,1744362992,393967445,piren,-0.006583493119797,-0.09698051594186845,0.006246120902835543,0.01409485749900341,0.0006211154977791011,-0.013471568276171107
2025/04/11 11:16:33.473208524,1744362993,451490455,piren,-0.02478003180490313,-0.11160770881633661,0.01282706328568102,0.0054033477790653706,0.0076261255890131,-0.02091553276345304
2025/04/11 11:16:34.569357828,1744362994,520336967,piren,-0.00795366412703524,-0.15758826624896763,0.0031976958611493553,0.014696638099849224,0.0075172968208789825,-0.022232224279751578
2025/04/11 11:16:35.427520697,1744362995,421337567,piren,0.06133562446848363,-0.20930933314339206,-0.008024940531140685,-0.005696409847587347,0.0017646369524300098,-0.02747595945978226
2025/04/11 11:16:36.432767897,1744362996,425612107,piren,0.13634256220152555,-0.22950345845474665,-0.016514653492254266,0.013014305382966995,-0.0015392611967399716,-0.03485461940985719
2025/04/11 11:16:37.453997150,1744362997,444402710,piren,0.13731570612153507,-0.18969221028346517,-0.0032917214379893645,0.015867924317717552,0.0002678245073184371,-0.03709410166099763
2025/04/11 11:16:38.475663555,1744362998,465536612,piren,0.09905360155778442,-0.08708026592794348,-0.004829351290305877,0.020400304347276688,-0.0013709533959627151,-0.048472364003571904
2025/04/11 11:16:39.692739055,1744362999,668770575,piren,0.06856562916468636,0.10413260157110917,0.026549298305917457,-0.0066702282056212425,0.00471611600369215,-0.06214018567863675
2025/04/11 11:16:40.874318509,1744363000,858126203,piren,0.009770068052830441,0.173076676430719,0.015464105729000633,0.026001371443271637,0.008200076408684254,-0.0357055926112654
2025/04/11 11:16:41.869882018,1744363001,861950727,piren,0.03763769914316971,0.11194670850982212,-0.007457110617718941,0.006978087592869997,0.004901418928056955,-0.006342075594938227
2025/04/11 11:16:42.814896238,1744363002,804769791,piren,0.1533662883462283,-0.0038056347355450992,-0.01947765801182877,0.006461803335696459,-0.0016533618327230215,-0.001437605272224928
2025/04/11 11:16:43.695112975,1744363003,684353456,piren,0.21499161046097004,-0.061800155979654006,-0.013595942607287359,0.0113022830337286,-0.005891281180083752,0.0104303892377472
2025/04/11 11:16:44.629777407,1744363004,620686152,piren,0.16027051401140385,-0.06583571589308128,-0.011038153755470237,0.01001280453056097,0.008036542683839798,0.027273748109440596
2025/04/11 11:16:45.642076927,1744363005,613892951,piren,0.07469848753707982,-0.0029025102512606066,0.005970651943437044,0.016823621466755867,0.0030370899476110935,0.04003055051453581
2025/04/11 11:16:46.621408567,1744363006,610466565,piren,0.01390992962508325,0.01713602057643577,0.0009389462588102583,0.012719592079520226,0.0022616765927523375,0.05783973500701324
2025/04/11 11:16:47.684710786,1744363007,667265764,piren,0.019094235326065145,0.013953502383992528,0.008003436589990453,0.01996470056474209,0.016222452744841576,0.06599336380460931
2025/04/11 11:16:48.732910116,1744363008,697633673,piren,0.09609217147169592,-0.030797411013554734,-0.003314849678940933,0.0031943677458912134,0.0075155156664550304,0.06063603536406465
2025/04/11 11:16:49.737932747,1744363009,701256748,piren,0.14377131003056992,-0.03856482301525837,-0.0043181284310549895,0.024057846516370773,0.009032674133777618,0.032689549933826105
2025/04/11 11:16:50.765615327,1744363010,739773699,piren,0.10360742582633965,-0.035225238942621286,-0.0055967039630616874,-0.006909620016813278,0.0026854376774281263,-0.0065579937567505735
2025/04/11 11:16:51.780431611,1744363011,767684128,piren,-0.007960247797063946,-0.022040461879078134,0.008033097705413095,0.013568381778895855,0.00044710945803672075,-0.01980299030295723
2025/04/11 11:16:52.656659688,1744363012,646412634,piren,-0.1446539543547943,-0.034990864115207,0.008463228830345226,0.010435855016112328,-0.0028214275371283293,-0.022162379107311978
2025/04/11 11:16:53.714678665,1744363013,658544341,piren,-0.266411234464772,-0.04130677330249462,-0.000707206311591423,0.01145515963435173,0.0023364273365586996,-0.01778215583091937
2025/04/11 11:16:54.794971961,1744363014,790100735,piren,-0.3863587677876922,-0.048893129515090616,-0.005087179120170137,0.00339979724958539,0.005778961349278688,-0.004285216522060227
2025/04/11 11:16:55.806885640,1744363015,790987206,piren,-0.4167911402821119,-0.03865520038798429,-0.004191272351715812,0.005470616742968559,0.007577235344797373,0.00824310639226209
2025/04/11 11:16:56.876363647,1744363016,832817274,piren,-0.3240449987106786,-0.03818953779173178,0.0010448435287400146,0.007092286366969347,0.012277545407414436,0.013543755345425883
2025/04/11 11:16:57.906062102,1744363017,847248053,piren,-0.22154259347137217,-0.032742154178413405,0.005504716280091682,0.016365068033337593,0.009519524872303009,0.013887558108239235
2025/04/11 11:16:58.879469291,1744363018,864350470,piren,-0.13977019379369726,-0.01887793848836744,-0.001316501318797324,0.012581046670675278,0.00164850486908108,0.004479565786522052
2025/04/11 11:16:59.977139200,1744363019,964995113,piren,-0.028082514300967934,0.05467475451969213,-0.003977752705424196,0.012368636205792427,0.00023481812968384475,-0.018870556281556802
2025/04/11 11:17:01.116860641,1744363021,104292110,piren,-0.025696156266735718,0.07625793120605513,-0.0021647941737115576,0.01566852256655693,0.009852154180407524,-0.025813532673914213
2025/04/11 11:17:02.162433283,1744363022,135546018,piren,-0.08825060026745181,0.05913551551038827,0.001787662348749476,0.015877803787589073,0.0052013276144862175,-0.026066353705280418
2025/04/11 11:17:03.277215915,1744363023,267606286,piren,-0.09168143045419587,0.005027983706895528,0.008365089417361471,0.004508825950324535,-0.0007066493853926659,-0.024072201115473556
2025/04/11 11:17:04.315739366,1744363024,310438568,piren,0.025219054707736124,-0.13303531552355716,0.015833318578944412,0.006968293339014053,0.01243801973760128,-0.01874103105307327
2025/04/11 11:17:05.434521714,1744363025,418855584,piren,0.1483771198221347,-0.33738725083967447,-0.013393710835220049,0.0068471599370241165,0.0030735067557543516,-0.003889268246276573
2025/04/11 11:17:06.451103270,1744363026,444869765,piren,0.1778884995628004,-0.36518628458761676,-0.01988035833275612,0.0180463008582592,-0.0026738394517451525,0.011210270750074396
2025/04/11 11:17:07.430987641,1744363027,425603537,piren,0.15748657663089027,-0.27602705102053743,-0.018359857827823674,0.023676615208387375,0.007059216964989901,0.01194169311434724
2025/04/11 11:17:08.498335932,1744363028,440130552,piren,0.10965539468427317,-0.08448262707279366,0.0006442864652341576,0.01635986566543579,0.0046784221194684505,-0.010358666212169996
2025/04/11 11:17:09.532437172,1744363029,519652248,piren,0.027754557725143,0.13333067728344744,0.03181020789567687,0.011458336375653744,0.00952083244919777,-0.054952326158091855
2025/04/11 11:17:10.515679238,1744363030,494474258,piren,-0.08516620274540405,0.20575324399032963,0.02147543938942808,0.01594545505940914,0.004496866371482611,-0.06870378297299605
2025/04/11 11:17:11.465932838,1744363031,434276521,piren,-0.1475937858672524,0.162478873387772,-0.009455463339759357,-0.003187223570421338,0.0024651656858623028,-0.05300273503452584
2025/04/11 11:17:12.419608895,1744363032,405940575,piren,-0.09500401205934855,0.10160900230730459,-0.013872119893903894,0.018545011058449745,-0.004630443640053272,-0.02356012357805064
2025/04/11 11:17:13.521534465,1744363033,504608074,piren,0.03932935438556334,0.020891364825365424,-0.016584994583121307,0.01747831515967846,4.309150608605705e-05,-0.005626181935173005
2025/04/11 11:17:14.676584250,1744363034,662831128,piren,0.1232089355151401,0.017389291967265134,0.0026058429420685557,0.004832042381167412,0.011192764155566692,0.006293445801243951
2025/04/11 11:17:15.795721198,1744363035,785945204,piren,0.05442824621618449,0.0632700956626648,0.011856558435653048,0.020594162866473198,0.0029437514021992683,0.025630730996729557
2025/04/11 11:17:16.733962739,1744363036,725638620,piren,-0.01681360305744882,0.09238989021559955,0.00810584277365924,-0.008573719300329685,-0.00439617782831192,0.04320975592433293
2025/04/11 11:17:17.716210581,1744363037,700911956,piren,-0.022320049643531167,0.09482447801929066,-0.003834447585762839,0.020765889436006546,-0.003998786211013794,0.04522017517155219
2025/04/11 11:17:18.776540881,1744363038,767316104,piren,0.005859800140092297,0.057427591819941705,-0.01268019772919056,0.004613807424902916,0.014130103401839733,0.043454232802788935
2025/04/11 11:17:19.852696658,1744363039,844852269,piren,0.05685096898073417,0.04088928204982931,0.002445389846138731,0.01268667634576559,0.0007990790763869882,0.04189959950272906
2025/04/11 11:17:20.865459102,1744363040,860300569,piren,0.017742693038121538,-0.016274975188025738,0.013011406804650866,0.006933823227882385,0.008483598940074444,0.038924166243316766
2025/04/11 11:17:21.931056307,1744363041,925225936,piren,-0.01931120000551808,-0.15252670113204675,0.002627431397706822,0.028065387159585953,-0.0033949168864637613,0.028922478743358702
2025/04/11 11:17:22.969272014,1744363042,957704853,piren,0.02017938248582133,-0.2556481281562812,-0.016654657414744724,0.00887899287045002,-0.0003304621495772153,0.01320437305953436
2025/04/11 11:17:23.958840471,1744363043,952359598,piren,0.03732790285957882,-0.20145217307090224,-0.010280303027468653,0.0060316408053040504,0.008200631476938725,0.0015383709829095685
2025/04/11 11:17:24.933771724,1744363044,922867758,piren,0.029290088733819098,-0.11574603477874935,0.011236388396883873,0.0041728755459189415,-0.0011000976664945483,-0.0017467472881014196
2025/04/11 11:17:26.74276591,1744363046,67535104,piren,0.007057955933646477,-0.06538132220903228,0.008822394995951204,0.010062516666948795,0.005712755490094423,-0.0031462013469691595
2025/04/11 11:17:27.180231485,1744363047,167872201,piren,0.005190202502831122,-0.08629110556703401,0.0036371512565607604,0.016010485589504242,0.00322729186154902,-0.0010010427706745437
2025/04/11 11:17:28.237506686,1744363048,226070003,piren,0.018376638710583315,-0.12601040870158634,-0.005199492175472737,0.008546928875148296,0.004628628492355347,-0.00034964566899953106
2025/04/11 11:17:29.271267686,1744363049,265919786,piren,0.026316973968550803,-0.13494838855276634,-0.0021748929939520664,-0.008446688763797283,0.002736185910180211,0.001065286359457057
2025/04/11 11:17:30.415757872,1744363050,353582807,piren,0.011799267520564092,-0.11311991366510504,0.01537406351076233,0.003073818748816848,-0.00383541127666831,0.0008161803472422844
2025/04/11 11:17:31.489189424,1744363051,472222213,piren,0.028110128997218375,-0.08554040221388298,0.01725685758716499,0.01743883080780506,0.0008900861139409244,-0.0001519858276148021
2025/04/11 11:17:32.431652039,1744363052,392529747,piren,0.03144230975492511,-0.09643156032325371,-0.0009832063461432013,0.017511537298560143,0.0019763787277042866,-0.0003304169280679411
2025/04/11 11:17:33.492954513,1744363053,475820936,piren,0.043809532153613794,-0.08860494935834161,-0.010191966571096694,0.014081757515668869,0.009330911561846733,0.0003654127870442211
2025/04/11 11:17:34.488627771,1744363054,477742405,piren,0.03778025649442035,-0.10460890393114844,-0.009187612433862662,0.0016797464340925217,0.0029938151128590107,-0.0002445774181918928
2025/04/11 11:17:35.381192589,1744363055,370946805,piren,0.031486166023182625,-0.1096008502328916,-0.00216667001492406,0.02836243435740471,-0.010510801337659359,0.00027234979340185823
2025/04/11 11:17:36.366298758,1744363056,354327929,piren,0.05533503194549204,-0.11267222686001353,0.005923285800412165,0.029541276395320892,0.010763091035187244,-0.0005155027834938204
2025/04/11 11:17:37.355057474,1744363057,347951425,piren,0.041961349131770395,-0.10349112937474295,0.003972244012783128,-0.0014768179971724749,0.0014488321030512452,0.0004720303976022778
2025/04/11 11:17:38.308701668,1744363058,289244729,piren,0.03387926337866239,-0.0919336834727803,-0.00910874622753122,0.033607643097639084,-0.00014677266881335527,0.00025759966299253713
2025/04/11 11:17:39.252821001,1744363059,242624881,piren,0.029787481393918746,-0.08454668734502795,-0.007174624360436702,-0.0059075728058815,0.00034671524190343916,-0.00016562717621840419
2025/04/11 11:17:40.312400866,1744363060,301739496,piren,0.030827599547410423,-0.08107607541023773,-0.0036496189070988764,0.025508340448141098,0.008991358801722527,-9.993776741238424e-05
2025/04/11 11:17:41.528838316,1744363061,502323086,piren,-0.0008683364711260626,-0.046039439970445725,0.006430554509046167,-0.010349295102059841,-0.005784602370113134,0.012239301714158709
2025/04/11 11:17:42.578528670,1744363062,564326028,piren,-0.0071513563268809635,0.0255694482320903,0.020168850034372004,0.007656610105186701,-0.00177804846316576,0.031665975605474184
2025/04/11 11:17:43.585308890,1744363063,575332477,piren,0.12330641446199014,0.057635898462649285,0.011338615428644422,0.021193426102399826,-0.0033575769048184156,-0.017382248949230336
2025/04/11 11:17:44.549401869,1744363064,543861511,piren,0.0919627544252079,0.013187997198474272,-0.008732189164163722,0.011284257285296917,0.0033017336390912533,-0.0027224273023311292
2025/04/11 11:17:45.436361602,1744363065,424687749,piren,0.021267841160215448,-0.01950128709759176,-0.018198228190698367,0.0071909502148628235,0.002120662247762084,0.007169160518837746
2025/04/11 11:17:46.483042108,1744363066,467969643,piren,0.012964525773850164,-0.02253191431045727,0.00037065296071991244,0.014827183447778225,0.006863071117550135,-0.009078217590372731
2025/04/11 11:17:47.553178437,1744363067,547535120,piren,0.024093963179143335,-0.007308870048291487,0.008939342900157403,0.012831378728151321,-0.007047310005873442,0.006695221067726815
2025/04/11 11:17:48.615881117,1744363068,600638396,piren,0.04624040232165488,0.014371453324747357,0.0025790187607753028,0.018863100558519363,0.0013620901154354215,-0.005062471106038181
2025/04/11 11:17:49.643604912,1744363069,635239453,piren,0.025886776357492536,0.010131980351434117,-0.01349720439371263,0.016994262114167213,0.006680503487586975,0.0024475647740934913
2025/04/11 11:17:50.634786097,1744363070,619796562,piren,-0.0014254501400274497,0.008175677319195324,-0.016759932334395083,0.004754859954118729,0.0010648228926584125,-0.0012415212946804645
2025/04/11 11:17:51.597760573,1744363071,589279102,piren,-0.03276698997481172,0.055429641193222565,-0.022698004026642685,0.011876773089170456,0.014945377595722675,-0.025585304181210484
2025/04/11 11:17:52.687980173,1744363072,679279175,piren,-0.11787037410463208,0.252149971100516,-0.00488163743196433,0.022192956879734993,0.004164929036051035,-0.06585121429150088
2025/04/11 11:17:53.779910142,1744363073,768450818,piren,-0.25512666715239907,0.4659227607362479,0.022873008784523467,0.011850912123918533,0.012978547252714634,-0.10056725556582567
2025/04/11 11:17:54.888920549,1744363074,876521028,piren,-0.3244310220219859,0.5961117302425916,0.03935032448873121,0.015838056802749634,0.005171759054064751,-0.09412056077033823
2025/04/11 11:17:55.988462931,1744363075,979480888,piren,-0.23680739648325477,0.5285269807453002,0.003880715652763815,0.010472089983522892,0.008407656103372574,-0.06813732650301892
2025/04/11 11:17:57.72575704,1744363077,34178324,piren,-0.0563615444046264,0.3497559301405997,-0.022363471011914365,0.007966971024870872,0.005783791188150644,-0.04623680065028764
2025/04/11 11:17:58.119022369,1744363078,102736363,piren,0.024633424941180163,0.1344823602439644,-0.015016957840600847,0.010431446135044098,0.006367705762386322,-0.036083525370379795
2025/04/11 11:17:59.179725944,1744363079,171864345,piren,-0.07425492883749037,-0.054934596529347124,-0.01197451510026904,0.013718966394662857,-0.0030625860672444105,-0.03575091740620405
2025/04/11 11:18:00.148863084,1744363080,140197337,piren,-0.21985792780624258,-0.10636162084119882,0.004889817995513019,0.01100768893957138,0.006206823978573084,-0.039928947697309265
2025/04/11 11:18:01.50328886,1744363081,44127550,piren,-0.31130006507216884,-0.04944524537422717,0.006119448929251709,0.0010112767340615392,0.0022644121199846268,-0.031897094490994364
2025/04/11 11:18:02.35651853,1744363081,987025576,piren,-0.3052602329194088,0.019985301738597396,0.009681253534364392,0.0010220254771411419,-0.0026185305323451757,-0.019130123180621673
2025/04/11 11:18:02.913320946,1744363082,904107512,piren,-0.2355360778179375,0.020845614368954324,0.003502824445081293,0.008709062822163105,-0.0006439538556151092,0.0022350279500766216
2025/04/11 11:18:03.982263156,1744363083,945597012,piren,-0.1508932571023707,-0.06818886426717677,-0.006716319760346416,0.013149410486221313,0.028432270511984825,0.032747964875553
2025/04/11 11:18:04.983982629,1744363084,974188353,piren,-0.14399203405021133,-0.1318095193984848,-0.006629890406998222,0.008272743783891201,0.002979513257741928,0.058520364818335224
2025/04/11 11:18:05.943188312,1744363085,921603423,piren,-0.14619267849145678,-0.15671348074120056,0.0010055841957011102,0.0069150496274232864,0.009453502483665943,0.07459999017341323
2025/04/11 11:18:06.946009563,1744363086,935491368,piren,-0.16656927822682527,-0.09482350611178869,0.006527124900838905,0.011018612422049046,-0.0022888043895363808,0.0776252439194776
2025/04/11 11:18:07.996590440,1744363087,988875632,piren,-0.16640991399551702,-0.038147769703209884,-0.017855261808796378,0.008817263878881931,0.01083744689822197,0.06867373062722855
2025/04/11 11:18:09.138830975,1744363089,124777073,piren,-0.16086893967528804,0.012184020719177825,-0.02940671721439694,0.01202039048075676,0.0026097276713699102,0.05618554427198321
2025/04/11 11:18:10.150617072,1744363090,136582982,piren,-0.15627270839297588,0.1355512229041776,0.006597253186356417,0.00411382969468832,0.004588448908179998,0.027329570726645012
2025/04/11 11:18:11.191087929,1744363091,176298720,piren,-0.18758030482144938,0.22273096896824401,0.031016452161804767,0.008224776946008205,0.00028067268431186676,-0.002562033848504643
2025/04/11 11:18:12.410524987,1744363092,399241019,piren,-0.23404883161181267,0.20223739611828906,0.016174297920230077,0.012887603603303432,0.0035079000517725945,-0.00801321444788656
2025/04/11 11:18:13.493686711,1744363093,452180588,piren,-0.23847894285515855,0.1312944194496592,-0.015114232270468715,0.013800738379359245,0.008596102707087994,0.0018973355437659823
2025/04/11 11:18:14.509902917,1744363094,504797048,piren,-0.15244990811586384,0.06801494533628984,-0.02100855826603843,0.008760055527091026,9.382855205330998e-05,0.0027811133116654578
2025/04/11 11:18:15.416695039,1744363095,406641661,piren,-0.06642114174956086,0.06393476524808621,-0.009076099165486181,0.00920941773802042,0.015902068465948105,0.004376189674371485
2025/04/11 11:18:16.402424545,1744363096,393707888,piren,-0.06444762292233017,0.09453982486374998,0.0010598318136827798,0.013170749880373478,0.0045560197904706,0.004214011827749212
2025/04/11 11:18:17.494133011,1744363097,487356222,piren,-0.10992049103438156,0.12743971061736348,0.016995373480722165,0.017238300293684006,0.004125636070966721,0.007518592130570916
2025/04/11 11:18:18.489718775,1744363098,474918847,piren,-0.13675404192717913,0.11761197628074997,0.013427575837789519,0.007968680933117867,0.004648899659514427,0.006792967533945145
2025/04/11 11:18:19.511349098,1744363099,499823502,piren,-0.11068451556627686,-0.007932246544078494,0.01080356707729483,0.01890568807721138,0.00325402757152915,0.011203362672597824
2025/04/11 11:18:20.565020869,1744363100,556000997,piren,-0.058434869429288556,-0.2808126014710072,-0.029032308087386223,0.010270723141729832,0.000587554182857275,0.02078252082371508
2025/04/11 11:18:21.630653172,1744363101,617201507,piren,-0.010450606366794166,-0.3685518777847394,-0.014625564561436119,0.00906513724476099,0.003078185487538576,0.022683566277881657
2025/04/11 11:18:22.735068375,1744363102,711018427,piren,0.0353314444322904,-0.2794112877261798,0.0018750696490882467,0.013087996281683445,0.006111107766628265,0.01768448832927263
2025/04/11 11:18:23.662813509,1744363103,658443992,piren,0.08015724912563646,-0.12287850079301302,0.018852308763126657,0.01606077514588833,0.0075248489156365395,0.01093646082713665
2025/04/11 11:18:24.622131781,1744363104,613579548,piren,0.07805190514677623,-0.05019891152405785,0.008610827223515017,0.009307647123932838,-0.0025637068320065737,0.008162831712220342
2025/04/11 11:18:25.597788566,1744363105,587060922,piren,0.052632762610733054,-0.06452807229434279,0.0025582224665810296,0.012329215183854103,0.0008492430788464844,0.007345281031115446
2025/04/11 11:18:26.615223222,1744363106,603171032,piren,0.036978923340825434,-0.13022745751677597,-0.012375500562797112,0.010839986614882946,0.007425785064697266,0.006900557394784881
2025/04/11 11:18:27.562674062,1744363107,553504791,piren,0.03059923648020221,-0.1707709617288858,-0.009549617558275356,0.008288842625916004,0.004901229403913021,0.00995849702544426
2025/04/11 11:18:28.570196271,1744363108,518991771,piren,0.020023116968627522,-0.16653776435305212,0.0023000305737013067,0.012724821455776691,0.00448756106197834,0.022451158305355077
2025/04/11 11:18:29.585462226,1744363109,546427463,piren,0.03861074527917471,-0.11483910947208664,0.012060287910332946,0.009294102899730206,0.010915786027908325,0.032835815115263046
2025/04/11 11:18:30.594682406,1744363110,587359813,piren,0.06985117254871501,-0.07787853731206291,0.0076790165014528075,0.008693140000104904,0.003857768839225173,0.024898140878752265
2025/04/11 11:18:31.570343701,1744363111,564243901,piren,0.07661626369726936,-0.07187230057443253,-0.0035197148812586487,0.012807212769985199,0.009574790485203266,0.020696965487248652
2025/04/11 11:18:32.649274210,1744363112,598592472,piren,0.03311993627762594,-0.09492736013417039,-0.0026237018677648916,0.016867784783244133,0.003515277523547411,0.019042916994811754
2025/04/11 11:18:33.690031303,1744363113,665484818,piren,0.010546752272102725,-0.10812565550077147,0.0054853471217255825,0.010747279040515423,0.010208717547357082,0.018440668518678736
2025/04/11 11:18:34.718958726,1744363114,712383456,piren,0.020744739247402225,-0.10002077796725665,-0.0006388736330166988,0.009841624647378922,-0.0004103607207071036,0.01691490166105457
2025/04/11 11:18:35.745546925,1744363115,736663881,piren,0.007733225085530553,-0.09225612237823974,-0.004977736700607335,0.007691042497754097,0.016325993463397026,0.016524438045560183
2025/04/11 11:18:36.719790298,1744363116,688137286,piren,0.021258027114913508,-0.10108773118881821,-0.013451532769244164,0.012059387750923634,-0.002425771439447999,0.01358474451098724
2025/04/11 11:18:37.774562683,1744363117,766440096,piren,0.04872051522017945,-0.015613937123998986,-0.0016569831825507721,0.019008295610547066,0.010547466576099396,-0.007739768449803641
2025/04/11 11:18:38.859633529,1744363118,851623632,piren,0.0009360060126481565,0.12061723879414761,-0.00014397659405754586,0.013639367185533047,0.0011801824439316988,-0.050570680032727515
2025/04/11 11:18:39.907084302,1744363119,892218981,piren,-0.11881831394280207,0.25391443965490884,0.012062092684294513,0.0030371490865945816,0.003394059371203184,-0.09656961543141163
2025/04/11 11:18:40.945861440,1744363120,931270067,piren,-0.24292493242633106,0.2674465635813246,0.014846754679797316,0.009844106622040272,0.0025308779440820217,-0.11155329415840043
2025/04/11 11:18:41.896089570,1744363121,888413690,piren,-0.254571082856478,0.2070867652442755,0.0009609287547788364,0.013048483058810234,0.0037077441811561584,-0.12071301531831273
2025/04/11 11:18:43.26285636,1744363123,10862725,piren,-0.08104430882244754,0.1123381942958074,-0.006392510012318649,0.00501763541251421,0.010333727113902569,-0.14293808894372753
2025/04/11 11:18:43.968830925,1744363123,939476125,piren,-0.04535044429885614,0.12811083036267495,-0.01662829960505415,0.007917871698737144,-0.0015838759718462825,-0.14190559839766909
2025/04/11 11:18:44.915664953,1744363124,908723864,piren,-0.05342925722911798,0.1623576619473167,-0.009533278098234729,0.007507831323891878,0.007018196862190962,-0.11487889701188136
2025/04/11 11:18:45.845678663,1744363125,812823367,piren,-0.10061491522074004,0.1704274021170929,0.0036798756334120684,0.008098348043859005,-0.004515550099313259,-0.07430724900480713
2025/04/11 11:18:46.806621319,1744363126,798209956,piren,-0.10641037167044953,0.14156819843592505,0.01738156720967926,0.012623582035303116,0.0014410008443519473,-0.034908948404201466
2025/04/11 11:18:47.873155691,1744363127,864061738,piren,-0.09569317424013672,0.07801861672105564,0.009430142208350291,0.00028092635329812765,-0.002350634429603815,0.0068798692536874454
2025/04/11 11:18:48.916816416,1744363128,855414045,piren,-0.05517437976618578,0.025411045804139346,0.000633888922368344,0.010469187051057816,0.0073851062916219234,0.03139779282916496
2025/04/11 11:18:50.3509922,1744363129,987202144,piren,-0.020152662693499336,0.010125215939660618,-0.008459403986194144,0.004585069138556719,0.0020218552090227604,0.03141742051656473
2025/04/11 11:18:51.223229366,1744363131,214386347,piren,-0.03230744870343198,0.05237418315264199,0.0006291713670633654,0.007480425760149956,0.004040165338665247,0.038414404389267756
2025/04/11 11:18:52.265556247,1744363132,257390812,piren,-0.07825466992555913,0.09620222807898221,0.01310087216323258,0.004447974264621735,0.0017957697855308652,0.058301087493159855
2025/04/11 11:18:53.303746247,1744363133,291825090,piren,-0.09219550479062956,0.08185756514030776,0.0081019156033732,0.005802917759865522,0.0033341078087687492,0.07087707849317276
2025/04/11 11:18:54.237650987,1744363134,227935859,piren,-0.03294435389595957,0.026589462440824482,-0.01037801873263798,0.007644403725862503,0.004164602141827345,0.07005344454336114
2025/04/11 11:18:55.178150485,1744363135,171447559,piren,0.012482836167646269,0.0207680767836789,-0.008292404296145247,0.007819957099854946,0.00797216221690178,0.06811731558638696
2025/04/11 11:18:56.72957720,1744363136,63035765,piren,-0.046740968375138546,0.020274814969343188,-0.023056015732976318,0.0071451785042881966,0.009849075227975845,0.06538843502214062
2025/04/11 11:18:56.965833569,1744363136,956711337,piren,-0.08932931310514515,0.041379025739115366,-0.010560039502877415,0.01587221585214138,0.002770662307739258,0.0653660644192391
2025/04/11 11:18:57.928318292,1744363137,916702087,piren,-0.09536421047478154,0.04051284316537907,0.006715288582694155,0.005906612612307072,0.01762985996901989,0.06415001351273086
2025/04/11 11:18:58.965890160,1744363138,955305815,piren,-0.04639426053820455,0.028727003661697142,0.011473501927110772,0.017331834882497787,-0.001297462615184486,0.06391428528081136
2025/04/11 11:18:59.977851639,1744363139,968954995,piren,0.06264501291921065,-0.0024231069550298898,-0.0054624088532251435,0.009190117940306664,0.008570768870413303,0.05643923163484764
2025/04/11 11:19:01.141516515,1744363141,84134721,piren,-0.007211254885942375,0.03639291112558543,0.005191558730632449,0.005247940309345722,-0.0039538973942399025,0.05205124137331919
2025/04/11 11:19:02.76405147,1744363142,67225779,piren,-0.04666336310538111,0.02410963561196671,0.0015980968239431505,0.012077266350388527,0.009967347607016563,0.044849575005907485
2025/04/11 11:19:03.209515304,1744363143,198410766,piren,-0.048865788717807966,0.00585900937276141,-0.0001827958182333176,0.018130993470549583,-0.004872447811067104,0.029046716264480157
2025/04/11 11:19:04.265856156,1744363144,254884988,piren,-0.03582280572193225,0.00476373358833347,-0.00245232273176167,0.007502376567572355,0.011394666507840157,0.022903999713212424
2025/04/11 11:19:05.446034550,1744363145,395796234,piren,-0.009974338251891039,0.009750006262401929,-0.0040344737413705485,0.008515278808772564,0.0031421957537531853,0.021552189956331944
2025/04/11 11:19:06.556320328,1744363146,548669087,piren,0.07292267415721186,0.05019375501888111,-0.00047267659614372943,0.01590028777718544,0.00277295452542603,0.02046777345922417
2025/04/11 11:19:07.649761558,1744363147,611314480,piren,0.10767017877963087,0.06108374495834118,-0.006701063711688094,0.0071928659453988075,-0.0005291621782816947,0.014762443464139654
2025/04/11 11:19:08.656461874,1744363148,649288147,piren,0.08085634642495722,0.05117902119727637,0.001017640457320011,0.018417509272694588,0.00449502095580101,-0.0004895328795813435
2025/04/11 11:19:09.617103081,1744363149,608183673,piren,0.02525417624278805,0.023401496922451543,0.0025444669175555086,0.019542669877409935,0.0043877242133021355,-0.004255238462484917
2025/04/11 11:19:10.620686291,1744363150,605235459,piren,0.010293843686895232,-0.01199886594440636,-0.008997263316183637,-0.002865901216864586,0.0032155148219317198,-0.00397035058776379
2025/04/11 11:19:11.617745174,1744363151,605520937,piren,-0.01084825423388349,0.004508909791183898,0.0004782178574543085,0.021597471088171005,0.0021054658573120832,-0.004283934490912766
2025/04/11 11:19:12.584442108,1744363152,579234166,piren,0.014399339746751026,0.017315765840248562,-0.006158953408572744,0.013555522076785564,0.000595152610912919,-0.002850904140227426
2025/04/11 11:19:13.665955038,1744363153,646489724,piren,0.04803111098199213,0.04382052966229799,0.0012205354592594066,0.0027908566407859325,0.001288701663725078,-0.004129625053798246
2025/04/11 11:19:14.693823457,1744363154,656313554,piren,0.057245032620085,0.061513674982233854,0.010201192826178738,-0.0077850595116615295,0.008301355876028538,-0.001399552813052272
2025/04/11 11:19:15.595226742,1744363155,589522793,piren,0.05060049172411698,0.061636051433378955,0.013350751869546582,0.021725747734308243,0.0033153898548334837,-0.003019447106713518
2025/04/11 11:19:16.586932017,1744363156,551585016,piren,0.05280550843649496,0.03190893680311979,0.008409523686532236,0.010471868328750134,-0.0025407015345990658,-0.0009759275104777717
2025/04/11 11:19:17.600245437,1744363157,592874753,piren,0.03559570211211838,0.007585881418162677,0.0037818722173254965,0.018603626638650894,0.004955655429512262,-0.002231585504569188
2025/04/11 11:19:18.586664036,1744363158,581031637,piren,0.01715003637209509,0.011130869857879366,0.006098494065594092,0.010776976123452187,0.003842982230708003,-0.0011018884606298974
2025/04/11 11:19:19.713296625,1744363159,657112864,piren,0.02785003448561827,0.003856332720169809,-0.012226604201708926,0.008039076812565327,0.0036570499651134014,-0.0005661747582461443
2025/04/11 11:19:20.774682527,1744363160,768339029,piren,0.045442038184273656,0.02085577833240655,-0.01939548125493512,0.002319370862096548,0.001168245100416243,-0.005473011296884327
2025/04/11 11:19:21.866129698,1744363161,853745558,piren,0.02347608203185689,0.11680426798047824,-0.00590931407097638,0.008895615115761757,0.005522741470485926,-0.02531029172471601
2025/04/11 11:19:23.23234003,1744363162,989522772,piren,-0.0391249494896557,0.23594422432779516,0.01327528116189559,0.008547226898372173,0.00985780917108059,-0.06088825755474633
2025/04/11 11:19:24.64691634,1744363164,58839644,piren,-0.14802885857870943,0.2828303373100423,0.022964897502259773,0.0063964067958295345,-0.005694043822586536,-0.07940456708829251
2025/04/11 11:19:25.218215389,1744363165,204776466,piren,-0.15868455551478755,0.21563836263485409,0.006896684881837603,-0.00027132281684316695,0.008837740868330002,-0.08098922674179576
2025/04/11 11:19:26.404721473,1744363166,395397164,piren,-0.10545462936743216,0.1383470551862045,-0.01056313195826429,0.01069660671055317,-0.0010184271959587932,-0.06691558824242581
2025/04/11 11:19:27.447028552,1744363167,440291539,piren,-0.05462000958395958,0.12409790692090591,-0.009201001498007696,0.010476755909621716,0.002072023693472147,-0.04323954393344181
2025/04/11 11:19:28.793616577,1744363168,748759702,piren,0.012080417929814645,0.12171781114848254,-0.005999665679758079,0.024210026487708092,-0.0035924334079027176,-0.03121413614937911
2025/04/11 11:19:29.983914401,1744363169,973581872,piren,0.020730096525971818,0.1219922013093308,0.0045893450030006465,0.010440440848469734,0.008535278029739857,-0.022216011597979243
2025/04/11 11:19:31.218389782,1744363171,210983767,piren,-0.04852321037481044,0.13344189670988252,0.010619667580920023,0.007591631263494492,-0.0036095164250582457,-0.010532076276235574
2025/04/11 11:19:32.301239247,1744363172,296273694,piren,-0.0938692450580903,0.1389470543332207,0.0010849189354927534,0.02762966975569725,0.011654755100607872,0.001621307427550676
2025/04/11 11:19:33.280131070,1744363173,249959463,piren,-0.07422032704923832,0.09910850782707693,-0.006272790349623944,0.010820982046425343,0.010979875922203064,0.0073760320968802185
2025/04/11 11:19:34.272401090,1744363174,267353342,piren,-0.03150818306448865,0.06872194060142628,-0.01668949516337089,0.022208761423826218,0.00784403644502163,0.008790481310962979
2025/04/11 11:19:35.177533894,1744363175,170088883,piren,0.04152052702108893,0.04274596778650429,-0.014347246154488952,0.01599135622382164,0.008980649523437023,0.008940660114402066
2025/04/11 11:19:36.166170996,1744363176,119501675,piren,-0.010415400264400992,0.08510212341625428,0.0061861723364017,0.010000072419643402,-0.0002487861493136734,0.009386823702959965
2025/04/11 11:19:37.59092167,1744363177,53335623,piren,-0.03907348856478176,0.12777107674446578,0.01564111768576585,0.010085878893733025,-0.008703100495040417,0.009131608598093066
2025/04/11 11:19:38.172563954,1744363178,131987967,piren,-0.06018902385067132,0.16187160804802242,0.024699791947568786,0.03758757561445236,0.004848335403949022,0.009488240616761488
2025/04/11 11:19:39.227842659,1744363179,217384410,piren,-0.03805080580407331,0.07015060286739735,-0.0233442911442638,0.0036854781210422516,0.00971889216452837,0.005955896369332772
2025/04/11 11:19:40.285309979,1744363180,270990083,piren,-0.002858529267109694,0.11752976787429342,-0.02658205859739278,0.015924112871289253,0.006982728373259306,-0.012193159466453071
2025/04/11 11:19:41.453635822,1744363181,440939244,piren,0.024184440824296764,0.33185729406286535,0.005164672578143743,0.0024466062895953655,0.0009636569884605706,-0.04845570505697554
2025/04/11 11:19:42.664328086,1744363182,614623203,piren,-0.04591899550368917,0.5439039510954897,0.020156698865446195,0.01674620807170868,0.0017237315187230706,-0.0914994880363757
2025/04/11 11:19:43.712068485,1744363183,699739564,piren,-0.1321735691643199,0.64930094805768,0.01413454498726869,0.018001697957515717,-0.0031129061244428158,-0.1142862638656814
2025/04/11 11:19:44.776840686,1744363184,762850757,piren,-0.1260457480719425,0.566237426416046,-0.006468061781964799,0.01995735988020897,0.004017139319330454,-0.09898685752005856
2025/04/11 11:19:45.884748307,1744363185,830006461,piren,-0.06060784750877711,0.3626612445197678,0.009511914790652914,0.004591703414916992,-0.0021520701702684164,-0.08524804385519681
2025/04/11 11:19:46.880418053,1744363186,866593291,piren,-0.04770216926081058,0.10799793853548167,0.012725008825083156,0.015448318794369698,-0.0002596540143713355,-0.07972562459472313
2025/04/11 11:19:47.837400369,1744363187,831992038,piren,-0.1967320392512648,-0.0297296229611676,-0.0056792805141868494,0.010093089193105698,0.003334860084578395,-0.06531888929298454
2025/04/11 11:19:48.801308991,1744363188,787162775,piren,-0.3389975321097609,-0.058155924735729184,-0.011486214412207211,0.008370522409677505,0.005068102385848761,-0.05077291754913883
2025/04/11 11:19:49.864782008,1744363189,834878357,piren,-0.4053546494279999,-0.013095690758382392,-0.02159075314006609,0.00648973323404789,0.0026914358604699373,-0.037512535360668765
2025/04/11 11:19:50.942885289,1744363190,933640176,piren,-0.2817390843169733,0.052602557940553976,0.006638264496558483,0.020081421360373497,0.004655033349990845,-0.038408570155806954
2025/04/11 11:19:51.954482021,1744363191,936531820,piren,-0.15403324329688534,0.027496951570355904,0.008839865156340826,0.006828500889241695,0.004035509657114744,-0.042044444394680094
2025/04/11 11:19:52.964624710,1744363192,954550913,piren,-0.026238050811298347,-0.12031845385172359,0.018598512787997283,0.013768344186246395,0.0060792043805122375,-0.04769958930308085
2025/04/11 11:19:54.115794789,1744363194,75293201,piren,0.022664307180980316,-0.31091495034979755,-0.0013913859278489801,0.006635820027440786,-0.0002131082146661356,-0.045068454944096115
2025/04/11 11:19:55.213006225,1744363195,198025844,piren,-0.0018072154375659427,-0.3312578826014943,-0.008818122185005087,0.013991146348416805,0.010605700314044952,-0.04485989307533403
2025/04/11 11:19:56.418610472,1744363196,386931428,piren,-0.05777012079443015,-0.2182779635544649,0.004421055601795749,0.01476973295211792,-0.0007003513746894896,-0.04152843808356751
2025/04/11 11:19:57.450276620,1744363197,439331335,piren,-0.07491511454315972,-0.09399846059550339,0.008982502765621708,0.015422332100570202,-0.003346996381878853,-0.038211904618494205
2025/04/11 11:19:58.512098198,1744363198,505776721,piren,-0.042945950930152355,-0.08558840072910255,0.0008225913674947578,0.006886181887239218,0.0023890777956694365,-0.03619893454081211
2025/04/11 11:19:59.501750077,1744363199,472429439,piren,-0.0008650798384451652,-0.12481159533654147,-0.00015847439769354696,0.008916066959500313,0.0023564500734210014,-0.03010344830673606
2025/04/11 11:20:00.400468811,1744363200,394218617,piren,0.015877012772239102,-0.14869314572879386,-0.014169358596575513,0.01602022722363472,0.00851090345531702,-0.013427585000124472
2025/04/11 11:20:01.337065336,1744363201,330185304,piren,0.015080760037358193,-0.13052484001382264,-0.015352987491718387,0.002427141647785902,0.00926967803388834,0.011011538696250722
2025/04/11 11:20:02.294330975,1744363202,258145490,piren,-0.009452181309529841,-0.10107836946826876,-0.0016047544228343681,0.011849821545183659,0.007865579798817635,0.039477033342587994
2025/04/11 11:20:03.195284050,1744363203,188332591,piren,-0.02851097967507034,-0.06825750055413676,0.012964313518926835,0.00943915918469429,0.0001785816712072119,0.0687013626343171
2025/04/11 11:20:04.262180112,1744363204,200609156,piren,-0.028170621064941805,-0.06288634527718398,0.0020597816601763477,0.024384256452322006,0.0046045188792049885,0.09581496231987684
2025/04/11 11:20:05.305113048,1744363205,295467544,piren,0.0029704696537691776,-0.0576721074885428,-0.016430192597090446,-0.006880654953420162,0.0025908024981617928,0.119810851921142
2025/04/11 11:20:06.485329129,1744363206,478496687,piren,0.04952941126264246,-0.083068864053712,-0.010510348513514692,0.018439896404743195,0.00561453215777874,0.11739577933232022
2025/04/11 11:20:07.471814346,1744363207,466087541,piren,0.14184588533489656,-0.12664788384772704,0.0030883724059321115,0.004260283894836903,0.0024188044480979443,0.10102308772795762
2025/04/11 11:20:08.370082980,1744363208,363232709,piren,0.16026203533801886,-0.11836567862774258,0.020178009554706382,0.017286047339439392,0.001031584688462317,0.087379962820854
2025/04/11 11:20:09.372161060,1744363209,355059501,piren,0.16119358327143796,-0.11160808650693083,0.02012348658312239,0.01204461045563221,0.006964813452214003,0.07021791573967463
2025/04/11 11:20:10.406318905,1744363210,356153565,piren,0.24733772890522226,-0.14483095487576078,6.007355489136626e-05,-0.0013366336934268475,0.015281463973224163,0.05081108581852404
2025/04/11 11:20:11.437332702,1744363211,431374974,piren,0.30547770638472677,-0.18188853328229027,-0.018394973053301646,0.012809481471776962,0.003657481400296092,0.03433922086425433
2025/04/11 11:20:12.544614313,1744363212,535046485,piren,0.28837186884284155,-0.1691872588078696,-0.017621731559171485,0.027237053960561752,0.011941921897232533,0.025207041953776998
2025/04/11 11:20:13.562942364,1744363213,550315487,piren,0.24489905365583117,-0.1329858370767398,-0.003715870885190589,0.006237547844648361,0.013234161771833897,0.020444540598940217
2025/04/11 11:20:14.515343627,1744363214,506429277,piren,0.25842840120187693,-0.13268972108362515,0.015936827714835906,0.009429479017853737,0.0016354462131857872,0.015865349229310176
2025/04/11 11:20:15.482216171,1744363215,474262652,piren,0.31657677057073663,-0.13099641017324767,0.02443644947071552,0.012570003047585487,0.00775742344558239,0.013694683487994132
2025/04/11 11:20:16.571758586,1744363216,556174757,piren,0.2813231145763211,-0.1200111656124137,0.005530163054657939,0.009329062886536121,0.0010083955712616444,0.010604035004238713
2025/04/11 11:20:17.812647124,1744363217,753950824,piren,0.22031442258037254,-0.16491160915666125,-0.04036022677191235,0.002187488367781043,0.008931269869208336,0.008434864837431
2025/04/11 11:20:18.969740498,1744363218,960051722,piren,0.2341797043450924,-0.12557638295438675,-0.0055881675436297434,0.020592710003256798,0.004425595514476299,0.017660179040816664
2025/04/11 11:20:20.64022820,1744363220,50287997,piren,0.2020430321880212,-0.06965762576837745,0.01900159419676006,0.005815816577523947,0.00937574915587902,0.03427359772361941
2025/04/11 11:20:21.225723107,1744363221,218798890,piren,0.19961193773779082,-0.0827146205439932,0.010043444661357533,0.0066315485164523125,-0.003081723814830184,0.03581340184059944
2025/04/11 11:20:22.343912998,1744363222,335683990,piren,0.22287427431060672,-0.13581141516551737,0.009419864923353224,0.01225222833454609,0.0024108935613185167,0.028827077143158308
2025/04/11 11:20:23.451335891,1744363223,431754489,piren,0.1604336958082967,-0.2540345312439969,-0.017433218341472045,0.001804444589652121,0.004404016770422459,0.012487330058319342
2025/04/11 11:20:24.678221959,1744363224,665835294,piren,0.08242318798149875,-0.24818557683429404,-0.007791181528108471,0.018947197124361992,-0.001218063640408218,0.00499079831892277
2025/04/11 11:20:25.927142105,1744363225,912447710,piren,0.057622153552279023,-0.21717352010073243,-0.012201132318063034,0.015491660684347153,-0.0004571436729747802,0.016477245343213386
2025/04/11 11:20:26.931021426,1744363226,923730912,piren,0.05641481923175882,-0.1329590729086705,0.0069711191553039065,0.009762592613697052,0.0020301241893321276,0.02655849707594625
2025/04/11 11:20:28.109787848,1744363228,55401284,piren,0.12040129712429454,-0.12218434072365214,0.010458200077869063,0.006443179212510586,0.00231708656065166,0.026441773374418966
2025/04/11 11:20:29.65378376,1744363229,57577811,piren,0.11837088189995476,-0.12851427308742147,0.007855532327238192,0.006409392226487398,-0.00039887032471597195,0.025657817853979845
2025/04/11 11:20:30.169871888,1744363230,126030689,piren,0.07402163341282622,-0.15065219702137272,-0.013304376896655952,0.009647706523537636,0.0008330315467901528,0.025221578092859864
2025/04/11 11:20:31.64249999,1744363231,35459391,piren,0.05488877465963916,-0.14061051731896457,-0.011486155570207842,0.012218726798892021,0.006332013290375471,0.024106010906817892
2025/04/11 11:20:32.10636760,1744363232,5633274,piren,0.05735951044289314,-0.1314363912797491,0.00394534876644448,0.0057478914968669415,0.005685742013156414,0.022809191177933525
2025/04/11 11:20:33.48009455,1744363233,35929800,piren,0.0718453716162002,-0.12238737592488194,0.0025685312265067333,0.0199389960616827,0.008398517966270447,0.02081634703261239
2025/04/11 11:20:34.4475243,1744363233,997830527,piren,0.0767334728928744,-0.11955170425553677,-0.002140615338794392,0.008700253441929817,0.00410726061090827,0.020693254979209746
2025/04/11 11:20:34.932457865,1744363234,922860714,piren,0.0695795845182146,-0.09713337673019867,-0.0024599347167908,0.022239631041884422,0.0037238607183098793,0.01860032324912641
2025/04/11 11:20:35.833705831,1744363235,826002741,piren,0.05173437435603309,-0.09309951379509601,0.006494996322720594,0.003776054596528411,0.011171719990670681,0.01858959309744163
2025/04/11 11:20:36.867229193,1744363236,858615799,piren,0.04953569957024219,-0.06713448347200045,0.022107197001287115,0.016655847430229187,0.011382628232240677,0.017200075717891304
2025/04/11 11:20:37.997570547,1744363237,987867943,piren,0.07842941071605755,-0.11566623277485649,-0.004914898834596303,0.010847719386219978,0.011073394678533077,0.016469495753707944
2025/04/11 11:20:38.942400886,1744363238,934654662,piren,0.09804180908420213,-0.14248701272372288,-0.023331179832627044,0.018986308947205544,-0.002610304392874241,0.015619307277699373
2025/04/11 11:20:39.895360031,1744363239,873875622,piren,0.05603355300374906,-0.08795278305588014,-0.006431575414524191,0.008098077028989792,0.010446867905557156,0.0145684202298928
2025/04/11 11:20:40.946818660,1744363240,939061232,piren,0.04784403248086156,-0.07363043977347858,-0.0014134427332863613,0.00912734679877758,0.004144177306443453,0.014124566718310423
2025/04/11 11:20:42.16851958,1744363241,974323796,piren,0.051937661259239494,-0.06324455930862329,0.014358703768038961,0.009376268833875656,0.0027578535955399275,0.014406075552503667
2025/04/11 11:20:42.973413269,1744363242,965631931,piren,0.06979550036053289,-0.07944609090354803,0.010150956902827968,0.016779853031039238,0.003401817288249731,0.015255410030136831
2025/04/11 11:20:43.876018273,1744363243,870063457,piren,0.08111398754758731,-0.08830615742372189,-0.016803501164827227,0.013318613171577454,-0.008537658490240574,0.014633074732782655
2025/04/11 11:20:44.798626712,1744363244,746735621,piren,0.07484325232619532,-0.09301161373150549,-0.010520871850690216,0.013754952698946,0.010555258952081203,0.013817360042746862
2025/04/11 11:20:45.694671951,1744363245,668698208,piren,0.06924715502163956,-0.08741916815615709,0.0007686610479423987,0.009295432828366756,0.003224768675863743,0.013851599298929361
2025/04/11 11:20:46.644649920,1744363246,632575562,piren,0.0668699440577938,-0.06933731385488513,0.00559833316378322,0.006132309325039387,0.00026550760958343744,0.014302871286642309
2025/04/11 11:20:47.714973145,1744363247,656117609,piren,0.06541576422675908,-0.05537533295955668,0.008960215460200427,0.0030432099010795355,0.009258066304028034,0.013231124149293429
2025/04/11 11:20:48.634385542,1744363248,623506270,piren,0.06477901042435398,-0.05672421808922095,0.0033182337258153014,0.014035732485353947,0.004589681047946215,0.014085787415773232
2025/04/11 11:20:49.566997319,1744363249,547583719,piren,0.08672719973244504,-0.07786508865301597,0.0018405085252537932,0.011897744610905647,0.0027881625574082136,0.013365349955568756
2025/04/11 11:20:50.557264958,1744363250,515694703,piren,0.07706897022296737,-0.08889633779544978,0.004998984151796915,0.015327448956668377,0.001916288398206234,0.012666870179104193
2025/04/11 11:20:51.535559190,1744363251,528028232,piren,0.04245983778746443,-0.11157568844555511,-0.007390414177774661,0.01209593191742897,0.004831336904317141,0.011922859145531638
2025/04/11 11:20:52.510064267,1744363252,499068443,piren,0.08169026097059479,-0.07710010834744038,-0.010224199838575119,0.013381537050008774,-0.00031694697099737823,0.012737374360751124
2025/04/11 11:20:53.477293202,1744363253,433260320,piren,0.09825479365442781,-0.056463230436566064,-0.000428898730808756,0.023135848343372345,0.002308943308889866,0.012207425612679563
2025/04/11 11:20:54.416970526,1744363254,406627426,piren,0.1306507440564018,-0.043616976200064654,0.003887333157461993,-0.00384105509147048,0.010836613364517689,0.010594856483968646
2025/04/11 11:20:55.479095289,1744363255,471244206,piren,0.09339357703727266,-0.05792190096472053,0.008128813081594811,0.024809526279568672,0.0012082669418305159,0.011808870919507245
2025/04/11 11:20:56.568454846,1744363256,559280019,piren,0.05315856212196188,-0.08123685529972148,0.00166719715603554,0.006908404640853405,-0.004799691494554281,0.010881990206514374
2025/04/11 11:20:57.748048406,1744363257,686556414,piren,0.054542797999238175,-0.09859296297381673,-0.008399309601571845,0.010092905722558498,0.013285966590046883,0.011023268266623825
2025/04/11 11:20:58.807221770,1744363258,796743979,piren,0.08499934362357628,-0.08445306675330369,-0.007552948705836202,0.02097485028207302,0.008140776306390762,0.01012977904253261
2025/04/11 11:20:59.916041756,1744363259,906205185,piren,0.1014409150333676,-0.07241389944319974,-0.0025287546272864765,0.005216917023062706,0.0011825748952105641,0.010114208486828232
2025/04/11 11:21:00.895765626,1744363260,888005117,piren,0.0999412175278166,-0.0714086669848258,0.007620825583512581,0.020440327003598213,0.008416978642344475,0.00994930246346274
2025/04/11 11:21:02.12442736,1744363262,2864508,piren,0.09678840389071859,-0.056448395445841126,0.00017296431834656987,0.009944209828972816,-0.0067373220808804035,0.00960286630780564
2025/04/11 11:21:03.211975335,1744363263,204182349,piren,0.10511461732705804,-0.04834007513727567,-0.0018787445226792865,0.01068643294274807,0.004167953040450811,0.00988911507189493
2025/04/11 11:21:04.225503316,1744363264,213253357,piren,0.08829192305454392,-0.0550668213320024,-3.595818909625146e-05,0.007961946539580822,0.0069820876233279705,0.00875912031352542
2025/04/11 11:21:05.290780938,1744363265,233140695,piren,0.08321312341204241,-0.08130046304559084,-0.0002460898438813243,0.00466330349445343,0.017090894281864166,0.008841887393604003
2025/04/11 11:21:06.383453958,1744363266,377258804,piren,0.06380601077801196,-0.10399517028254206,-0.008951470131512538,0.007567531429231167,0.001969814533367753,0.009230246338214608
2025/04/11 11:21:07.431594843,1744363267,398258045,piren,0.07299770593281203,-0.056505363571159366,-0.0008906524795862392,-0.0005229995003901422,0.006158282980322838,0.008711077530004276
2025/04/11 11:21:08.541326969,1744363268,531985448,piren,0.11299547790902117,0.02383217344176943,0.0028302152417608367,0.002822806593030691,0.009002217091619968,-0.007931572134864635
2025/04/11 11:21:09.640273100,1744363269,602260565,piren,0.09611343251203827,0.08826673855819522,0.00919338068958373,0.013445836491882801,0.004857302643358707,-0.04148741266186474
2025/04/11 11:21:10.762588002,1744363270,751762318,piren,0.044015166507119764,0.04061357154441781,-0.011733803683461106,0.009629304520785809,-0.0018005771562457085,-0.04385197454446892
2025/04/11 11:21:11.787023777,1744363271,778705772,piren,-0.03342071214624417,0.01676982105582271,0.009084588629934753,0.007014247123152018,-0.0011731188278645277,-0.041736885106835084
2025/04/11 11:21:12.855659576,1744363272,848110610,piren,-0.0048235679131494735,-0.014779753481161725,0.009341742506256788,0.008060759864747524,0.00802422221750021,-0.03966955890768608
2025/04/11 11:21:13.941798880,1744363273,906617398,piren,0.05957074406317127,0.009981166081160942,-0.00216753204998108,0.009024088270962238,0.0021244403906166553,-0.03766848180186338
2025/04/11 11:21:14.937676824,1744363274,930444278,piren,0.08154588267220782,0.04278865391024725,-0.008733584471963329,0.006783194839954376,0.0030513249803334475,-0.0358347274565553
2025/04/11 11:21:16.62707325,1744363276,21082868,piren,0.06554642164346654,0.045909397352079266,0.003148576241687717,0.016468608751893044,-0.0021453227382153273,-0.034209862784473806
2025/04/11 11:21:17.156126815,1744363277,145377136,piren,0.02356145312492111,0.025520564542239173,0.005416831128763899,0.021144922822713852,0.002894147066399455,-0.0319469379596543
2025/04/11 11:21:18.258463980,1744363278,249490084,piren,0.007670832863914196,0.0036249766462786853,-0.008006849881167087,-0.0006973452400416136,0.003016166854649782,-0.02965444832997056
2025/04/11 11:21:19.278700356,1744363279,250734045,piren,0.00619914001208593,0.006904785164442604,-0.010611689084891029,0.006250219885259867,0.01108477357774973,-0.028075005891427966
2025/04/11 11:21:20.263039607,1744363280,255262622,piren,0.040671493108788974,0.024522583857833395,-0.0021940164737089592,-0.0017598781269043684,0.0038068750873208046,-0.02696058212041376
2025/04/11 11:21:21.294383089,1744363281,287942539,piren,0.051252728860185864,0.0353006163402823,0.0068748448227608176,0.004142110235989094,-0.0012893726816400886,-0.02652401472487518
2025/04/11 11:21:22.404047294,1744363282,365330252,piren,0.04696282704378512,0.037058578817231916,0.00874667398403508,0.004870336037129164,-0.0004949577851220965,-0.025558940031549522
2025/04/11 11:21:23.397769313,1744363283,390185040,piren,0.031048107198648662,0.034512922778594524,0.005644261099246163,0.008067909628152847,0.0018507017521187663,-0.024900627337290433
2025/04/11 11:21:24.474621481,1744363284,427026596,piren,0.027804864432755434,0.01692005518634674,-0.0011936967831673844,0.016315773129463196,0.0010740305297076702,-0.02324530618419423
2025/04/11 11:21:25.499002795,1744363285,491082692,piren,0.038245911896524314,0.0037024356133768897,-0.004180055633799016,0.009733397513628006,0.007777646649628878,-0.021752359942730573
2025/04/11 11:21:26.592709989,1744363286,538808862,piren,0.027395837485960264,0.008805269490403458,0.0017038987411921464,0.0057101137936115265,0.01354143489152193,-0.0200127688496199
2025/04/11 11:21:27.591530576,1744363287,552559445,piren,0.018838116545407436,0.02010495763079221,0.0029994662273963094,0.002108163433149457,-0.002775027882307768,-0.019177993801433604
2025/04/11 11:21:28.601671559,1744363288,596410502,piren,0.03855664072270877,0.02968863050573405,-9.559186673955937e-06,0.011483305133879185,0.0068062348291277885,-0.018680338695708325
2025/04/11 11:21:29.591500288,1744363289,587052352,piren,0.03923582651793816,0.026822786070442684,-0.003703030218554291,0.015802660956978798,0.006789117120206356,-0.01771419407365591
2025/04/11 11:21:30.746858298,1744363290,732327358,piren,0.02706996191125193,0.01885870164296635,0.005824471333954674,0.011718171648681164,0.004798241890966892,-0.017071964155934413
2025/04/11 11:21:31.995660600,1744363291,985811117,piren,0.03676741052925075,-0.0013550705958551984,-0.004445968665874121,0.014142324216663837,0.003507537767291069,-0.015127579955326757
2025/04/11 11:21:33.313386282,1744363293,304126758,piren,0.024459415893033958,0.012332469099237511,0.008313114772840802,0.006917389575392008,0.005262141115963459,-0.013770761745342839
