time,header_stamp_secs,header_stamp_nsecs,header_frame_id,child_frame_id,pose_position_x,pose_position_y,pose_position_z,pose_orientation_x,pose_orientation_y,pose_orientation_z,pose_orientation_w,twist_linear_x,twist_linear_y,twist_linear_z,twist_angular_x,twist_angular_y,twist_angular_z,gps_status
2025/04/05 15:42:02.895778471,1743860522,816786872,piren,vessel_center,-268.33085327190423,-300.8045834367565,2.319021854820333,0.030105031753560663,0.0017838789014225668,0.021358220735655943,0.9993169323323753,0.016567243333565785,-0.005493726164240251,-0.01493675634878476,-0.0002558460069096742,0.016080887900951486,0.0,0
2025/04/05 15:42:02.948764412,1743860522,945187794,piren,vessel_center,-268.32761845406105,-300.84330943864376,2.2993984250998274,-0.010381695998071684,0.0019343591200809472,0.021975183463920665,0.9997027407958454,0.020266293230588418,-0.09040420434530405,-0.055402708658398345,0.0001172855151035983,0.006537144879576359,0.007124755218079855,0
2025/04/05 15:42:02.988811948,1743860522,985179440,piren,vessel_center,-268.3265192657724,-300.80314753128454,2.31557951133015,-0.03508782135699555,0.0015151985550972231,0.022018719656921378,0.9991404930991579,0.020293762703204266,0.009645923232165482,-0.012830457328755554,-0.0001710170148727748,0.001020790268531839,0.0,0
2025/04/05 15:42:03.31565760,1743860523,26207555,piren,vessel_center,-268.327403506406,-300.7317398398946,2.3428580135953205,-0.001267499680975061,-1.2133293577111877e-05,0.021952379858100696,0.9997582139277015,0.01598853081932248,0.1672464222998775,0.049278853560584195,-8.410394868468447e-05,-0.0034799763328962727,0.0,0
2025/04/05 15:42:03.117811628,1743860523,114381498,piren,vessel_center,-268.3290861194611,-300.73426888619554,2.3421094862721463,0.031368766410327105,0.0016394974685424405,0.023276064729060447,0.9992354764281909,0.008876719120962663,0.1263486191666749,0.03722094902043467,0.00044313671685443937,-0.011478614406104582,0.03329846553202814,0
2025/04/05 15:42:03.189177061,1743860523,187130792,piren,vessel_center,-268.32668569395327,-300.7963544906885,2.3152983728753247,0.0029005349600872764,0.0004999774660908446,0.022826345735514803,0.9997351123471865,0.013198939118456111,-0.02611838858501811,-0.026638843072271476,0.0014401316759525599,-0.014838208759581265,0.027644323287776683,0
2025/04/05 15:42:03.226681839,1743860523,223627374,piren,vessel_center,-268.32721454826964,-300.7947705368923,2.3176830355483093,-0.0029170863043929763,0.0011427853436675357,0.02304825418524243,0.9997294447140004,0.010554317854712282,-0.01968838258526317,-0.01836799688640956,2.531540094860464e-06,-0.017676217375905693,0.004671025544553342,0
2025/04/05 15:42:03.298819995,1743860523,295614585,piren,vessel_center,-268.3265062837627,-300.7846001101862,2.3235112713354904,-0.034756313001251676,0.00013115889476128463,0.023098834253404425,0.9991288332142343,0.010896084728801726,0.005214789282673011,-0.003269720206042711,-4.444728303424894e-05,-0.01944830260732718,0.0,0
2025/04/05 15:42:03.333776588,1743860523,331369861,piren,vessel_center,-268.32891254740196,-300.723956303226,2.3480861010126843,-0.002967869117199624,0.0006859216842830096,0.022454051777496844,0.9997432354475422,0.004316593545763682,0.13940994829681644,0.051718846430668694,-0.00040204550337854985,-0.02006398761226495,0.005844697372354924,0
2025/04/05 15:42:03.371176402,1743860523,367469377,piren,vessel_center,-268.32889643553705,-300.7357344777856,2.3453170143400763,0.02863491223199764,0.0009061453288214163,0.022406865196807294,0.9993383576617887,0.003863838197139559,0.09745475956638133,0.03971101571519592,-0.0007477222523125496,-0.019415121326830043,0.0,0
2025/04/05 15:42:03.440881504,1743860523,438619544,piren,vessel_center,-268.32731730547124,-300.7978314540931,2.319608096756514,0.02999031319638059,-0.00108205040064376,0.022618528869814723,0.9992936567561503,0.006941536035265018,-0.05147844409025251,-0.021877955792168655,-0.0007173781824568959,-0.01671186588192215,0.006731797448514215,0
2025/04/05 15:42:03.476715376,1743860523,474130125,piren,vessel_center,-268.32922002343247,-300.84527083172594,2.300106276713771,-0.027952098115646272,-0.0025383939705971325,0.022532071697057208,0.99935206134376,0.0019265325819105804,-0.1510813327715817,-0.0627425709053232,0.0011946924750241468,-0.012875684703004283,0.0,0
2025/04/05 15:42:03.544737567,1743860523,542722646,piren,vessel_center,-268.3352976568498,-300.7821980565374,2.3271922616606986,-0.02961204078906504,-0.0003799899523469771,0.02281194716280117,0.9993010545949527,-0.011794525488176074,0.005834428415255999,0.004406556726040622,0.0011770707724058198,-0.009399341568002293,0.0055909131811860985,0
2025/04/05 15:42:03.580850214,1743860523,578252571,piren,vessel_center,-268.3357909264099,-300.7340931582072,2.3476517465874664,-0.0028088457194509393,0.00014624034551966053,0.02281449167081943,0.9997357590730102,-0.011555399517783367,0.11208838525076377,0.049379435489028255,-0.0005405566285045032,-0.005571573936284854,0.0,0
2025/04/05 15:42:03.654369181,1743860523,651034881,piren,vessel_center,-268.33445394829795,-300.74208441562837,2.346170520589756,-0.0018548413883833891,-0.001679062800420974,0.02309007981643506,0.9997302578823984,-0.006194972151888575,0.07118272067182321,0.035902681845414966,-0.00045715817351008964,0.004515476346159357,0.0057374828481728014,0
2025/04/05 15:42:03.721787663,1743860523,719706105,piren,vessel_center,-268.33596062904775,-300.75271677152284,2.342811579979006,0.0035447134822089474,-0.0014094332072822026,0.023099914738203966,0.9997258836518393,-0.00886012731652954,0.039642090057169,0.024451831263114947,0.001209837124245953,0.009156279367363811,0.0,0
2025/04/05 15:42:03.793214518,1743860523,790454817,piren,vessel_center,-268.33642704368475,-300.76879023463744,2.336521803251147,0.003951633473870721,-0.001174476370187163,0.023577995195268757,0.9997135006294133,-0.008876502322254962,-0.0006505577035562302,0.007655270164539978,0.0013798229924237083,0.01306159695574698,0.02341276985653276,0
2025/04/05 15:42:03.828614000,1743860523,826649203,piren,vessel_center,-268.33582446939545,-300.7802026935134,2.3316352319050266,-0.0028258602498986477,0.0011253333637750336,0.023849612240457736,0.9997109302866745,-0.006558798486639714,-0.025943737658916985,-0.004049265128279805,-7.485218011409324e-05,0.015067224637631618,0.0030033532108176032,0
2025/04/05 15:42:03.901463799,1743860523,898072875,piren,vessel_center,-268.33185021476777,-300.77571836876876,2.3327334695823714,-0.0018284211757767501,-0.005569090274758816,0.023831329432113812,0.999698809565668,0.0037496468917652247,-0.010154424083065647,-0.000699098139476567,-0.0003279611839574977,0.019326963874189,0.0,0
2025/04/05 15:42:04.2802914,1743860523,994950849,piren,vessel_center,-268.34050772024887,-300.7722988766569,2.333045299580945,0.02990470284548921,-0.004541693092600844,0.0236928256073737,0.9992615932709084,-0.01591580129625072,-0.001405183133601282,7.307468647067003e-05,-0.0004546400786287734,0.022454310330061254,0.014632221295531675,0
2025/04/05 15:42:04.51648690,1743860524,47637513,piren,vessel_center,-268.34372503905536,-300.8202164939642,2.3095266077228174,-0.028299329783765124,0.001081790489917871,0.023393296008246574,0.9993251379631137,-0.01957095423199462,-0.10762491828036157,-0.05222879380073923,0.0014439880944634358,0.017302087165224612,-0.0030065045358690463,0
2025/04/05 15:42:04.138806159,1743860524,130835368,piren,vessel_center,-268.3385548130354,-300.7558389088033,2.3336728224314545,-0.02837680759861535,0.0013024558689099207,0.023381242459871686,0.9993229597583825,-0.005855761737893773,0.0477069865228265,0.0073781967332439205,0.0014888498007204353,0.01273801126937583,0.0,0
2025/04/05 15:42:04.197794448,1743860524,190636540,piren,vessel_center,-268.33442028361543,-300.7088177347995,2.3511283580009423,-0.0018981530485592422,0.0018909228416731474,0.02246857827287275,0.9997439594297167,0.004018846705048417,0.14663124159583335,0.045310778892461094,-0.0001493565340657812,0.007592117097889034,-0.017276602032612467,0
2025/04/05 15:42:04.255281647,1743860524,249763498,piren,vessel_center,-268.3299045869218,-300.71622279433296,2.3475427793361856,-0.0024129907035173766,0.0013148764215267488,0.02205390863658092,0.9997530063419215,0.013233745034858656,0.09940407309013667,0.02782764409504946,-0.0003526813513880429,-0.003133299964932785,-0.003743117441287838,0
2025/04/05 15:42:04.359069238,1743860524,356143117,piren,vessel_center,-268.32752590785435,-300.7229711268663,2.3447802200753523,0.003279975779840651,0.00016102877831148147,0.022317857009453556,0.9997455321666218,0.015395578336756442,0.06093262482299965,0.015116573023586608,0.0010644828269986732,-0.01157085747667706,-0.004080250331304723,0
2025/04/05 15:42:04.430711131,1743860524,427628661,piren,vessel_center,-268.327802269371,-300.74233062656106,2.3376321532825246,-0.0013068927067475156,0.00014755360151314775,0.022319450449963786,0.9997500249517374,0.01304003107579774,0.010994461881046531,-0.0024872451813299137,-0.00021031435463052524,-0.014699776857824542,0.0,0
2025/04/05 15:42:04.505281781,1743860524,502391302,piren,vessel_center,-268.32799587121843,-300.74947193845793,2.335713865417802,-0.03403498327846737,-0.0008708879670416456,0.021749158992424692,0.9991835845081252,0.011098505282507174,-0.0061514479397368135,-0.0064624324397795216,-0.0004383629013983919,-0.016866443448916392,-0.02921817444816293,0
2025/04/05 15:42:04.546839900,1743860524,540636160,piren,vessel_center,-268.33155763245287,-300.69994999562147,2.3553866877832452,-0.0032126342541401866,-0.000401072947638342,0.021327407983805172,0.9997673028211777,0.001936842536633775,0.10460591145383719,0.03798737030112516,-0.0009090383705421026,-0.01801274317637009,-0.007078098150793659,0
2025/04/05 15:42:04.588888309,1743860524,582351489,piren,vessel_center,-268.33243689614557,-300.718572564014,2.34954401860815,0.009927994293640387,-0.00041053007141219076,0.021325957947944413,0.9997231966459358,-0.00020721372707157648,0.053076545629301704,0.021323134971815955,-0.0002669392794056306,-0.018081423011777974,0.0,0
2025/04/05 15:42:04.625462500,1743860524,622670760,piren,vessel_center,-268.33248984431236,-300.75460476734787,2.3360852504765717,0.02950475567496459,0.002872449133203536,0.02121641360067984,0.9993353202116209,-0.0003011909128872511,-0.03307888591361855,-0.011029042294115603,-0.0008050092247867265,-0.01890212168777701,0.0,0
2025/04/05 15:42:04.699115280,1743860524,695659698,piren,vessel_center,-268.32575151323044,-300.8135841090203,2.3113218724104296,-0.018054667191642244,0.0014126518527663092,0.0211031569506161,0.9996132703071021,0.014709340038143634,-0.16040398418640445,-0.06481344604169915,0.000934188768289776,-0.018745299655992958,-0.0393827707086952,0
2025/04/05 15:42:04.736076256,1743860524,732522602,piren,vessel_center,-268.32554043175014,-300.7771457916405,2.328022463502861,-0.0027478245171599627,0.001626025055372001,0.020456491697761908,0.9997856457513089,0.013507192464885517,-0.06119365888657678,-0.020331794790555087,-3.571711192061474e-05,-0.017321693392440447,-0.007066225567402968,0
2025/04/05 15:42:04.771594872,1743860524,768758940,piren,vessel_center,-268.3249263755797,-300.7772565877115,2.3299597664574585,-0.02895611923647285,0.001343534248303819,0.020521315675245184,0.9993691078262544,0.013342932045270569,-0.05451279342473692,-0.013724546512065424,0.0008727504882875777,-0.014860922533114305,0.0,0
2025/04/05 15:42:04.843305467,1743860524,840093841,piren,vessel_center,-268.3257301828429,-300.73320365005526,2.348409101534246,-0.01379508015278654,0.0017375205861310035,0.021507810234873956,0.9996719916476062,0.010077961587649039,0.0494949627690409,0.028825669757275095,0.00027400724958056617,-0.011973191845559105,-0.007200724976126815,0
2025/04/05 15:42:04.878677695,1743860524,876554718,piren,vessel_center,-268.324388526469,-300.7278553275939,2.352051853054378,-0.004548611808735124,0.0015851593470538332,0.021491145175903306,0.9997574346207615,0.011918011572743121,0.05577410166274664,0.033655887352467204,-0.000653697059185606,-0.008176911465575335,0.0,0
2025/04/05 15:42:04.950432803,1743860524,948279360,piren,vessel_center,-268.3233582940485,-300.7400708693234,2.348314614969787,0.02753606892004958,0.0018354674243809465,0.02115580017392529,0.9993952311707142,0.012889571002096995,0.022455318703169427,0.021627095307286015,-0.0005804055757171915,-0.0038883763058863477,-0.007672123091986067,0
2025/04/05 15:42:04.991290648,1743860524,988310470,piren,vessel_center,-268.32134362974153,-300.8022344851553,2.3217119583653023,0.025776107130161374,0.0018216994416232013,0.021158995173988778,0.9994421297081618,0.016100646402082926,-0.1179052761086944,-0.0396203207962672,-0.000400933623518231,0.0005288693631795971,0.0,0
2025/04/05 15:42:05.28941069,1743860525,25404741,piren,vessel_center,-268.3199181806354,-300.84323831593707,2.3041916785210446,0.033187323289315396,0.0008529470683040759,0.020937125694734715,0.9992294585438483,0.01745510513251247,-0.1957889682962098,-0.07411170339145637,0.0011997946748370384,0.00503499091511391,-0.007937391995043501,0
2025/04/05 15:42:05.102642376,1743860525,95774924,piren,vessel_center,-268.32036733649255,-300.8836254934256,2.2859286496291835,0.03416899595460929,0.0010701358324584139,0.020946281257815,0.9991959706815389,0.014480255793796457,-0.2633797389034492,-0.10630949101209888,0.0017602282010571906,0.009608060987005744,0.0,0
2025/04/05 15:42:05.140843074,1743860525,136846232,piren,vessel_center,-268.32019220850566,-300.91269394284564,2.272291081064005,0.003216153123737245,0.0005698167890987124,0.020630377388850974,0.9997818358005437,0.013184158839339941,-0.29733075259005026,-0.1242461246121665,0.0022551606630319037,0.013589455118718967,-0.0091393908522347,0
2025/04/05 15:42:05.179654190,1743860525,176667512,piren,vessel_center,-268.322085899641,-300.8802956894368,2.2866574298300395,0.001699050333618692,0.001291606827106068,0.020631382508046088,0.9997848723778404,0.007455391171333757,-0.1910449337806761,-0.07799202549787278,0.0017838554753533246,0.016594119254919357,0.0,0
2025/04/05 15:42:05.256118335,1743860525,253308988,piren,vessel_center,-268.3217652387099,-300.85593704132947,2.29647404461557,0.031288162466080786,0.0022676568345152957,0.01996858445028586,0.9993083429337658,0.006651935213358227,-0.0980526520591405,-0.040312407208625806,0.0012309118496645851,0.01935006476262009,-0.01123740188381972,0
2025/04/05 15:42:05.334159618,1743860525,332246808,piren,vessel_center,-268.31944475753795,-300.8798428576644,2.2836857224921765,0.009668732324364349,0.0014824156412535793,0.019358011805151877,0.9997647650512884,0.011080239621924191,-0.14033234800681324,-0.06430366297573943,0.0030898785550574235,0.018960314207339513,-0.014289946690614003,0
2025/04/05 15:42:05.371551746,1743860525,368919069,piren,vessel_center,-268.31982900876284,-300.8601580846934,2.291188501309407,-0.02443081470125814,0.0014483041880225095,0.019389683873696904,0.9995124200665492,0.008907568342920056,-0.07988216218950524,-0.039976002685061574,0.003381368957647938,0.017520369015336847,0.0,0
2025/04/05 15:42:05.442276360,1743860525,440044674,piren,vessel_center,-268.32087597197886,-300.7866584035315,2.3199994504938695,0.0010848972584579777,0.0018518945186834586,0.01896625564617533,0.9998178207210523,0.005594430278279104,0.09232336340228416,0.028485476092105944,0.0015632082096450626,0.01499952172918048,-0.018716875067544086,0
2025/04/05 15:42:05.479800795,1743860525,476355543,piren,vessel_center,-268.3200480130084,-300.7762537688629,2.323750164034583,0.035123489444336485,0.003978906285689367,0.01886070020085463,0.9991970690419167,0.006789865785322034,0.1048082002455891,0.03353875047231891,0.002076404156254285,0.011407499370686865,0.0,0
2025/04/05 15:42:05.548491864,1743860525,546654101,piren,vessel_center,-268.31442927687294,-300.8244341861434,2.3003850695839314,0.03271398829963741,0.00280891969608271,0.01812913951511482,0.9992963720739277,0.01852689114480199,-0.014688859490160536,-0.02241220291553791,0.0011461875595234852,0.007279208966669211,-0.022380161479501857,0
2025/04/05 15:42:05.588435043,1743860525,584096871,piren,vessel_center,-268.31233064356115,-300.85490758658614,2.2855247596671338,0.003982690170740232,0.0031794859438767143,0.01819921645939701,0.9998213928339404,0.02109176009403199,-0.0807549788171394,-0.05290110764752437,0.0017462737506245612,0.0025624442947814285,0.0,0
2025/04/05 15:42:05.628755614,1743860525,626170913,piren,vessel_center,-268.3103826640289,-300.82830820521673,2.297256553912683,-0.003620230187758353,0.003729537664512841,0.017332503858411646,0.9998362709925035,0.023483314927625537,-0.014223968016767091,-0.02196956301128107,0.0005014793435813225,-0.00274406070650688,-0.030432958061830575,0
2025/04/05 15:42:05.669093163,1743860525,664674002,piren,vessel_center,-268.3079624377275,-300.79678301059226,2.3107751405544636,-0.0005303245525311547,0.002243935081235766,0.0173205004400422,0.9998473302338347,0.026199319342322263,0.05745716212309221,0.010568426283405222,-0.0005381000674840703,-0.007171900508935825,0.0,0
2025/04/05 15:42:05.741318846,1743860525,738881297,piren,vessel_center,-268.307844345944,-300.7796201874457,2.318368340673068,0.004053718539003446,0.0017992958171188186,0.01638811073082532,0.9998558694768178,0.023546756380528673,0.08921400266585865,0.026270818599914026,0.00010776276559939794,-0.01042163942312307,-0.027690209495279082,0
2025/04/05 15:42:05.780573158,1743860525,777730381,piren,vessel_center,-268.3080434985349,-300.7755019767124,2.32051274154572,-0.0016841976901298685,0.0015909533578620436,0.01639909685210274,0.9998628415777782,0.02043204575993513,0.0882459973711781,0.028057134155938957,-0.0006112388863743472,-0.013159857413016156,0.0,0
2025/04/05 15:42:05.820527124,1743860525,817748450,piren,vessel_center,-268.3076507878614,-300.7637401421599,2.325950159625747,0.005136965441942413,0.0013237817068358867,0.016386048290325337,0.9998516673034397,0.01903778905821127,0.10466445347951835,0.03706236181428746,-0.0007574794245542396,-0.01473735127484556,0.0,0
2025/04/05 15:42:05.896294749,1743860525,891863509,piren,vessel_center,-268.30659201598564,-300.7673349432131,2.324955380772281,-0.01747933559340086,0.0007473930589729451,0.012172194123395784,0.9997728501620011,0.019222110747568872,0.08475075780656939,0.030629035050694742,-0.0010309091665791292,-0.01555059277102959,-0.15700427344855922,0
2025/04/05 15:42:05.934207496,1743860525,930234115,piren,vessel_center,-268.3087681105626,-300.73269461846536,2.339495770545003,-0.005472229259069293,0.000684910619257122,0.00959143163768269,0.9999387931486204,0.012246663801761312,0.1523205118039192,0.05954182914738933,-0.0031614633683583766,-0.015311197837905155,-0.03181790813192095,0
2025/04/05 15:42:05.972597050,1743860525,970000715,piren,vessel_center,-268.31068171494684,-300.72893414466387,2.34180701102864,0.003273685413912817,0.00039886307234755357,0.009583950510225585,0.9999486345731354,0.006603788106394856,0.1433937099945075,0.057922176470435606,-0.0026739935265646746,-0.013989775130392885,0.0,0
2025/04/05 15:42:06.44437193,1743860526,42170570,piren,vessel_center,-268.3108803043666,-300.74160483005255,2.3371805723736303,-0.02275171936962883,0.00018448006830159316,0.013376874327677068,0.9996516315527383,0.005389562859136273,0.09841692564546123,0.04084924332572111,-0.0012350723237933765,-0.012333801428641286,-0.03135929857345131,0
2025/04/05 15:42:06.82813369,1743860526,79864404,piren,vessel_center,-268.3077259223101,-300.7073193624538,2.3510290928687296,0.0028512647034816133,-3.384257750443286e-05,0.013368007512930833,0.9999065783959044,0.011786329908045443,0.16340828079692132,0.06697553063302582,-0.003344189535340126,-0.00932292871048337,0.0,0
2025/04/05 15:42:06.153346956,1743860526,151543361,piren,vessel_center,-268.3015937391292,-300.72099145234034,2.345762149354085,0.006927776325696373,-0.00025813427352158513,0.011482083140530407,0.999910046478498,0.0227760037616008,0.09643735533636633,0.04027489944598013,-0.0022113447889832256,-0.0021767676525369433,-0.03325224350944604,0
2025/04/05 15:42:06.226448366,1743860526,224028358,piren,vessel_center,-268.29756021283526,-300.74348034100586,2.3364626411388847,0.005076794420562325,-0.0002469816382488654,0.010258328871823258,0.9999344637761213,0.02919085815083235,0.035471372862548985,0.015019783721128981,-0.002415996418542049,0.0016564003372394743,-0.03828736675936044,0
2025/04/05 15:42:06.298351562,1743860526,295169558,piren,vessel_center,-268.2922341454054,-300.75615539085123,2.3309916870998992,-0.0017408830696968914,-0.0002602711551211073,0.01025513093170255,0.999945865472045,0.03452114614774472,0.003670525617145058,0.001346497532951468,-0.003115102899953795,0.008653836152259859,0.0,0
2025/04/05 15:42:06.369105674,1743860526,366955250,piren,vessel_center,-268.28425785890136,-300.74974118520925,2.332510951208133,0.00766324345367366,-3.987436621614452e-05,0.006545430997484102,0.9999492139318186,0.0476835874163953,0.016738371449856158,0.004353930703606217,-0.0005300635172865567,0.011401283787632643,-0.17840624082317075,0
2025/04/05 15:42:06.441597200,1743860526,438315092,piren,vessel_center,-268.28134849105334,-300.762038683881,2.32626905420965,0.0057074855449808426,-0.00019671834907115774,0.00375346177931259,0.9999766484450106,0.04886919717000636,-0.012447158303893344,-0.010001198789358162,-0.00046369858049236584,0.013750057649786979,-0.03394515579379042,0
2025/04/05 15:42:06.478685339,1743860526,476683291,piren,vessel_center,-268.2797084429538,-300.76636594815125,2.3232249855115854,-0.025639904498895867,0.00016770555908095794,0.003738270015710976,0.9996642398872847,0.04696706924360113,-0.02065149511936336,-0.015631314801466904,-0.00011891906793086817,0.014924522734028018,0.0,0
2025/04/05 15:42:06.536778352,1743860526,534739107,piren,vessel_center,-268.27639004632476,-300.7151811828746,2.3420246190771974,0.00399011317753397,0.00024944560014903544,0.008152059121991411,0.9999587795033327,0.04914904840438793,0.09558906802572043,0.027954461207111227,0.00021385654795088446,0.015288552142986028,-0.03366385191348773,0
2025/04/05 15:42:06.574883002,1743860526,572476930,piren,vessel_center,-268.26867044015415,-300.72738840226975,2.3357777379784377,0.003554157185951217,0.0005446827506785792,0.008153787200928011,0.9999602927325068,0.06074443349771171,0.05764346173746222,0.010908092662952631,0.0006814131161452431,0.014819921147915794,0.0,0
2025/04/05 15:42:06.646554560,1743860526,644414504,piren,vessel_center,-268.2608025461916,-300.7344699215576,2.3315435189870057,0.0011712921929158255,0.00018628196128101125,0.007156109067524222,0.9999736913922505,0.07134524683560811,0.0352888649059884,0.00022930278433211208,0.0006003467099175348,0.013803411891375513,-0.03271825551108302,0
2025/04/05 15:42:06.684762477,1743860526,682624773,piren,vessel_center,-268.2545944932428,-300.7346037483775,2.33017018345,-0.00958350821923346,0.0003627092933023652,0.007154268180498526,0.9999284180675045,0.07687922988329773,0.030903986441899782,-0.002849576171879527,0.0013958448373773587,0.011731792437506041,0.0,0
2025/04/05 15:42:06.723507878,1743860526,720571592,piren,vessel_center,-268.2483131970719,-300.7158741227243,2.3365638309602192,0.002114134030786282,0.0005077578302294357,0.007150334928226534,0.9999720722748711,0.08242632168698946,0.06929868964252879,0.01173348508016854,0.001653277535662217,0.008890514912542847,0.0,0
2025/04/05 15:42:06.794640307,1743860526,792407780,piren,vessel_center,-268.24152713417243,-300.7213467879899,2.3330905219276,0.002308945401084612,0.00019395128258170317,0.0025921972386917904,0.9999939558154892,0.08814591596710669,0.04926257677816526,0.002680591030946892,0.00263055714678149,0.006012384105666986,-0.17229263105806428,0
2025/04/05 15:42:06.832153379,1743860526,829953968,piren,vessel_center,-268.238420923926,-300.72518740882646,2.3304348045094794,-0.021937587319955484,3.0792057672382064e-06,-8.275338430901831e-05,0.9997593387435675,0.08513845936472533,0.03518771240615084,-0.003523175712148792,0.0033363913978447725,0.0029298996276626572,-0.030772700106413545,0
2025/04/05 15:42:06.905080035,1743860526,902520887,piren,vessel_center,-268.23133153743896,-300.6852079206176,2.344612834763007,0.03153900000995291,-0.0003420767606269872,-8.172109281607342e-05,0.9995024601187958,0.08181231149196717,0.11630573821444218,0.02883587325635577,0.0011805674855584697,-0.0030421989198397012,0.0,0
2025/04/05 15:42:06.979859917,1743860526,977367066,piren,vessel_center,-268.22393445488746,-300.747687461173,2.316362997807391,0.030434967172384836,-0.0005027024534958992,0.002025943583605059,0.9995345694952502,0.09037340313134334,-0.033795583997334094,-0.03674322106286117,0.0006552001864935949,-0.005631509866655579,-0.14389008278679818,0
2025/04/05 15:42:07.20066391,1743860527,16832408,piren,vessel_center,-268.219000902214,-300.7901419465419,2.297199044582527,0.007923004886440743,-0.001795141510519562,0.0020211200648155136,0.9999649586531573,0.09134469482778511,-0.1244247927388636,-0.07527677734843377,0.0015106132967223234,-0.007265348040171296,0.0,0
2025/04/05 15:42:07.93628169,1743860527,90949072,piren,vessel_center,-268.2136740786575,-300.78329400920717,2.3008444913011448,0.03132624733631373,-0.0005758422944648655,0.00035337641934170066,0.9995089843310976,0.09267615302551346,-0.09489294536915563,-0.05851584098883732,9.499913399736758e-05,-0.009095066262026077,-0.15155170628826262,0
2025/04/05 15:42:07.133050977,1743860527,129771392,piren,vessel_center,-268.2084276482403,-300.81658367244364,2.2858215945113405,0.02077203228272481,-0.0008079677352123622,-0.0019837921645834253,0.9997819434414847,0.09389444758321586,-0.1581989382028945,-0.0853159759100412,8.434469386768053e-05,-0.010345607872262932,-0.026614169090315998,0
2025/04/05 15:42:07.172297038,1743860527,169561422,piren,vessel_center,-268.2043646820675,-300.8228979242259,2.283631003076819,0.03356411006393047,-0.0008781037205756468,-0.001990685117870595,0.9994341982453041,0.09225727875232222,-0.15425981201888075,-0.08049212094868222,-0.00017848213032252742,-0.01101528394191149,0.0,0
2025/04/05 15:42:07.244900557,1743860527,242723209,piren,vessel_center,-268.1991803996593,-300.84782988355477,2.27231943499995,0.0013046508068367904,-0.001335520197812311,0.0019517431546104658,0.9999963524787138,0.09335115887870414,-0.1923326449018526,-0.09657470918762859,-0.0007932572761859873,-0.010495179738374147,-0.025743774350558277,0
2025/04/05 15:42:07.283629611,1743860527,280972179,piren,vessel_center,-268.19077919384756,-300.81212601421913,2.288999144276643,-0.027840406133137353,-0.0008187119498945474,0.0019422910289067564,0.9996101585131296,0.10142770454112904,-0.09103506643327759,-0.04848733378398696,-0.0004181726143625419,-0.010074159502548129,0.0,0
2025/04/05 15:42:07.356370953,1743860527,354137370,piren,vessel_center,-268.1751612326709,-300.73991795842534,2.3188033552563194,0.002095482926994905,-0.0004941831548646632,0.0005745431904940075,0.9999975173141353,0.11342971608437435,0.09025064126417477,0.02879055123614572,-0.0019149267622336097,-0.00801719961664609,-0.025541370941961704,0
2025/04/05 15:42:07.429136481,1743860527,426660178,piren,vessel_center,-268.1652191751601,-300.7356206557942,2.3222709713543916,-0.02220814603095758,-0.0005109431480626412,0.0005693988640976664,0.9997530760002196,0.12298871367511308,0.08982600174649691,0.03331518056906036,-0.0011335219141251998,-0.006429221499136677,0.0,0
2025/04/05 15:42:07.501699543,1743860527,499222269,piren,vessel_center,-268.1549560687132,-300.6916761198359,2.340902195175495,0.024390574163654814,-0.000619493744208429,-0.0021754367152163317,0.9996999467813161,0.1317980014463046,0.17726422725609212,0.07092926864255583,-0.002589668827475042,-0.004478178238251439,-0.12858411385247817,0
2025/04/05 15:42:07.541178983,1743860527,537611607,piren,vessel_center,-268.14745390341267,-300.73872295874264,2.321161036121629,0.016427870118444866,-0.0008049918575666002,-0.004099266342470399,0.99985632622239,0.1338528629742086,0.052692760549235246,0.019042351549635822,-0.0035482714499742245,-0.002294485535622019,-0.022920138468173198,0
2025/04/05 15:42:07.578580017,1743860527,575589884,piren,vessel_center,-268.1416492638633,-300.7598148976994,2.3128593652659255,-0.027535879890132633,-0.0008785942677260776,-0.0041379258890309025,0.9996118651557343,0.1344844730387194,0.0009879344982897664,-0.0011528178013773954,-0.001913507178520085,0.0002016565079905131,0.0,0
2025/04/05 15:42:07.615362403,1743860527,613516456,piren,vessel_center,-268.1336741797674,-300.70025217659156,2.3370370319489635,0.0053036178144787475,-0.0007803870452044019,-0.004107414503623414,0.9999771956300969,0.13727741567909102,0.13325604936221738,0.05270990273738209,-0.0016269801948272232,0.002529645946764198,0.0,0
2025/04/05 15:42:07.689586425,1743860527,687126801,piren,vessel_center,-268.12218709672874,-300.7129421950534,2.3324580272037747,-0.018491989846104912,-0.0006628156301116372,-0.00319478560627036,0.9998236846223949,0.1471791051055788,0.0898805647233536,0.03653178397571348,-0.0006916344883594429,0.004803393604290774,-0.11369584699049474,0
2025/04/05 15:42:07.727267281,1743860527,725226574,piren,vessel_center,-268.11296317143706,-300.6818548628122,2.34513583555662,0.001626230759080901,-0.0010662756700997912,-0.004930257006330665,0.9999859553991572,0.15137680863776945,0.1490289679806216,0.060666842258759845,-0.002267338252212934,0.007289403444856606,-0.02111800516339382,0
2025/04/05 15:42:07.801543062,1743860527,798658788,piren,vessel_center,-268.0978018420523,-300.6879424028871,2.3426840847667254,-0.022660421626736704,-1.9626637016746215e-05,-0.004954777622175298,0.9997309413463247,0.15117198991083564,0.10678248261328976,0.043521868659852345,-0.00040733024515976837,0.009223087854635229,0.0,0
2025/04/05 15:42:07.873497270,1743860527,871544256,piren,vessel_center,-268.08250806146145,-300.6363415540555,2.3620383940792973,0.016101468545041266,-0.00030229515475772866,-0.004103784417273766,0.9998618956044825,0.16735256557999487,0.2024075593400545,0.0789744895071112,-0.0011374762196420683,0.009534768297634931,-0.1007708497553858,0
2025/04/05 15:42:07.948346952,1743860527,945731432,piren,vessel_center,-268.07292367041146,-300.68445278853665,2.3413215473461744,0.003242967802071218,-0.0001747856315139038,-0.0057674236575336255,0.9999780944771602,0.1698802358867851,0.07275333424145233,0.02406309377609145,0.0005112866303689606,0.009235925468660582,-0.01931394515130617,0
2025/04/05 15:42:07.986346393,1743860527,984255905,piren,vessel_center,-268.06390505651757,-300.69735366502067,2.33573613032604,-0.02654353031996337,0.0001428000281966619,-0.005777578350335341,0.999630951999142,0.1706819778346016,0.03584023555840818,0.008923817409777515,0.001097662904887179,0.00840989784764555,0.0,0
2025/04/05 15:42:08.23742279,1743860528,21996169,piren,vessel_center,-268.05362998507854,-300.65577401382177,2.351405310262549,0.0010641985879710724,-0.000403511707652769,-0.00577849031274781,0.9999826567042913,0.17419224407244652,0.12419264344457646,0.04273805121576285,0.00033238062818817077,0.007642514042743214,0.0,0
2025/04/05 15:42:08.97433627,1743860528,95534923,piren,vessel_center,-268.04236791585043,-300.6725604111424,2.3443431570976974,0.030098556305071213,0.0003202307238187208,-0.005251572779583656,0.9995330886688918,0.1794872566242702,0.07281415260927193,0.022200276259878294,-0.0001191199105993353,0.005711780911302487,-0.09875514914735921,0
2025/04/05 15:42:08.135941069,1743860528,133475282,piren,vessel_center,-268.0320969351817,-300.7326198753832,2.317268717390596,0.002504457007333897,0.0004393993690471328,-0.006849625552172168,0.9999733082703198,0.18197370328871326,-0.06891765277869066,-0.040487598870766306,0.0014921032257837277,0.0033932248086441775,-0.018245031893565505,0
2025/04/05 15:42:08.174902973,1743860528,172443945,piren,vessel_center,-268.02242952854766,-300.72976976399235,2.3187642714585994,0.002649834541750137,0.00039934441195562634,-0.006849459593929515,0.999972951536297,0.18283403171562893,-0.05477095784190109,-0.03257418987568715,0.0018401521996611817,0.0009379436121236411,0.0,0
2025/04/05 15:42:08.249505878,1743860528,247343837,piren,vessel_center,-268.0126410262875,-300.7275619353676,2.319895266463824,0.001716081275143328,0.0004179366816979978,-0.004283519483757172,0.999989265869799,0.1842278806589547,-0.043761309153114186,-0.026431151451179698,0.0017740964747512068,-0.0016871645192859548,-0.01743771408636358,0
2025/04/05 15:42:08.288470574,1743860528,285806567,piren,vessel_center,-268.0006223053747,-300.72427536367917,2.321462666057256,0.0036895430946044146,0.00021849982488964426,-0.004284368163131018,0.9999839917313789,0.19007884582811127,-0.03150147675364619,-0.019954619286732107,0.0024679821723127895,-0.00391680232391132,0.0,0
2025/04/05 15:42:08.326190051,1743860528,324258850,piren,vessel_center,-267.98940514629203,-300.7251590421727,2.3212876153166486,0.002646799583803889,0.0002723175466179175,-0.004842114346260927,0.9999847369954077,0.1939513724615153,-0.029975540026679796,-0.018132957384948606,0.0021512518922984945,-0.005916050935029619,-0.01959255708073005,0
2025/04/05 15:42:08.398474521,1743860528,396767427,piren,vessel_center,-267.9695896701966,-300.72523872904725,2.321502657430309,-0.015500702071732058,0.0002324726927687796,-0.004825800684741316,0.9998681842320425,0.19889239919616553,-0.02410941333155219,-0.01399928628294243,0.0029508575104020994,-0.008928532128649582,0.0,0
2025/04/05 15:42:08.472695809,1743860528,470483344,piren,vessel_center,-267.9575830716114,-300.6940887178507,2.3345813889698928,0.002887506472227849,-1.2759342215347898e-05,-0.006802310925287553,0.9999726949820419,0.20303811715007208,0.047851820273309066,0.016653857080191417,0.0016595531250804395,-0.009631618932534336,-0.07740997826553063,0
2025/04/05 15:42:08.547253168,1743860528,545243033,piren,vessel_center,-267.9375115888165,-300.702060005455,2.3318244018228427,0.007590285214696422,-0.00022679924727212172,-0.008408892997700567,0.9999358112654104,0.20205097306452438,0.022257811932514096,0.00778083975787202,0.000293213620347858,-0.00938645302092747,-0.014480950301765126,0
2025/04/05 15:42:08.621871267,1743860528,619669329,piren,vessel_center,-267.9295651024805,-300.7290127043402,2.3216789615671645,0.031291669784159974,-0.00044623418692418365,-0.008413657233139417,0.9994747833983271,0.19769349727716867,-0.036237226086813595,-0.014155171074530154,-0.0005294029133424311,-0.008423042146555745,0.0,0
2025/04/05 15:42:08.697464778,1743860528,695157565,piren,vessel_center,-267.9076260323674,-300.78295164584097,2.2977005435332334,0.031661759942450726,-0.0005921436389589793,-0.00936279890186412,0.9994546114356473,0.20168248228173974,-0.13702552934682838,-0.05935558034515092,-0.0012611546421896732,-0.005227795935149946,-0.07273159931038224,0
2025/04/05 15:42:08.772092135,1743860528,770083858,piren,vessel_center,-267.8967340268304,-300.83438519168755,2.274779880552448,0.03121910903485724,-0.0005693692512685229,-0.00822958855125263,0.9994785224916054,0.20333221292298725,-0.22902564946916695,-0.10053030870443366,-0.0017881744212994263,-0.0032004714073651597,-0.06794445300610448,0
2025/04/05 15:42:08.846176435,1743860528,843537628,piren,vessel_center,-267.8856619085059,-300.8502364206688,2.2677832161698768,0.016281768352775814,-0.0004994025986434791,-0.008935381237051477,0.9998273918924705,0.20401758104671894,-0.23733969183131134,-0.10426632115291107,-0.0013549787876516856,-0.0008941597132621264,-0.011416135425045323,0
2025/04/05 15:42:08.885334578,1743860528,883176370,piren,vessel_center,-267.87446816030234,-300.83587000277834,2.2749053734408444,-0.0222343533819915,0.00010846616177387674,-0.008943458054987372,0.9997127769128468,0.2057909452679723,-0.17853260504693877,-0.07662962468760072,-0.00019269252366631003,0.001173321846957486,0.0,0
2025/04/05 15:42:08.925156114,1743860528,923131933,piren,vessel_center,-267.8612756245451,-300.7597063536661,2.3070534398773987,-0.02754447530376566,0.00029174804172620196,-0.008943304749570877,0.999580529053801,0.21224333516765903,0.010630687627281643,0.003356130582542166,-0.0010819317165356114,0.003115054225012549,0.0,0
2025/04/05 15:42:09.20079798,1743860529,17947638,piren,vessel_center,-267.83499532020113,-300.69477338867813,2.3335820031847714,0.0023325889165993095,-0.0006110969425205713,-0.009754069636789117,0.9999495205834112,0.22309920572179173,0.15257511751092406,0.0615691382109989,-0.0018303910103105565,0.007098828532351233,-0.058647686080711824,0
2025/04/05 15:42:09.94663381,1743860529,92398710,piren,vessel_center,-267.82359593285435,-300.699961237571,2.3322807318397456,-0.023634771013075706,0.00030115402380634674,-0.008569768114805615,0.999683883024965,0.22779108100198747,0.1269265473765705,0.052979800594359985,-0.00015201609834708508,0.008124104581334059,-0.049583342605095455,0
2025/04/05 15:42:09.135688042,1743860529,131217137,piren,vessel_center,-267.8090603740464,-300.65881679243574,2.3488211740167917,0.02776806875810276,0.0006983041866174955,-0.009298787206196488,0.9995708975781569,0.23451049676082214,0.2041141854024323,0.08379043670961357,-0.003566981078664379,0.007965236683166444,-0.010654184859198675,0
2025/04/05 15:42:09.172059718,1743860529,170304925,piren,vessel_center,-267.7953049528728,-300.7152458410153,2.324092867480813,0.032716419095385356,9.235976754427643e-05,-0.009270123172753438,0.9994216788761441,0.23774426816326005,0.054837133921319614,0.019034046745118174,-0.001936833343136214,0.007977796196507153,0.0,0
2025/04/05 15:42:09.245299047,1743860529,242915989,piren,vessel_center,-267.7831913412654,-300.76406018179694,2.3020818926701425,-0.021105820982813606,0.0011565295286774038,-0.007956571882333468,0.9997449173284013,0.23836065884288465,-0.05973304917210895,-0.03199707124932808,2.3237920642425435e-05,0.00687181556278957,-0.00937883231360429,0
2025/04/05 15:42:09.284047884,1743860529,281860345,piren,vessel_center,-267.7670214776592,-300.70878971870974,2.325155633770574,0.002923023764115013,0.0003890865620551434,-0.00797947239855142,0.9999638156273268,0.24727870622332368,0.0698720166051777,0.022909400940137478,-0.0010016182704809602,0.006167347662490552,0.0,0
2025/04/05 15:42:09.322249780,1743860529,320299461,piren,vessel_center,-267.7531750788105,-300.7093495571734,2.325598274066141,0.01666420814870321,0.00031089159224324266,-0.007980159416567458,0.9998292477062675,0.24941311928528187,0.06053289480928527,0.02123939356641414,-0.0007877502519824228,0.005103439489032361,0.0,0
2025/04/05 15:42:09.402509511,1743860529,397111099,piren,vessel_center,-267.7400645914444,-300.73260562119003,2.315715173270713,-0.020205993212712988,0.0008203105792039045,-0.00908270040883995,0.9997542445431902,0.2503239386499444,0.00199783618063578,-0.003128588365406495,-0.0001383221012384114,0.0037387365449304696,-0.04288083913705762,0
2025/04/05 15:42:09.439424670,1743860529,436552154,piren,vessel_center,-267.72610989691367,-300.6872137408023,2.3342521778848866,-0.0280668159252943,0.0007866559089605987,-0.00959391998180678,0.9995596989253215,0.25237186090412245,0.10264622223271602,0.03843032453388161,0.0011278151108953054,0.0022396432490540056,-0.00845020931452469,0
2025/04/05 15:42:09.477379675,1743860529,474686670,piren,vessel_center,-267.71442650733684,-300.64193523133775,2.352106742510268,-0.02079349951296821,0.0009069483639691245,-0.00959582144655709,0.9997373295188269,0.2552798420895669,0.19389894660166704,0.07460071671755655,0.0011032228034719323,0.0004554525299549915,0.0,0
2025/04/05 15:42:09.515876986,1743860529,513521092,piren,vessel_center,-267.7007210669847,-300.62191010598997,2.3603867422517393,-0.0004746883459383922,0.003032102650941005,-0.00961098114293125,0.9999491037377646,0.25759202762451416,0.21702577301971415,0.08477771249712047,0.0007656031003699726,-0.002467860411880152,0.0,0
2025/04/05 15:42:09.591192022,1743860529,589159628,piren,vessel_center,-267.6828566050409,-300.6426351671772,2.352556746608522,-0.0021422676268411604,0.000419236002901082,-0.009275431264899901,0.9999545996221224,0.268051547808227,0.1463220357849883,0.05774944981255947,0.000588448839010401,-0.003973682511628934,-0.0333249438794651,0
2025/04/05 15:42:09.630547756,1743860529,628634834,piren,vessel_center,-267.6715888598871,-300.6556287370505,2.347772853796419,-0.0217960112508657,0.0005799940810610776,-0.009696298388853731,0.9997152491074508,0.26344184469353416,0.10122727253510733,0.04071754462298349,0.0027194247003643835,-0.0052292648361034425,-0.004766650789506692,0
2025/04/05 15:42:09.670782264,1743860529,668860677,piren,vessel_center,-267.65904217090673,-300.632140088432,2.357234824960124,0.0039064722927195815,0.00011587270149351915,-0.009708414611657269,0.9999452348671258,0.26075308874296743,0.14168782309802794,0.05702329975501916,0.002664097587112492,-0.006127083154804525,0.0,0
2025/04/05 15:42:09.745634079,1743860529,743393847,piren,vessel_center,-267.6479297467441,-300.65963335001226,2.3464798883765634,0.03014916734138932,-0.00011886043052809662,-0.008810190759272137,0.9995065753258476,0.2566115136654843,0.0649139197239498,0.026813891821868104,0.0011204089916548657,-0.0066317866042885625,-0.004082132645731731,0
2025/04/05 15:42:09.785605272,1743860529,783172308,piren,vessel_center,-267.63578885845027,-300.7231848490122,2.318773856699081,-0.001403769062340259,0.0001351899435163059,-0.008809088274585535,0.9999602047681044,0.2535745281360959,-0.08392484446749163,-0.03790028149399739,0.0012781554235974692,-0.006759097146518163,0.0,0
2025/04/05 15:42:09.824860216,1743860529,822849942,piren,vessel_center,-267.6228555153167,-300.716733098554,2.322583314058002,-0.027960675181727627,0.00032822034097256176,-0.008794378928889669,0.9995702835789212,0.25408961857237944,-0.060238127321871934,-0.025211964438681005,0.0027260378854719663,-0.00653663492341947,0.0,0
2025/04/05 15:42:09.901956969,1743860529,899780115,piren,vessel_center,-267.59596939994987,-300.66422885573775,2.3438483244358608,0.00028039636168749314,-0.00010009872006552289,-0.009644161438657317,0.9999534496706693,0.2563465290055318,0.05703754019391512,0.022451688107645668,0.001177634704562127,-0.004896144981613051,-0.016656338686637566,0
2025/04/05 15:42:09.978027292,1743860529,976032020,piren,vessel_center,-267.583515681812,-300.68877687903756,2.335705650340656,-0.012317859050409432,0.00011773259179307216,-0.009361153852296102,0.9998803054796133,0.25515814650057095,-0.00013253305441990673,0.0031120230094194914,0.0007717130039260356,-0.0036770841663137503,-0.015002381156352357,0
2025/04/05 15:42:10.53480091,1743860530,51465608,piren,vessel_center,-267.5697802969243,-300.6742652339271,2.342144349196486,0.030790347508253064,-0.0003730434610319435,-0.009471064914075192,0.9994809224133748,0.2568280816716195,0.03213496482567338,0.017070242056209314,0.00015219979871271695,-0.0021834433089783977,-0.002176239309234908,0
2025/04/05 15:42:10.93390370,1743860530,90456094,piren,vessel_center,-267.55745185939764,-300.73563961299146,2.3151366656775654,-0.012980320264088872,0.002565621393200784,-0.009444757527998095,0.999867853982688,0.2550597419933637,-0.10791713425651264,-0.04489210937385238,0.000898468557153021,-0.0010684687839375216,0.0,0
2025/04/05 15:42:10.132599920,1743860530,129737541,piren,vessel_center,-267.5407541191517,-300.70586439722604,2.328183387234176,0.03026045640207854,-0.0003594155185486201,-0.009007247520857088,0.9995013982436047,0.26973625313589755,-0.032245901752730205,-0.011945568528511148,-0.000847753353767546,-0.0004586244350100686,-0.0013068118440500785,0
2025/04/05 15:42:10.171634689,1743860530,169469176,piren,vessel_center,-267.52752978276334,-300.7570033021307,2.3056642908824063,-0.02204377569190534,0.000115493126579828,-0.009014941731338103,0.9997163544926947,0.26730850442304466,-0.1421012259775574,-0.06058642191678601,0.0002427010565035262,0.0011098456026400207,0.0,0
2025/04/05 15:42:10.245589853,1743860530,243655493,piren,vessel_center,-267.51295179276724,-300.705590962161,2.3271498578061434,0.006173884676256154,-0.00015221154490970695,-0.008990739010334137,0.9999405115264097,0.27015194501686884,-0.01212315525626706,-0.006134866078487351,-0.0010008880128194824,0.0026857721815493865,-4.4851252845015475e-05,0
2025/04/05 15:42:10.285848067,1743860530,282976147,piren,vessel_center,-267.4989657696358,-300.7159382917727,2.323577426829186,0.003006801701217546,0.00012157695213810155,-0.008991310473132013,0.9999550493389942,0.2706206257840676,-0.03374594087526872,-0.013379258277361646,-0.0006531743711303286,0.003934743688915608,0.0,0
2025/04/05 15:42:10.325210557,1743860530,322351876,piren,vessel_center,-267.4844175704934,-300.7176372393508,2.3233358877710133,0.00239678443856677,0.00015795645601245664,-0.008990709406075043,0.9999566978717072,0.2726206289192759,-0.03373886946783329,-0.01241450714481694,-0.0010808004661823657,0.0049593256414235225,0.0,0
2025/04/05 15:42:10.400257999,1743860530,398203346,piren,vessel_center,-267.4553695008296,-300.7180755874631,2.323239453180934,-0.028558493999993478,0.0005574945076161133,-0.008889758422867095,0.999552436751324,0.27582991168401344,-0.027120333274296506,-0.00983500515166867,-0.0011341181216163127,0.006008982258729801,0.001865302759112363,0
2025/04/05 15:42:10.476696899,1743860530,473326423,piren,vessel_center,-267.4389387246494,-300.66420130283467,2.34402477377469,0.0005092477698757245,0.00044052641412956935,-0.008838347154539806,0.9999607143397,0.2811265519334483,0.09568040505328157,0.0374718196495798,-0.0007534445021858744,0.005998867663615128,0.0042075480447478445,0
2025/04/05 15:42:10.553430725,1743860530,551038733,piren,vessel_center,-267.41017037781916,-300.6716289605874,2.3408869043230394,-0.02559585605878662,0.0007854683370536066,-0.008717512388905313,0.9996340531263723,0.28601522901622045,0.05907581571987124,0.022627366385435995,-0.0002427099290550407,0.004880189216572059,0.0012011826515594254,0
2025/04/05 15:42:10.632295505,1743860530,630102376,piren,vessel_center,-267.3930796215343,-300.6357572678021,2.3545560170467597,-0.027194363026475845,0.0008830509218901609,-0.008772967999063309,0.9995912774094926,0.29208201245223786,0.1322221262579666,0.05048721528223146,-0.0005279631508245781,0.003877267104858913,0.0017505282614127839,0
2025/04/05 15:42:10.673646457,1743860530,670365715,piren,vessel_center,-267.37587815198185,-300.6072682475965,2.3652630117627553,-0.024046624712720586,0.0007200471995213871,-0.008782369845737902,0.9996720018845425,0.2959929983142956,0.18001796309458826,0.06835690145974659,0.000572514090161734,0.0026787900200669268,0.0,0
2025/04/05 15:42:10.750981436,1743860530,745944022,piren,vessel_center,-267.36015635863856,-300.59297281666096,2.370653517611519,-0.02695340105767684,0.0014478854417371444,-0.008689019949879103,0.9995978785148968,0.2981597505366608,0.1918576222074995,0.07276868291632034,0.00012820740439832922,0.000687767742330443,0.002546793421082848,0
2025/04/05 15:42:10.788600643,1743860530,786388055,piren,vessel_center,-267.34300864627807,-300.5782649262131,2.3760883395700154,0.0021687783033517614,0.0003277687003198834,-0.008725697057183941,0.999959524770486,0.30253094349391174,0.20283521297060417,0.0766130449027979,-0.0005098396793421348,-0.0005269344729497194,0.0,0
2025/04/05 15:42:10.827524548,1743860530,825865764,piren,vessel_center,-267.32900426645284,-300.617941221048,2.360410973821796,0.0008703260984811432,0.0003331255214328702,-0.008725331745685561,0.9999614993317478,0.3001787322251857,0.09219769162800788,0.03328769671075549,-0.0005381494693159825,-0.0016857586511720792,0.0,0
2025/04/05 15:42:10.907350197,1743860530,904633612,piren,vessel_center,-267.2993059436712,-300.64183239328844,2.3510018041384964,-0.0291778842101899,8.919367381772395e-05,-0.007762326115990085,0.9995440907787783,0.29894177980931996,0.018436956217011025,0.004915411792842696,0.0007092048500328689,-0.003414193683989804,0.017986736611642046,0
2025/04/05 15:42:10.985457578,1743860530,982935641,piren,vessel_center,-267.28415614469037,-300.6116480056852,2.3626316770311653,-0.030026664494527715,7.680337557572917e-05,-0.007964981695604091,0.9995173598228113,0.29835686930687183,0.08349418668144665,0.030232663141146365,0.0007560806803458808,-0.003832948777959747,0.018426157856522338,0
2025/04/05 15:42:11.25352238,1743860531,22687126,piren,vessel_center,-267.268668042532,-300.58884810861446,2.3714347636877324,0.022407577494237618,1.9577904810254206e-05,-0.007971027011765938,0.9997171414034688,0.2985346063956512,0.12459615098550841,0.04633236901789417,-0.000383339428152665,-0.004227663272629787,0.0,0
2025/04/05 15:42:11.101440351,1743860531,99386147,piren,vessel_center,-267.24128485961074,-300.6582393194413,2.3426763885604602,0.013274952866065597,-7.463245605460658e-06,-0.007515968330315506,0.999883636125105,0.2984379399785666,-0.0550564788538844,-0.027039417360817164,0.0026199084168358,-0.004413938330326289,0.020342595021483664,0
2025/04/05 15:42:11.178768646,1743860531,176773281,piren,vessel_center,-267.22503395499035,-300.6970000479185,2.327556700911003,-0.02549193913334219,0.00015550242215360752,-0.007713644971472038,0.9996452553478523,0.298358924842023,-0.13452258599700084,-0.05736263884180175,0.0028409313272298752,-0.0040822233029172055,0.015940150415219612,0
2025/04/05 15:42:11.255231016,1743860531,253117617,piren,vessel_center,-267.1936272987241,-300.6634824543308,2.3415356272611785,-0.028719746466479696,-0.00010199615714736395,-0.00745905216986074,0.9995596672037205,0.301339539429864,-0.02990683846364786,-0.013449545717455602,0.0020237891616943296,-0.0023864542444091094,0.0044219244670864735,0
2025/04/05 15:42:11.333943506,1743860531,329908505,piren,vessel_center,-267.17771447414185,-300.62884905526084,2.3557155360142357,0.024131249481210926,-0.00014890334793115232,-0.007453391796087741,0.9996810029089293,0.30301646552488815,0.05041446931341001,0.01957101241855838,0.0005237324374828947,-0.0014566620245198836,0.0,0
2025/04/05 15:42:11.374787791,1743860531,372376565,piren,vessel_center,-267.1624698844077,-300.6928900232629,2.329187768854114,9.396647850511653e-05,0.0002469911346495688,-0.007466773888776116,0.9999720883371568,0.30253815792416383,-0.0976342460401605,-0.04160658801836774,0.0009185718513597372,-0.0006354904654160082,0.022767802881781273,0
2025/04/05 15:42:11.452672497,1743860531,449156182,piren,vessel_center,-267.1464127700687,-300.6987262938749,2.3280902985753755,0.0010999961980993364,0.00023064266674688118,-0.007095742107822665,0.9999741932951389,0.3047096994942421,-0.09978974392733958,-0.03943586532936727,0.001089007012337599,0.00018343866331995649,0.0044850272907164795,0
2025/04/05 15:42:11.492224194,1743860531,490039161,piren,vessel_center,-267.12998909910124,-300.7042406299451,2.3267216251918468,0.0007883777134324998,0.0001281792366162988,-0.007095547686718511,0.9999745072919058,0.30676311536826684,-0.10076388125639765,-0.03801938931256188,0.0008547738543763785,0.0010009295823208463,0.0,0
2025/04/05 15:42:11.533987601,1743860531,531875640,piren,vessel_center,-267.1140630991307,-300.7071339799881,2.3261324723610786,-9.243252870799492e-05,0.0005770219611754619,-0.007095393511655514,0.9999746566252561,0.3080718606389837,-0.09599724815820933,-0.03510388461788174,0.000633920212052823,0.00118903221829208,0.0,0
2025/04/05 15:42:11.594293035,1743860531,592310945,piren,vessel_center,-267.09714798301314,-300.7073059584787,2.3264457882783915,0.0009677093934406812,0.0001633944454747919,-0.007070432777055302,0.9999745225860158,0.3107128604264289,-0.08548706493893347,-0.030424385480401092,0.0004194918439134262,0.0019919288548582623,0.026694670688588735,0
2025/04/05 15:42:11.635695379,1743860531,633229029,piren,vessel_center,-267.0813974759303,-300.70863805288826,2.3260740843851533,0.0008815159537578416,0.00010351555870913024,-0.006607678210932151,0.9999777751544348,0.31126319389486523,-0.07896800470311915,-0.02787674735904317,0.00013696019204048471,0.002712034904029799,0.005778147472175046,0
2025/04/05 15:42:11.678055559,1743860531,674712044,piren,vessel_center,-267.0650676288385,-300.70901233811253,2.3259590563234953,0.000756870184968385,0.0003646777547443988,-0.006607742574064396,0.9999778157017951,0.3122989372388929,-0.07085452589176326,-0.02497457636163644,-0.0001641705093288283,0.0030817373585522133,0.0,0
2025/04/05 15:42:11.755629471,1743860531,752774002,piren,vessel_center,-267.03432776681507,-300.71024481002723,2.3254172477453166,-0.02912965155787225,0.000670383709832318,-0.007106169572074339,0.9995501569905392,0.31695899159735746,-0.059150956451548484,-0.021088009991665817,-5.81676171466319e-05,0.0032427452458132335,0.006002064333214798,0
2025/04/05 15:42:11.834608848,1743860531,832664017,piren,vessel_center,-267.0157920207259,-300.657993678091,2.3453673646839905,0.011529086064899111,0.00035880678870182345,-0.006849164163848915,0.9999100161426794,0.3207564700775038,0.06395547020069955,0.025738942515415468,-0.0013129736643394078,0.003053358876846843,0.005977715243551188,0
2025/04/05 15:42:11.877338011,1743860531,874456608,piren,vessel_center,-266.99903245793524,-300.68884707248384,2.3324052151836265,-0.02743043687027619,0.000661272442505668,-0.006832813668581215,0.999600143311931,0.32078762202804684,-0.012209181554362084,-0.006127985293958874,2.9938662389170715e-06,0.002661278793250125,0.0,0
2025/04/05 15:42:11.955768399,1743860531,953555384,piren,vessel_center,-266.9651511198018,-300.6455609163684,2.3491273284356615,-0.013121171675054059,0.000513574518871415,-0.006659584857577184,0.9998916046375288,0.3236896093768792,0.08675181842486437,0.0324207296837652,-0.0010916595377126323,0.0015418280186471974,0.006539966141295515,0
2025/04/05 15:42:12.33745824,1743860532,32050774,piren,vessel_center,-266.94830332050066,-300.6386209077961,2.3521983040736707,-0.023991056920930683,0.0009147347434644915,-0.006375847989396072,0.9996914228953763,0.32526559779516906,0.09256302514841137,0.03565344633825512,-0.0002818845265241945,0.00030453033625969117,0.00712523026862208,0
2025/04/05 15:42:12.112921513,1743860532,109313655,piren,vessel_center,-266.9137975176863,-300.61244969164403,2.362381350307749,0.023993654196250363,0.00017430588278730054,-0.0064039355935179105,0.99969158433223,0.32900400282778725,0.12996943319913098,0.050289270298010114,-0.0012579526980183058,-0.0008041541290924686,0.0,0
2025/04/05 15:42:12.192557641,1743860532,187908314,piren,vessel_center,-266.897858464738,-300.6779268277996,2.334565700046291,0.021678659370568155,0.0002103940493814898,-0.005708045757151295,0.9997486732553703,0.32716405736691745,-0.03028897958770302,-0.017233135962548884,-0.0010718707663388428,-0.0013880405427138857,0.032834625699689785,0
2025/04/05 15:42:12.230347304,1743860532,228631200,piren,vessel_center,-266.8832304000638,-300.72111558369295,2.3164831373933517,-0.01849078893533239,0.0002618966112108707,-0.005252482813630486,0.9998151997039285,0.330613753867101,-0.12359293898889462,-0.055893935297108455,-0.0001640120166664389,-0.001860364734457827,0.009206125076752041,0
2025/04/05 15:42:12.270821830,1743860532,268448355,piren,vessel_center,-266.8645143667042,-300.68485813494334,2.3319164346343997,0.014399182562002505,-0.00016473845930650827,-0.0052560430279212835,0.9998824983039132,0.33446974366552246,-0.028905568154413586,-0.015214397881636602,-0.000880949987270026,-0.0019506778305576832,0.0,0
2025/04/05 15:42:12.348393609,1743860532,346544272,piren,vessel_center,-266.8305857415398,-300.7148874839678,2.3197879332626425,-0.03048087733640488,0.00010247182325097821,-0.005676038976573716,0.9995192285283285,0.33474025423142856,-0.0891501054280974,-0.03875130739574259,-8.608475652937811e-05,-0.0018232649636802105,0.007475118380588909,0
2025/04/05 15:42:12.428914114,1743860532,425276825,piren,vessel_center,-266.8131904248309,-300.6594213999607,2.3420525041070532,-0.010295485942837367,0.00032791200145296354,-0.005672549093552949,0.9999308564244338,0.3362834699190899,0.0440177259929902,0.015032297750944612,0.0009355005340776254,-0.0017517835520516137,0.0,0
2025/04/05 15:42:12.510371497,1743860532,504863023,piren,vessel_center,-266.77867368649765,-300.6516138150373,2.3462723493268505,-0.028154619797167255,0.000442095854015121,-0.0038256661345846543,0.9995961615642387,0.337537602295106,0.0507636444348469,0.020444367518939122,0.0013800363756028239,-0.0016843273733476662,0.03943424019797663,0
2025/04/05 15:42:12.588194700,1743860532,584666477,piren,vessel_center,-266.75957606288813,-300.6186862156904,2.3595075435855906,0.029348705904490673,0.00011130200202138116,-0.0043686543403560155,0.9995596810260259,0.341751350477307,0.11819230873807154,0.04754267715220657,0.0004372111915211374,-0.001458808967935785,0.03898832682090988,0
2025/04/05 15:42:12.628812983,1743860532,626261237,piren,vessel_center,-266.7425630131126,-300.6918833322896,2.328389596411955,0.005637608170802301,0.0006067751202508096,-0.004367463716716798,0.9999743869013592,0.34115909135707634,-0.05778002290721759,-0.02696375591166464,0.0012460468325475574,-0.0016493845056120046,0.0,0
2025/04/05 15:42:12.710963408,1743860532,705893029,piren,vessel_center,-266.70851175436934,-300.7070977106186,2.3232608731869497,-0.025669807395931638,-0.000163071704253475,-0.0031964987751280046,0.9996653524012201,0.34038177350398663,-0.07877023972478071,-0.03235186742166902,0.0029276920204393464,-0.0003028542349338269,0.04270921473108147,0
2025/04/05 15:42:12.791080792,1743860532,788573082,piren,vessel_center,-266.69117625861657,-300.66297657375355,2.3414856174499756,0.0014703908430257619,-0.00021243417050863193,-0.0036610255150452964,0.9999921948268747,0.3384539912653509,0.028655275241772513,0.011999480683347066,0.0015346272093853326,0.0005052326866964194,0.04353882201486665,0
2025/04/05 15:42:12.836598576,1743860532,832630023,piren,vessel_center,-266.6753099669433,-300.6771591025339,2.3366631755008576,-0.02702681106903667,0.0002231483584200073,-0.0033286366172434237,0.9996291421654928,0.3395702586898552,-0.005754320091636497,7.170649760468786e-05,0.002525007989757488,0.0010922213290855466,0.008466208131673252,0
2025/04/05 15:42:12.879305837,1743860532,875630786,piren,vessel_center,-266.6568241369244,-300.6389117947391,2.352002432626309,-0.027278019451015153,0.0003555933327824161,-0.0033269522165477847,0.9996222859646341,0.34306515958701317,0.07990512462829484,0.03416235046061253,0.0023893298956206253,0.0014450356257577823,0.0,0
2025/04/05 15:42:12.929434422,1743860532,923234530,piren,vessel_center,-266.63790085842544,-300.6110698237136,2.3631143479211274,-0.03161320688633717,0.00031367585747531376,-0.003330114944355574,0.9994945808218649,0.34531771009269513,0.1325164614353531,0.05489629029691827,0.0010734125502742287,0.0017898696997142147,0.0,0
2025/04/05 15:42:13.15880500,1743860533,11766352,piren,vessel_center,-266.6049195746991,-300.5803549515236,2.37498220940306,-0.00014598385686252652,6.898273320093367e-05,-0.00265288735304997,0.9999964680531568,0.34677139251798517,0.1732173039532887,0.06985396939670274,0.0005699154816811362,0.0022392863448725546,0.04109541033459959,0
2025/04/05 15:42:13.97461385,1743860533,93559673,piren,vessel_center,-266.5699125499769,-300.6106989736302,2.3634041919794697,0.003266437834238367,-5.568466947470849e-06,-0.0020692622028121344,0.999992524225458,0.34681282872988967,0.06691547700138527,0.02844997426856602,0.0010606833422456155,0.0023141768962971717,0.03965180297747547,0
2025/04/05 15:42:13.175510377,1743860533,173194897,piren,vessel_center,-266.55219828257077,-300.644768529786,2.3499961244578125,-0.016533324500037465,0.00021038179520005483,-0.002820278688888279,0.9998593155782436,0.3469247014483245,-0.01637643515627986,-0.004568992237393904,0.0009234652434331274,0.002065732467840944,0.04083122140066432,0
2025/04/05 15:42:13.218568571,1743860533,216407300,piren,vessel_center,-266.53332292695893,-300.63584008644,2.3537947474453853,-0.0024161832791654973,0.00029991173530259153,-0.002822853052534398,0.9999930517818393,0.3497209508742345,0.0053179272071253,0.004390195173727501,-0.001186962300018666,0.0016146973208518351,0.0,0
