time,header_stamp_secs,header_stamp_nsecs,header_frame_id,pose_position_x,pose_position_y,pose_position_z,pose_orientation_x,pose_orientation_y,pose_orientation_z,pose_orientation_w
2025/04/05 15:42:02.817717944,1743860522,816786872,piren,-268.33085327190423,-300.8045834367565,2.319021854820333,0.030105031753560663,0.0017838789014225668,0.021358220735655943,0.9993169323323753
2025/04/05 15:42:02.945529533,1743860522,945187794,piren,-268.32761845406105,-300.84330943864376,2.2993984250998274,-0.010381695998071684,0.0019343591200809472,0.021975183463920665,0.9997027407958454
2025/04/05 15:42:02.985573550,1743860522,985179440,piren,-268.3265192657724,-300.80314753128454,2.31557951133015,-0.03508782135699555,0.0015151985550972231,0.022018719656921378,0.9991404930991579
2025/04/05 15:42:03.30677371,1743860523,26207555,piren,-268.327403506406,-300.7317398398946,2.3428580135953205,-0.001267499680975061,-1.2133293577111877e-05,0.021952379858100696,0.9997582139277015
2025/04/05 15:42:03.114980384,1743860523,114381498,piren,-268.3290861194611,-300.73426888619554,2.3421094862721463,0.031368766410327105,0.0016394974685424405,0.023276064729060447,0.9992354764281909
2025/04/05 15:42:03.187593885,1743860523,187130792,piren,-268.32668569395327,-300.7963544906885,2.3152983728753247,0.0029005349600872764,0.0004999774660908446,0.022826345735514803,0.9997351123471865
2025/04/05 15:42:03.225260300,1743860523,223627374,piren,-268.32721454826964,-300.7947705368923,2.3176830355483093,-0.0029170863043929763,0.0011427853436675357,0.02304825418524243,0.9997294447140004
2025/04/05 15:42:03.296085467,1743860523,295614585,piren,-268.3265062837627,-300.7846001101862,2.3235112713354904,-0.034756313001251676,0.00013115889476128463,0.023098834253404425,0.9991288332142343
2025/04/05 15:42:03.331795900,1743860523,331369861,piren,-268.32891254740196,-300.723956303226,2.3480861010126843,-0.002967869117199624,0.0006859216842830096,0.022454051777496844,0.9997432354475422
2025/04/05 15:42:03.370843443,1743860523,367469377,piren,-268.32889643553705,-300.7357344777856,2.3453170143400763,0.02863491223199764,0.0009061453288214163,0.022406865196807294,0.9993383576617887
2025/04/05 15:42:03.439016620,1743860523,438619544,piren,-268.32731730547124,-300.7978314540931,2.319608096756514,0.02999031319638059,-0.00108205040064376,0.022618528869814723,0.9992936567561503
2025/04/05 15:42:03.474595293,1743860523,474130125,piren,-268.32922002343247,-300.84527083172594,2.300106276713771,-0.027952098115646272,-0.0025383939705971325,0.022532071697057208,0.99935206134376
2025/04/05 15:42:03.543093280,1743860523,542722646,piren,-268.3352976568498,-300.7821980565374,2.3271922616606986,-0.02961204078906504,-0.0003799899523469771,0.02281194716280117,0.9993010545949527
2025/04/05 15:42:03.578691809,1743860523,578252571,piren,-268.3357909264099,-300.7340931582072,2.3476517465874664,-0.0028088457194509393,0.00014624034551966053,0.02281449167081943,0.9997357590730102
2025/04/05 15:42:03.651666150,1743860523,651034881,piren,-268.33445394829795,-300.74208441562837,2.346170520589756,-0.0018548413883833891,-0.001679062800420974,0.02309007981643506,0.9997302578823984
2025/04/05 15:42:03.720101603,1743860523,719706105,piren,-268.33596062904775,-300.75271677152284,2.342811579979006,0.0035447134822089474,-0.0014094332072822026,0.023099914738203966,0.9997258836518393
2025/04/05 15:42:03.790827949,1743860523,790454817,piren,-268.33642704368475,-300.76879023463744,2.336521803251147,0.003951633473870721,-0.001174476370187163,0.023577995195268757,0.9997135006294133
2025/04/05 15:42:03.826987437,1743860523,826649203,piren,-268.33582446939545,-300.7802026935134,2.3316352319050266,-0.0028258602498986477,0.0011253333637750336,0.023849612240457736,0.9997109302866745
2025/04/05 15:42:03.898487297,1743860523,898072875,piren,-268.33185021476777,-300.77571836876876,2.3327334695823714,-0.0018284211757767501,-0.005569090274758816,0.023831329432113812,0.999698809565668
2025/04/05 15:42:03.995294529,1743860523,994950849,piren,-268.34050772024887,-300.7722988766569,2.333045299580945,0.02990470284548921,-0.004541693092600844,0.0236928256073737,0.9992615932709084
2025/04/05 15:42:04.49807251,1743860524,47637513,piren,-268.34372503905536,-300.8202164939642,2.3095266077228174,-0.028299329783765124,0.001081790489917871,0.023393296008246574,0.9993251379631137
2025/04/05 15:42:04.131189952,1743860524,130835368,piren,-268.3385548130354,-300.7558389088033,2.3336728224314545,-0.02837680759861535,0.0013024558689099207,0.023381242459871686,0.9993229597583825
2025/04/05 15:42:04.193300440,1743860524,190636540,piren,-268.33442028361543,-300.7088177347995,2.3511283580009423,-0.0018981530485592422,0.0018909228416731474,0.02246857827287275,0.9997439594297167
2025/04/05 15:42:04.250165367,1743860524,249763498,piren,-268.3299045869218,-300.71622279433296,2.3475427793361856,-0.0024129907035173766,0.0013148764215267488,0.02205390863658092,0.9997530063419215
2025/04/05 15:42:04.356567108,1743860524,356143117,piren,-268.32752590785435,-300.7229711268663,2.3447802200753523,0.003279975779840651,0.00016102877831148147,0.022317857009453556,0.9997455321666218
2025/04/05 15:42:04.428126416,1743860524,427628661,piren,-268.327802269371,-300.74233062656106,2.3376321532825246,-0.0013068927067475156,0.00014755360151314775,0.022319450449963786,0.9997500249517374
2025/04/05 15:42:04.504614004,1743860524,502391302,piren,-268.32799587121843,-300.74947193845793,2.335713865417802,-0.03403498327846737,-0.0008708879670416456,0.021749158992424692,0.9991835845081252
2025/04/05 15:42:04.541037440,1743860524,540636160,piren,-268.33155763245287,-300.69994999562147,2.3553866877832452,-0.0032126342541401866,-0.000401072947638342,0.021327407983805172,0.9997673028211777
2025/04/05 15:42:04.583271513,1743860524,582351489,piren,-268.33243689614557,-300.718572564014,2.34954401860815,0.009927994293640387,-0.00041053007141219076,0.021325957947944413,0.9997231966459358
2025/04/05 15:42:04.623091453,1743860524,622670760,piren,-268.33248984431236,-300.75460476734787,2.3360852504765717,0.02950475567496459,0.002872449133203536,0.02121641360067984,0.9993353202116209
2025/04/05 15:42:04.699109810,1743860524,695659698,piren,-268.32575151323044,-300.8135841090203,2.3113218724104296,-0.018054667191642244,0.0014126518527663092,0.0211031569506161,0.9996132703071021
2025/04/05 15:42:04.732913305,1743860524,732522602,piren,-268.32554043175014,-300.7771457916405,2.328022463502861,-0.0027478245171599627,0.001626025055372001,0.020456491697761908,0.9997856457513089
2025/04/05 15:42:04.769722503,1743860524,768758940,piren,-268.3249263755797,-300.7772565877115,2.3299597664574585,-0.02895611923647285,0.001343534248303819,0.020521315675245184,0.9993691078262544
2025/04/05 15:42:04.841410485,1743860524,840093841,piren,-268.3257301828429,-300.73320365005526,2.348409101534246,-0.01379508015278654,0.0017375205861310035,0.021507810234873956,0.9996719916476062
2025/04/05 15:42:04.876956628,1743860524,876554718,piren,-268.324388526469,-300.7278553275939,2.352051853054378,-0.004548611808735124,0.0015851593470538332,0.021491145175903306,0.9997574346207615
2025/04/05 15:42:04.949738704,1743860524,948279360,piren,-268.3233582940485,-300.7400708693234,2.348314614969787,0.02753606892004958,0.0018354674243809465,0.02115580017392529,0.9993952311707142
2025/04/05 15:42:04.988738648,1743860524,988310470,piren,-268.32134362974153,-300.8022344851553,2.3217119583653023,0.025776107130161374,0.0018216994416232013,0.021158995173988778,0.9994421297081618
2025/04/05 15:42:05.25928331,1743860525,25404741,piren,-268.3199181806354,-300.84323831593707,2.3041916785210446,0.033187323289315396,0.0008529470683040759,0.020937125694734715,0.9992294585438483
2025/04/05 15:42:05.96195835,1743860525,95774924,piren,-268.32036733649255,-300.8836254934256,2.2859286496291835,0.03416899595460929,0.0010701358324584139,0.020946281257815,0.9991959706815389
2025/04/05 15:42:05.138844368,1743860525,136846232,piren,-268.32019220850566,-300.91269394284564,2.272291081064005,0.003216153123737245,0.0005698167890987124,0.020630377388850974,0.9997818358005437
2025/04/05 15:42:05.179648267,1743860525,176667512,piren,-268.322085899641,-300.8802956894368,2.2866574298300395,0.001699050333618692,0.001291606827106068,0.020631382508046088,0.9997848723778404
2025/04/05 15:42:05.253673088,1743860525,253308988,piren,-268.3217652387099,-300.85593704132947,2.29647404461557,0.031288162466080786,0.0022676568345152957,0.01996858445028586,0.9993083429337658
2025/04/05 15:42:05.333254231,1743860525,332246808,piren,-268.31944475753795,-300.8798428576644,2.2836857224921765,0.009668732324364349,0.0014824156412535793,0.019358011805151877,0.9997647650512884
2025/04/05 15:42:05.370403841,1743860525,368919069,piren,-268.31982900876284,-300.8601580846934,2.291188501309407,-0.02443081470125814,0.0014483041880225095,0.019389683873696904,0.9995124200665492
2025/04/05 15:42:05.440359685,1743860525,440044674,piren,-268.32087597197886,-300.7866584035315,2.3199994504938695,0.0010848972584579777,0.0018518945186834586,0.01896625564617533,0.9998178207210523
2025/04/05 15:42:05.479795022,1743860525,476355543,piren,-268.3200480130084,-300.7762537688629,2.323750164034583,0.035123489444336485,0.003978906285689367,0.01886070020085463,0.9991970690419167
2025/04/05 15:42:05.547707072,1743860525,546654101,piren,-268.31442927687294,-300.8244341861434,2.3003850695839314,0.03271398829963741,0.00280891969608271,0.01812913951511482,0.9992963720739277
2025/04/05 15:42:05.584648644,1743860525,584096871,piren,-268.31233064356115,-300.85490758658614,2.2855247596671338,0.003982690170740232,0.0031794859438767143,0.01819921645939701,0.9998213928339404
2025/04/05 15:42:05.626526092,1743860525,626170913,piren,-268.3103826640289,-300.82830820521673,2.297256553912683,-0.003620230187758353,0.003729537664512841,0.017332503858411646,0.9998362709925035
2025/04/05 15:42:05.665842569,1743860525,664674002,piren,-268.3079624377275,-300.79678301059226,2.3107751405544636,-0.0005303245525311547,0.002243935081235766,0.0173205004400422,0.9998473302338347
2025/04/05 15:42:05.739270489,1743860525,738881297,piren,-268.307844345944,-300.7796201874457,2.318368340673068,0.004053718539003446,0.0017992958171188186,0.01638811073082532,0.9998558694768178
2025/04/05 15:42:05.778493741,1743860525,777730381,piren,-268.3080434985349,-300.7755019767124,2.32051274154572,-0.0016841976901298685,0.0015909533578620436,0.01639909685210274,0.9998628415777782
2025/04/05 15:42:05.818230276,1743860525,817748450,piren,-268.3076507878614,-300.7637401421599,2.325950159625747,0.005136965441942413,0.0013237817068358867,0.016386048290325337,0.9998516673034397
2025/04/05 15:42:05.892273957,1743860525,891863509,piren,-268.30659201598564,-300.7673349432131,2.324955380772281,-0.01747933559340086,0.0007473930589729451,0.012172194123395784,0.9997728501620011
2025/04/05 15:42:05.930630961,1743860525,930234115,piren,-268.3087681105626,-300.73269461846536,2.339495770545003,-0.005472229259069293,0.000684910619257122,0.00959143163768269,0.9999387931486204
2025/04/05 15:42:05.970331239,1743860525,970000715,piren,-268.31068171494684,-300.72893414466387,2.34180701102864,0.003273685413912817,0.00039886307234755357,0.009583950510225585,0.9999486345731354
2025/04/05 15:42:06.43389989,1743860526,42170570,piren,-268.3108803043666,-300.74160483005255,2.3371805723736303,-0.02275171936962883,0.00018448006830159316,0.013376874327677068,0.9996516315527383
2025/04/05 15:42:06.80245257,1743860526,79864404,piren,-268.3077259223101,-300.7073193624538,2.3510290928687296,0.0028512647034816133,-3.384257750443286e-05,0.013368007512930833,0.9999065783959044
2025/04/05 15:42:06.151836141,1743860526,151543361,piren,-268.3015937391292,-300.72099145234034,2.345762149354085,0.006927776325696373,-0.00025813427352158513,0.011482083140530407,0.999910046478498
2025/04/05 15:42:06.224425239,1743860526,224028358,piren,-268.29756021283526,-300.74348034100586,2.3364626411388847,0.005076794420562325,-0.0002469816382488654,0.010258328871823258,0.9999344637761213
2025/04/05 15:42:06.295529024,1743860526,295169558,piren,-268.2922341454054,-300.75615539085123,2.3309916870998992,-0.0017408830696968914,-0.0002602711551211073,0.01025513093170255,0.999945865472045
2025/04/05 15:42:06.367406616,1743860526,366955250,piren,-268.28425785890136,-300.74974118520925,2.332510951208133,0.00766324345367366,-3.987436621614452e-05,0.006545430997484102,0.9999492139318186
2025/04/05 15:42:06.440390500,1743860526,438315092,piren,-268.28134849105334,-300.762038683881,2.32626905420965,0.0057074855449808426,-0.00019671834907115774,0.00375346177931259,0.9999766484450106
2025/04/05 15:42:06.477135159,1743860526,476683291,piren,-268.2797084429538,-300.76636594815125,2.3232249855115854,-0.025639904498895867,0.00016770555908095794,0.003738270015710976,0.9996642398872847
2025/04/05 15:42:06.536063597,1743860526,534739107,piren,-268.27639004632476,-300.7151811828746,2.3420246190771974,0.00399011317753397,0.00024944560014903544,0.008152059121991411,0.9999587795033327
2025/04/05 15:42:06.573814567,1743860526,572476930,piren,-268.26867044015415,-300.72738840226975,2.3357777379784377,0.003554157185951217,0.0005446827506785792,0.008153787200928011,0.9999602927325068
2025/04/05 15:42:06.644729388,1743860526,644414504,piren,-268.2608025461916,-300.7344699215576,2.3315435189870057,0.0011712921929158255,0.00018628196128101125,0.007156109067524222,0.9999736913922505
2025/04/05 15:42:06.682989028,1743860526,682624773,piren,-268.2545944932428,-300.7346037483775,2.33017018345,-0.00958350821923346,0.0003627092933023652,0.007154268180498526,0.9999284180675045
2025/04/05 15:42:06.720908980,1743860526,720571592,piren,-268.2483131970719,-300.7158741227243,2.3365638309602192,0.002114134030786282,0.0005077578302294357,0.007150334928226534,0.9999720722748711
2025/04/05 15:42:06.792765742,1743860526,792407780,piren,-268.24152713417243,-300.7213467879899,2.3330905219276,0.002308945401084612,0.00019395128258170317,0.0025921972386917904,0.9999939558154892
2025/04/05 15:42:06.830252723,1743860526,829953968,piren,-268.238420923926,-300.72518740882646,2.3304348045094794,-0.021937587319955484,3.0792057672382064e-06,-8.275338430901831e-05,0.9997593387435675
2025/04/05 15:42:06.902944207,1743860526,902520887,piren,-268.23133153743896,-300.6852079206176,2.344612834763007,0.03153900000995291,-0.0003420767606269872,-8.172109281607342e-05,0.9995024601187958
2025/04/05 15:42:06.978875215,1743860526,977367066,piren,-268.22393445488746,-300.747687461173,2.316362997807391,0.030434967172384836,-0.0005027024534958992,0.002025943583605059,0.9995345694952502
2025/04/05 15:42:07.17594143,1743860527,16832408,piren,-268.219000902214,-300.7901419465419,2.297199044582527,0.007923004886440743,-0.001795141510519562,0.0020211200648155136,0.9999649586531573
2025/04/05 15:42:07.92306448,1743860527,90949072,piren,-268.2136740786575,-300.78329400920717,2.3008444913011448,0.03132624733631373,-0.0005758422944648655,0.00035337641934170066,0.9995089843310976
2025/04/05 15:42:07.131128241,1743860527,129771392,piren,-268.2084276482403,-300.81658367244364,2.2858215945113405,0.02077203228272481,-0.0008079677352123622,-0.0019837921645834253,0.9997819434414847
2025/04/05 15:42:07.169957137,1743860527,169561422,piren,-268.2043646820675,-300.8228979242259,2.283631003076819,0.03356411006393047,-0.0008781037205756468,-0.001990685117870595,0.9994341982453041
2025/04/05 15:42:07.243093935,1743860527,242723209,piren,-268.1991803996593,-300.84782988355477,2.27231943499995,0.0013046508068367904,-0.001335520197812311,0.0019517431546104658,0.9999963524787138
2025/04/05 15:42:07.283623635,1743860527,280972179,piren,-268.19077919384756,-300.81212601421913,2.288999144276643,-0.027840406133137353,-0.0008187119498945474,0.0019422910289067564,0.9996101585131296
2025/04/05 15:42:07.355122898,1743860527,354137370,piren,-268.1751612326709,-300.73991795842534,2.3188033552563194,0.002095482926994905,-0.0004941831548646632,0.0005745431904940075,0.9999975173141353
2025/04/05 15:42:07.426992361,1743860527,426660178,piren,-268.1652191751601,-300.7356206557942,2.3222709713543916,-0.02220814603095758,-0.0005109431480626412,0.0005693988640976664,0.9997530760002196
2025/04/05 15:42:07.499546392,1743860527,499222269,piren,-268.1549560687132,-300.6916761198359,2.340902195175495,0.024390574163654814,-0.000619493744208429,-0.0021754367152163317,0.9996999467813161
2025/04/05 15:42:07.538041412,1743860527,537611607,piren,-268.14745390341267,-300.73872295874264,2.321161036121629,0.016427870118444866,-0.0008049918575666002,-0.004099266342470399,0.99985632622239
2025/04/05 15:42:07.577054828,1743860527,575589884,piren,-268.1416492638633,-300.7598148976994,2.3128593652659255,-0.027535879890132633,-0.0008785942677260776,-0.0041379258890309025,0.9996118651557343
2025/04/05 15:42:07.613809582,1743860527,613516456,piren,-268.1336741797674,-300.70025217659156,2.3370370319489635,0.0053036178144787475,-0.0007803870452044019,-0.004107414503623414,0.9999771956300969
2025/04/05 15:42:07.687533157,1743860527,687126801,piren,-268.12218709672874,-300.7129421950534,2.3324580272037747,-0.018491989846104912,-0.0006628156301116372,-0.00319478560627036,0.9998236846223949
2025/04/05 15:42:07.725547589,1743860527,725226574,piren,-268.11296317143706,-300.6818548628122,2.34513583555662,0.001626230759080901,-0.0010662756700997912,-0.004930257006330665,0.9999859553991572
2025/04/05 15:42:07.799037527,1743860527,798658788,piren,-268.0978018420523,-300.6879424028871,2.3426840847667254,-0.022660421626736704,-1.9626637016746215e-05,-0.004954777622175298,0.9997309413463247
2025/04/05 15:42:07.872005302,1743860527,871544256,piren,-268.08250806146145,-300.6363415540555,2.3620383940792973,0.016101468545041266,-0.00030229515475772866,-0.004103784417273766,0.9998618956044825
2025/04/05 15:42:07.946067119,1743860527,945731432,piren,-268.07292367041146,-300.68445278853665,2.3413215473461744,0.003242967802071218,-0.0001747856315139038,-0.0057674236575336255,0.9999780944771602
2025/04/05 15:42:07.984664332,1743860527,984255905,piren,-268.06390505651757,-300.69735366502067,2.33573613032604,-0.02654353031996337,0.0001428000281966619,-0.005777578350335341,0.999630951999142
2025/04/05 15:42:08.22361392,1743860528,21996169,piren,-268.05362998507854,-300.65577401382177,2.351405310262549,0.0010641985879710724,-0.000403511707652769,-0.00577849031274781,0.9999826567042913
2025/04/05 15:42:08.95922804,1743860528,95534923,piren,-268.04236791585043,-300.6725604111424,2.3443431570976974,0.030098556305071213,0.0003202307238187208,-0.005251572779583656,0.9995330886688918
2025/04/05 15:42:08.133822885,1743860528,133475282,piren,-268.0320969351817,-300.7326198753832,2.317268717390596,0.002504457007333897,0.0004393993690471328,-0.006849625552172168,0.9999733082703198
2025/04/05 15:42:08.172873488,1743860528,172443945,piren,-268.02242952854766,-300.72976976399235,2.3187642714585994,0.002649834541750137,0.00039934441195562634,-0.006849459593929515,0.999972951536297
2025/04/05 15:42:08.247764092,1743860528,247343837,piren,-268.0126410262875,-300.7275619353676,2.319895266463824,0.001716081275143328,0.0004179366816979978,-0.004283519483757172,0.999989265869799
2025/04/05 15:42:08.286156439,1743860528,285806567,piren,-268.0006223053747,-300.72427536367917,2.321462666057256,0.0036895430946044146,0.00021849982488964426,-0.004284368163131018,0.9999839917313789
2025/04/05 15:42:08.324593008,1743860528,324258850,piren,-267.98940514629203,-300.7251590421727,2.3212876153166486,0.002646799583803889,0.0002723175466179175,-0.004842114346260927,0.9999847369954077
2025/04/05 15:42:08.397049136,1743860528,396767427,piren,-267.9695896701966,-300.72523872904725,2.321502657430309,-0.015500702071732058,0.0002324726927687796,-0.004825800684741316,0.9998681842320425
2025/04/05 15:42:08.471807378,1743860528,470483344,piren,-267.9575830716114,-300.6940887178507,2.3345813889698928,0.002887506472227849,-1.2759342215347898e-05,-0.006802310925287553,0.9999726949820419
2025/04/05 15:42:08.546360826,1743860528,545243033,piren,-267.9375115888165,-300.702060005455,2.3318244018228427,0.007590285214696422,-0.00022679924727212172,-0.008408892997700567,0.9999358112654104
2025/04/05 15:42:08.620010299,1743860528,619669329,piren,-267.9295651024805,-300.7290127043402,2.3216789615671645,0.031291669784159974,-0.00044623418692418365,-0.008413657233139417,0.9994747833983271
2025/04/05 15:42:08.695580845,1743860528,695157565,piren,-267.9076260323674,-300.78295164584097,2.2977005435332334,0.031661759942450726,-0.0005921436389589793,-0.00936279890186412,0.9994546114356473
2025/04/05 15:42:08.770433114,1743860528,770083858,piren,-267.8967340268304,-300.83438519168755,2.274779880552448,0.03121910903485724,-0.0005693692512685229,-0.00822958855125263,0.9994785224916054
2025/04/05 15:42:08.843913847,1743860528,843537628,piren,-267.8856619085059,-300.8502364206688,2.2677832161698768,0.016281768352775814,-0.0004994025986434791,-0.008935381237051477,0.9998273918924705
2025/04/05 15:42:08.883558256,1743860528,883176370,piren,-267.87446816030234,-300.83587000277834,2.2749053734408444,-0.0222343533819915,0.00010846616177387674,-0.008943458054987372,0.9997127769128468
2025/04/05 15:42:08.923591213,1743860528,923131933,piren,-267.8612756245451,-300.7597063536661,2.3070534398773987,-0.02754447530376566,0.00029174804172620196,-0.008943304749570877,0.999580529053801
2025/04/05 15:42:09.19274682,1743860529,17947638,piren,-267.83499532020113,-300.69477338867813,2.3335820031847714,0.0023325889165993095,-0.0006110969425205713,-0.009754069636789117,0.9999495205834112
2025/04/05 15:42:09.93945934,1743860529,92398710,piren,-267.82359593285435,-300.699961237571,2.3322807318397456,-0.023634771013075706,0.00030115402380634674,-0.008569768114805615,0.999683883024965
2025/04/05 15:42:09.135681575,1743860529,131217137,piren,-267.8090603740464,-300.65881679243574,2.3488211740167917,0.02776806875810276,0.0006983041866174955,-0.009298787206196488,0.9995708975781569
2025/04/05 15:42:09.171956848,1743860529,170304925,piren,-267.7953049528728,-300.7152458410153,2.324092867480813,0.032716419095385356,9.235976754427643e-05,-0.009270123172753438,0.9994216788761441
2025/04/05 15:42:09.243281900,1743860529,242915989,piren,-267.7831913412654,-300.76406018179694,2.3020818926701425,-0.021105820982813606,0.0011565295286774038,-0.007956571882333468,0.9997449173284013
2025/04/05 15:42:09.282182692,1743860529,281860345,piren,-267.7670214776592,-300.70878971870974,2.325155633770574,0.002923023764115013,0.0003890865620551434,-0.00797947239855142,0.9999638156273268
2025/04/05 15:42:09.320622018,1743860529,320299461,piren,-267.7531750788105,-300.7093495571734,2.325598274066141,0.01666420814870321,0.00031089159224324266,-0.007980159416567458,0.9998292477062675
2025/04/05 15:42:09.397588633,1743860529,397111099,piren,-267.7400645914444,-300.73260562119003,2.315715173270713,-0.020205993212712988,0.0008203105792039045,-0.00908270040883995,0.9997542445431902
2025/04/05 15:42:09.437805207,1743860529,436552154,piren,-267.72610989691367,-300.6872137408023,2.3342521778848866,-0.0280668159252943,0.0007866559089605987,-0.00959391998180678,0.9995596989253215
2025/04/05 15:42:09.476242281,1743860529,474686670,piren,-267.71442650733684,-300.64193523133775,2.352106742510268,-0.02079349951296821,0.0009069483639691245,-0.00959582144655709,0.9997373295188269
2025/04/05 15:42:09.514840666,1743860529,513521092,piren,-267.7007210669847,-300.62191010598997,2.3603867422517393,-0.0004746883459383922,0.003032102650941005,-0.00961098114293125,0.9999491037377646
2025/04/05 15:42:09.589506498,1743860529,589159628,piren,-267.6828566050409,-300.6426351671772,2.352556746608522,-0.0021422676268411604,0.000419236002901082,-0.009275431264899901,0.9999545996221224
2025/04/05 15:42:09.628971061,1743860529,628634834,piren,-267.6715888598871,-300.6556287370505,2.347772853796419,-0.0217960112508657,0.0005799940810610776,-0.009696298388853731,0.9997152491074508
2025/04/05 15:42:09.669193775,1743860529,668860677,piren,-267.65904217090673,-300.632140088432,2.357234824960124,0.0039064722927195815,0.00011587270149351915,-0.009708414611657269,0.9999452348671258
2025/04/05 15:42:09.743763641,1743860529,743393847,piren,-267.6479297467441,-300.65963335001226,2.3464798883765634,0.03014916734138932,-0.00011886043052809662,-0.008810190759272137,0.9995065753258476
2025/04/05 15:42:09.783571166,1743860529,783172308,piren,-267.63578885845027,-300.7231848490122,2.318773856699081,-0.001403769062340259,0.0001351899435163059,-0.008809088274585535,0.9999602047681044
2025/04/05 15:42:09.824173935,1743860529,822849942,piren,-267.6228555153167,-300.716733098554,2.322583314058002,-0.027960675181727627,0.00032822034097256176,-0.008794378928889669,0.9995702835789212
2025/04/05 15:42:09.900115185,1743860529,899780115,piren,-267.59596939994987,-300.66422885573775,2.3438483244358608,0.00028039636168749314,-0.00010009872006552289,-0.009644161438657317,0.9999534496706693
2025/04/05 15:42:09.976632461,1743860529,976032020,piren,-267.583515681812,-300.68877687903756,2.335705650340656,-0.012317859050409432,0.00011773259179307216,-0.009361153852296102,0.9998803054796133
2025/04/05 15:42:10.52832107,1743860530,51465608,piren,-267.5697802969243,-300.6742652339271,2.342144349196486,0.030790347508253064,-0.0003730434610319435,-0.009471064914075192,0.9994809224133748
2025/04/05 15:42:10.90950474,1743860530,90456094,piren,-267.55745185939764,-300.73563961299146,2.3151366656775654,-0.012980320264088872,0.002565621393200784,-0.009444757527998095,0.999867853982688
2025/04/05 15:42:10.130110955,1743860530,129737541,piren,-267.5407541191517,-300.70586439722604,2.328183387234176,0.03026045640207854,-0.0003594155185486201,-0.009007247520857088,0.9995013982436047
2025/04/05 15:42:10.169830068,1743860530,169469176,piren,-267.52752978276334,-300.7570033021307,2.3056642908824063,-0.02204377569190534,0.000115493126579828,-0.009014941731338103,0.9997163544926947
2025/04/05 15:42:10.244503527,1743860530,243655493,piren,-267.51295179276724,-300.705590962161,2.3271498578061434,0.006173884676256154,-0.00015221154490970695,-0.008990739010334137,0.9999405115264097
2025/04/05 15:42:10.283410009,1743860530,282976147,piren,-267.4989657696358,-300.7159382917727,2.323577426829186,0.003006801701217546,0.00012157695213810155,-0.008991310473132013,0.9999550493389942
2025/04/05 15:42:10.322758527,1743860530,322351876,piren,-267.4844175704934,-300.7176372393508,2.3233358877710133,0.00239678443856677,0.00015795645601245664,-0.008990709406075043,0.9999566978717072
2025/04/05 15:42:10.399439497,1743860530,398203346,piren,-267.4553695008296,-300.7180755874631,2.323239453180934,-0.028558493999993478,0.0005574945076161133,-0.008889758422867095,0.999552436751324
2025/04/05 15:42:10.474617264,1743860530,473326423,piren,-267.4389387246494,-300.66420130283467,2.34402477377469,0.0005092477698757245,0.00044052641412956935,-0.008838347154539806,0.9999607143397
2025/04/05 15:42:10.551376036,1743860530,551038733,piren,-267.41017037781916,-300.6716289605874,2.3408869043230394,-0.02559585605878662,0.0007854683370536066,-0.008717512388905313,0.9996340531263723
2025/04/05 15:42:10.630400160,1743860530,630102376,piren,-267.3930796215343,-300.6357572678021,2.3545560170467597,-0.027194363026475845,0.0008830509218901609,-0.008772967999063309,0.9995912774094926
2025/04/05 15:42:10.670826999,1743860530,670365715,piren,-267.37587815198185,-300.6072682475965,2.3652630117627553,-0.024046624712720586,0.0007200471995213871,-0.008782369845737902,0.9996720018845425
2025/04/05 15:42:10.747615031,1743860530,745944022,piren,-267.36015635863856,-300.59297281666096,2.370653517611519,-0.02695340105767684,0.0014478854417371444,-0.008689019949879103,0.9995978785148968
2025/04/05 15:42:10.786746415,1743860530,786388055,piren,-267.34300864627807,-300.5782649262131,2.3760883395700154,0.0021687783033517614,0.0003277687003198834,-0.008725697057183941,0.999959524770486
2025/04/05 15:42:10.827218719,1743860530,825865764,piren,-267.32900426645284,-300.617941221048,2.360410973821796,0.0008703260984811432,0.0003331255214328702,-0.008725331745685561,0.9999614993317478
2025/04/05 15:42:10.904947676,1743860530,904633612,piren,-267.2993059436712,-300.64183239328844,2.3510018041384964,-0.0291778842101899,8.919367381772395e-05,-0.007762326115990085,0.9995440907787783
2025/04/05 15:42:10.983240293,1743860530,982935641,piren,-267.28415614469037,-300.6116480056852,2.3626316770311653,-0.030026664494527715,7.680337557572917e-05,-0.007964981695604091,0.9995173598228113
2025/04/05 15:42:11.23870443,1743860531,22687126,piren,-267.268668042532,-300.58884810861446,2.3714347636877324,0.022407577494237618,1.9577904810254206e-05,-0.007971027011765938,0.9997171414034688
2025/04/05 15:42:11.99807592,1743860531,99386147,piren,-267.24128485961074,-300.6582393194413,2.3426763885604602,0.013274952866065597,-7.463245605460658e-06,-0.007515968330315506,0.999883636125105
2025/04/05 15:42:11.177109702,1743860531,176773281,piren,-267.22503395499035,-300.6970000479185,2.327556700911003,-0.02549193913334219,0.00015550242215360752,-0.007713644971472038,0.9996452553478523
2025/04/05 15:42:11.253468679,1743860531,253117617,piren,-267.1936272987241,-300.6634824543308,2.3415356272611785,-0.028719746466479696,-0.00010199615714736395,-0.00745905216986074,0.9995596672037205
2025/04/05 15:42:11.331487563,1743860531,329908505,piren,-267.17771447414185,-300.62884905526084,2.3557155360142357,0.024131249481210926,-0.00014890334793115232,-0.007453391796087741,0.9996810029089293
2025/04/05 15:42:11.372711687,1743860531,372376565,piren,-267.1624698844077,-300.6928900232629,2.329187768854114,9.396647850511653e-05,0.0002469911346495688,-0.007466773888776116,0.9999720883371568
2025/04/05 15:42:11.449508521,1743860531,449156182,piren,-267.1464127700687,-300.6987262938749,2.3280902985753755,0.0010999961980993364,0.00023064266674688118,-0.007095742107822665,0.9999741932951389
2025/04/05 15:42:11.491314649,1743860531,490039161,piren,-267.12998909910124,-300.7042406299451,2.3267216251918468,0.0007883777134324998,0.0001281792366162988,-0.007095547686718511,0.9999745072919058
2025/04/05 15:42:11.532319809,1743860531,531875640,piren,-267.1140630991307,-300.7071339799881,2.3261324723610786,-9.243252870799492e-05,0.0005770219611754619,-0.007095393511655514,0.9999746566252561
2025/04/05 15:42:11.594287164,1743860531,592310945,piren,-267.09714798301314,-300.7073059584787,2.3264457882783915,0.0009677093934406812,0.0001633944454747919,-0.007070432777055302,0.9999745225860158
2025/04/05 15:42:11.633603181,1743860531,633229029,piren,-267.0813974759303,-300.70863805288826,2.3260740843851533,0.0008815159537578416,0.00010351555870913024,-0.006607678210932151,0.9999777751544348
2025/04/05 15:42:11.675140283,1743860531,674712044,piren,-267.0650676288385,-300.70901233811253,2.3259590563234953,0.000756870184968385,0.0003646777547443988,-0.006607742574064396,0.9999778157017951
2025/04/05 15:42:11.754057055,1743860531,752774002,piren,-267.03432776681507,-300.71024481002723,2.3254172477453166,-0.02912965155787225,0.000670383709832318,-0.007106169572074339,0.9995501569905392
2025/04/05 15:42:11.833016830,1743860531,832664017,piren,-267.0157920207259,-300.657993678091,2.3453673646839905,0.011529086064899111,0.00035880678870182345,-0.006849164163848915,0.9999100161426794
2025/04/05 15:42:11.875083260,1743860531,874456608,piren,-266.99903245793524,-300.68884707248384,2.3324052151836265,-0.02743043687027619,0.000661272442505668,-0.006832813668581215,0.999600143311931
2025/04/05 15:42:11.954101822,1743860531,953555384,piren,-266.9651511198018,-300.6455609163684,2.3491273284356615,-0.013121171675054059,0.000513574518871415,-0.006659584857577184,0.9998916046375288
2025/04/05 15:42:12.32382434,1743860532,32050774,piren,-266.94830332050066,-300.6386209077961,2.3521983040736707,-0.023991056920930683,0.0009147347434644915,-0.006375847989396072,0.9996914228953763
2025/04/05 15:42:12.109679432,1743860532,109313655,piren,-266.9137975176863,-300.61244969164403,2.362381350307749,0.023993654196250363,0.00017430588278730054,-0.0064039355935179105,0.99969158433223
2025/04/05 15:42:12.188340523,1743860532,187908314,piren,-266.897858464738,-300.6779268277996,2.334565700046291,0.021678659370568155,0.0002103940493814898,-0.005708045757151295,0.9997486732553703
2025/04/05 15:42:12.229880320,1743860532,228631200,piren,-266.8832304000638,-300.72111558369295,2.3164831373933517,-0.01849078893533239,0.0002618966112108707,-0.005252482813630486,0.9998151997039285
2025/04/05 15:42:12.268800709,1743860532,268448355,piren,-266.8645143667042,-300.68485813494334,2.3319164346343997,0.014399182562002505,-0.00016473845930650827,-0.0052560430279212835,0.9998824983039132
2025/04/05 15:42:12.348227942,1743860532,346544272,piren,-266.8305857415398,-300.7148874839678,2.3197879332626425,-0.03048087733640488,0.00010247182325097821,-0.005676038976573716,0.9995192285283285
2025/04/05 15:42:12.425574618,1743860532,425276825,piren,-266.8131904248309,-300.6594213999607,2.3420525041070532,-0.010295485942837367,0.00032791200145296354,-0.005672549093552949,0.9999308564244338
2025/04/05 15:42:12.506688655,1743860532,504863023,piren,-266.77867368649765,-300.6516138150373,2.3462723493268505,-0.028154619797167255,0.000442095854015121,-0.0038256661345846543,0.9995961615642387
2025/04/05 15:42:12.585019279,1743860532,584666477,piren,-266.75957606288813,-300.6186862156904,2.3595075435855906,0.029348705904490673,0.00011130200202138116,-0.0043686543403560155,0.9995596810260259
2025/04/05 15:42:12.626609088,1743860532,626261237,piren,-266.7425630131126,-300.6918833322896,2.328389596411955,0.005637608170802301,0.0006067751202508096,-0.004367463716716798,0.9999743869013592
2025/04/05 15:42:12.706719448,1743860532,705893029,piren,-266.70851175436934,-300.7070977106186,2.3232608731869497,-0.025669807395931638,-0.000163071704253475,-0.0031964987751280046,0.9996653524012201
2025/04/05 15:42:12.790601873,1743860532,788573082,piren,-266.69117625861657,-300.66297657375355,2.3414856174499756,0.0014703908430257619,-0.00021243417050863193,-0.0036610255150452964,0.9999921948268747
2025/04/05 15:42:12.834138330,1743860532,832630023,piren,-266.6753099669433,-300.6771591025339,2.3366631755008576,-0.02702681106903667,0.0002231483584200073,-0.0033286366172434237,0.9996291421654928
2025/04/05 15:42:12.875954149,1743860532,875630786,piren,-266.6568241369244,-300.6389117947391,2.352002432626309,-0.027278019451015153,0.0003555933327824161,-0.0033269522165477847,0.9996222859646341
2025/04/05 15:42:12.924580159,1743860532,923234530,piren,-266.63790085842544,-300.6110698237136,2.3631143479211274,-0.03161320688633717,0.00031367585747531376,-0.003330114944355574,0.9994945808218649
2025/04/05 15:42:13.12068494,1743860533,11766352,piren,-266.6049195746991,-300.5803549515236,2.37498220940306,-0.00014598385686252652,6.898273320093367e-05,-0.00265288735304997,0.9999964680531568
2025/04/05 15:42:13.93885966,1743860533,93559673,piren,-266.5699125499769,-300.6106989736302,2.3634041919794697,0.003266437834238367,-5.568466947470849e-06,-0.0020692622028121344,0.999992524225458
2025/04/05 15:42:13.175505094,1743860533,173194897,piren,-266.55219828257077,-300.644768529786,2.3499961244578125,-0.016533324500037465,0.00021038179520005483,-0.002820278688888279,0.9998593155782436
2025/04/05 15:42:13.216884516,1743860533,216407300,piren,-266.53332292695893,-300.63584008644,2.3537947474453853,-0.0024161832791654973,0.00029991173530259153,-0.002822853052534398,0.9999930517818393
2025/04/05 15:42:13.296037236,1743860533,295626583,piren,-266.4977285244506,-300.65305100054763,2.3471995389890363,-0.027579121223106004,0.00011022975759670934,-0.001924935590112228,0.9996177642203723
2025/04/05 15:42:13.375795157,1743860533,375032493,piren,-266.47942803813464,-300.62282417715556,2.3587173876418146,0.0007246306591938198,0.00010255678754178484,-0.002462244562567341,0.9999967008666716
2025/04/05 15:42:13.455015904,1743860533,454698724,piren,-266.44294090239146,-300.6480750468061,2.348882931195008,0.0018205996410747772,3.379403746815048e-05,-0.0019174946232474387,0.999996503738528
2025/04/05 15:42:13.536231384,1743860533,535085556,piren,-266.42422400367514,-300.66945032078024,2.3404907588408523,-0.0015245328645538733,-0.0005727316542677148,-0.002839026168480107,0.9999946438398617
2025/04/05 15:42:13.579927142,1743860533,578203405,piren,-266.4070092801852,-300.6790945525129,2.3368835337866134,-0.02885048732124766,0.00028995588443651285,-0.002829888572917734,0.9995796901886196
2025/04/05 15:42:13.620604104,1743860533,620239147,piren,-266.3891708275744,-300.683393642633,2.3352574729732316,0.0027527722025598444,0.0003789100700009587,-0.0028383188284927022,0.9999921112781778
2025/04/05 15:42:13.703029768,1743860533,701407803,piren,-266.3549803117487,-300.7002777582726,2.328705274759474,0.02908137839522159,-0.0005901036017885656,-0.0016238151346030633,0.9995755541392466
2025/04/05 15:42:13.781639395,1743860533,781172533,piren,-266.3357311724976,-300.7849775119975,2.290837333535315,-0.001396644610055631,0.00022989165792715492,-0.0020838232381946856,0.9999968271021518
2025/04/05 15:42:13.823332804,1743860533,822990639,piren,-266.3158995094077,-300.7602640208011,2.3022847006475398,-0.004528641699265902,0.00023286317523459567,-0.002082755170414643,0.9999875495774943
2025/04/05 15:42:13.905020996,1743860533,904676633,piren,-266.2786378090644,-300.74285271572234,2.3105192132204846,-0.01724299442846655,0.0001818441595612893,-0.0016248532845140702,0.9998499917125796
2025/04/05 15:42:13.985846607,1743860533,985427956,piren,-266.25940871560334,-300.70193917013495,2.327820648600448,0.02507931257161445,0.00013419045704184481,-0.001961144932154651,0.9996835319161818
2025/04/05 15:42:14.28112497,1743860534,27784019,piren,-266.2406296615482,-300.74334854331886,2.3100404247590753,0.00031460292727513085,0.0005226374430112845,-0.001765316871193128,0.9999982557642016
2025/04/05 15:42:14.69420380,1743860534,68991855,piren,-266.22090580661654,-300.7319622743576,2.315793424883274,0.009667318729744221,0.0004244500939348845,-0.0017700743921899393,0.999951613643051
2025/04/05 15:42:14.149239904,1743860534,147981308,piren,-266.18337144493745,-300.7413088240866,2.3126655321945986,0.02885906354699839,0.00039832787529915946,-0.00218989000985133,0.9995810123085767
2025/04/05 15:42:14.230706551,1743860534,230356859,piren,-266.16503540523314,-300.7775245053083,2.296531692842335,0.02838402883615583,0.00038072381213685356,-0.002028850709794694,0.9995949608322385
2025/04/05 15:42:14.271444999,1743860534,271031758,piren,-266.1464584760517,-300.80249424576715,2.285487208396003,-0.0007882155032573037,0.0004312984889098948,-0.002016867964463734,0.9999975624678031
2025/04/05 15:42:14.350848873,1743860534,350277835,piren,-266.10931650016056,-300.7773126655185,2.297283429745253,0.020242488884264744,0.00044407082889603733,-0.0018927396905429922,0.9997932096095338
2025/04/05 15:42:14.430970149,1743860534,430667588,piren,-266.0908177554348,-300.7874020812088,2.2931702116763613,0.001961114526532109,0.0004613819665295472,-0.0018842045526613939,0.999996195457612
2025/04/05 15:42:14.472286201,1743860534,471928739,piren,-266.0718676900021,-300.76405092198434,2.303840560300642,-0.0012959262797659207,0.0006061405739897642,-0.0013365021908006002,0.9999980834634514
2025/04/05 15:42:14.554032274,1743860534,552993419,piren,-266.03382077537424,-300.74277793748996,2.3135559513550756,-0.030062429073085116,0.00019019109839458814,-0.0008226395589954579,0.9995476664220311
2025/04/05 15:42:14.633325647,1743860534,633020924,piren,-266.0149405506374,-300.677608250056,2.3394491045639123,0.025130401682932662,-0.0003813366232985049,-0.0008156112542368013,0.9996837761371924
2025/04/05 15:42:14.734821666,1743860534,734468561,piren,-265.9784528784697,-300.7185270328354,2.3219144560164784,0.0007166402313407603,0.00023154763317554238,-0.0014752279153266178,0.9999986282565942
2025/04/05 15:42:14.777119617,1743860534,775982600,piren,-265.96115421008045,-300.7138939441873,2.32473737709872,-0.028158591872322062,0.0002665429333888194,-0.0014704501383803,0.9996023511552098
2025/04/05 15:42:14.820005193,1743860534,819641294,piren,-265.9400504103515,-300.6614661855119,2.345757007700005,-0.029521257312865607,0.0008868316947145066,-0.0014542198495247263,0.9995627014554126
2025/04/05 15:42:14.902675921,1743860534,901485774,piren,-265.8995251659319,-300.6170297849703,2.3635655000442504,-0.027778205008405093,-0.0004626750668235596,-0.0005470070411712952,0.9996138544666088
2025/04/05 15:42:14.983174821,1743860534,982767459,piren,-265.880670795593,-300.59453474697006,2.372638192189913,0.030166270663312605,0.00028025674568938984,-0.0008895972973400494,0.9995444593348877
2025/04/05 15:42:15.25596694,1743860535,24433480,piren,-265.8606237438339,-300.6767154207048,2.337781762714501,0.018624623989207344,0.00043825772866228134,-0.0008884823935872191,0.9998260558269425
2025/04/05 15:42:15.105314767,1743860535,105017467,piren,-265.82123803962133,-300.7162127205961,2.3220536096018565,0.003804106807277119,0.00016479593979346462,-0.0006377919295046386,0.9999925473898051
2025/04/05 15:42:15.186517764,1743860535,185747361,piren,-265.80137624641344,-300.7212542408423,2.321362973457381,0.01587177054556939,0.00013687849554690193,-0.000809637250551762,0.999873698349721
2025/04/05 15:42:15.228324055,1743860535,227115982,piren,-265.7817601095684,-300.74483037480826,2.31212161170565,0.0022802423706394332,-0.0005604859342970668,-0.0008061428269169813,0.999996918237247
2025/04/05 15:42:15.308013386,1743860535,307565356,piren,-265.74568155917746,-300.7422833220553,2.3144007069739803,0.027386555980514645,0.00038355917973311945,-0.0006967155505751705,0.9996246015486632
2025/04/05 15:42:15.389584833,1743860535,389131167,piren,-265.7244829729299,-300.77854457954396,2.2986066214673837,-0.002924762407688244,0.00034812403804245927,-0.0009175612078314209,0.9999952413166487
2025/04/05 15:42:15.432704954,1743860535,432384667,piren,-265.70399968284636,-300.7539804822601,2.3099976385488272,-0.0038901882280613404,0.00035093439421228273,-0.0008929876931534661,0.9999919728945733
2025/04/05 15:42:15.476181928,1743860535,473949255,piren,-265.68344655366224,-300.7346651799069,2.318974254716385,0.025631103570833674,0.0003152342793862695,-0.0009057328288997973,0.9996710092851212
2025/04/05 15:42:15.556814638,1743860535,556515201,piren,-265.64387036136554,-300.7711829692868,2.3035168508443995,0.0025228237889294612,0.00023608158843286333,-0.0010563909146275548,0.999996231824825
2025/04/05 15:42:15.639125615,1743860535,638809062,piren,-265.62457707582877,-300.7579843919039,2.310041986785423,-0.018825413133423136,0.00026472911863305467,-0.0010344245432325643,0.9998222160487904
2025/04/05 15:42:15.682008121,1743860535,681610910,piren,-265.6048955684167,-300.7125127052664,2.329192769844392,0.02599564393045412,0.00012233030560249186,-0.0010448493773208346,0.9996615026206201
2025/04/05 15:42:15.724025649,1743860535,723733205,piren,-265.5859194616073,-300.7550847603506,2.310911373252249,0.0024825940365686785,0.0002271130026996118,-0.0010420227842803719,0.9999963496608628
2025/04/05 15:42:15.807685061,1743860535,806168370,piren,-265.5467340044792,-300.748760189084,2.3148489256439704,0.0023080795166333847,0.0002798670929239209,-0.0010057434962802755,0.9999967914565401
2025/04/05 15:42:15.889532639,1743860535,889211920,piren,-265.52698812992736,-300.741986473298,2.31849682546116,0.029688213300908078,0.00022557152534670802,-0.0010580680177190058,0.9995586223931825
2025/04/05 15:42:15.932970761,1743860535,932615664,piren,-265.5071069186753,-300.7824948306361,2.300445600613319,-0.015305093713680046,0.0002712193794851407,-0.0010476001765374425,0.9998822846117107
2025/04/05 15:42:15.974550444,1743860535,974182895,piren,-265.48726375360803,-300.78754229369963,2.2985451879037635,-0.02818937233204535,0.00028957329191067413,-0.0010711585059486122,0.9996019848191025
2025/04/05 15:42:16.18029862,1743860536,16656325,piren,-265.4703078815546,-300.71708522482334,2.327369280583623,-0.027970270797926383,0.0003443472729042146,-0.0010715387168601376,0.999608121806353
2025/04/05 15:42:16.98763050,1743860536,98350960,piren,-265.4295913900991,-300.6658072383004,2.348546328058818,0.0026984544381362086,0.0006213509969534931,-0.0011435236775510197,0.9999955123000217
2025/04/05 15:42:16.180060065,1743860536,179647891,piren,-265.40820935160656,-300.68386532844227,2.3422663347454384,-0.028375562854664364,0.0008248574974787841,-0.0011337076973025656,0.9995963494079233
2025/04/05 15:42:16.224926339,1743860536,222143953,piren,-265.3870439651113,-300.6448744724036,2.357954112737864,-0.0014499343322502173,0.000562030297628006,-0.0011559429270382564,0.9999981228024012
2025/04/05 15:42:16.304717924,1743860536,304445971,piren,-265.34637147089705,-300.6575484845983,2.353931960533471,0.011342073418992097,0.00034204238467642925,-0.0011936482713678822,0.999934905672049
2025/04/05 15:42:16.387226105,1743860536,386083126,piren,-265.32591476205545,-300.6952112859915,2.3388181119037563,-0.0019062711590712752,0.00015627249143980904,-0.0011566296652760477,0.999997501955377
2025/04/05 15:42:16.429819392,1743860536,429411356,piren,-265.3057342198037,-300.70046586976906,2.337371767062331,-0.0025167189410044374,0.00012548338902211074,-0.0011692401447713158,0.999996141621144
2025/04/05 15:42:16.472326058,1743860536,471228137,piren,-265.2855603562367,-300.7033961960753,2.3367194005318703,-0.0298178745676585,0.00021814995675163582,-0.0011642968177630554,0.9995546464199864
2025/04/05 15:42:16.554460226,1743860536,554114159,piren,-265.244719299095,-300.65960123326477,2.354069798571347,-0.012453203597799334,0.00029894644225952877,-0.001138536504970786,0.9999217629823862
2025/04/05 15:42:16.641752168,1743860536,640428581,piren,-265.224199103317,-300.6581052924391,2.355249454621956,0.02920863823030135,-0.00027629906973286676,-0.0011690934937207099,0.9995726148369405
2025/04/05 15:42:16.684758923,1743860536,684332221,piren,-265.2043891647021,-300.72688448125393,2.3255642505785166,0.014058348988358805,0.0004224037901477446,-0.001182776593007405,0.999900387757846
2025/04/05 15:42:16.727913824,1743860536,727513033,piren,-265.1835884472053,-300.75147340445125,2.31600281181065,-0.02222248994663944,0.0004009098014576424,-0.0011675778989428673,0.9997522878062108
2025/04/05 15:42:16.810177172,1743860536,809854670,piren,-265.14401058891076,-300.7116402279537,2.3329055561745036,-0.0053947708862781985,0.0005180624119221305,-0.0015296831789171827,0.9999841439381897
2025/04/05 15:42:16.894823393,1743860536,894430739,piren,-265.1019360872667,-300.70778343356363,2.3358670266404795,-0.0028281429401101604,-0.0002154971522366516,-0.0016739289023091708,0.999994576550552
2025/04/05 15:42:16.978606231,1743860536,978208557,piren,-265.0825425611826,-300.7113321967434,2.335809931933787,-0.03270048212747089,0.0003832961116247497,-0.00155807521238132,0.9994639082800111
2025/04/05 15:42:17.21900822,1743860537,21497538,piren,-265.06183715117487,-300.66205349278596,2.354969637751819,-0.030050157386315203,0.000389768906855062,-0.0015571108037311183,0.9995471032058478
2025/04/05 15:42:17.103549345,1743860537,103216355,piren,-265.0204521603149,-300.6285936053455,2.368585677281533,0.00022838573390213793,0.0003545738155510177,-0.0018523672791368505,0.9999981954247863
2025/04/05 15:42:17.187093289,1743860537,186754269,piren,-264.99973540000184,-300.6605085474959,2.356723981563017,0.012987317024948807,0.00024174696004641496,-0.001805276630259044,0.9999140023677983
2025/04/05 15:42:17.230003560,1743860537,229603140,piren,-264.9799666495981,-300.7054489811475,2.3387536934983464,0.004873510556408756,0.00025632060194642525,-0.0018034345027304023,0.9999864653177062
2025/04/05 15:42:17.273264467,1743860537,272904362,piren,-264.95975552288724,-300.7244265394399,2.3317917207277916,0.003690112427246556,9.361442561417867e-05,-0.0018582758595827918,0.9999914605222604
2025/04/05 15:42:17.356227688,1743860537,354976740,piren,-264.9195191992909,-300.7388091678993,2.3269209790089898,0.031499024511163834,7.354120409849736e-05,-0.002148158420888994,0.9995014714656179
2025/04/05 15:42:17.439315431,1743860537,439029221,piren,-264.8999351819189,-300.79205276619723,2.3033082600601342,0.026358396265306814,-0.0003929834375335062,-0.0018325512217845764,0.9996508001629161
2025/04/05 15:42:17.482420374,1743860537,482007901,piren,-264.8802237337243,-300.8215240820197,2.2906673428316435,-0.031925479188228904,0.00042526541452925595,-0.0018315445435479413,0.9994884833616214
2025/04/05 15:42:17.527083821,1743860537,526559565,piren,-264.85927045065296,-300.7440412199639,2.322292375239757,-0.02625072543024696,0.0004224272337566053,-0.0018353328389573355,0.9996536162706502
2025/04/05 15:42:17.609239004,1743860537,608831639,piren,-264.81706037358464,-300.6994535176451,2.3412244505679833,-0.015930078192360815,0.0007778112331786762,-0.002714546006826187,0.9998691208645498
2025/04/05 15:42:17.694997541,1743860537,693752099,piren,-264.79683963746675,-300.68403319557626,2.3487645161710256,0.00053610021919941,0.000867213788233774,-0.0024213314598330836,0.9999965488394258
2025/04/05 15:42:17.738693048,1743860537,738299693,piren,-264.7750575482908,-300.70108834380346,2.3429968963931658,0.0020782751528453697,0.0006231036388567969,-0.0026469223450470984,0.9999941431410204
2025/04/05 15:42:17.783562161,1743860537,783107676,piren,-264.7537095311852,-300.7163196626238,2.3376806700390538,0.001211286456851329,0.00038415385155273656,-0.0026460981253581995,0.9999956916785436
2025/04/05 15:42:17.827888824,1743860537,827090918,piren,-264.73294777578053,-300.72615140254453,2.334403582102522,0.0005164367975195543,0.000615549413721871,-0.0026459576648833203,0.9999961766426856
2025/04/05 15:42:17.874950294,1743860537,871949724,piren,-264.71138822508857,-300.7322743338864,2.3325252172420003,-0.0038001155089111773,0.0005979360272520672,-0.002537039213600008,0.9999893824569613
2025/04/05 15:42:17.957004324,1743860537,956542422,piren,-264.66845628648787,-300.7308155402642,2.334108170538148,0.0071891766736727775,0.0005269187972909676,-0.0028961946684367677,0.9999698246206125
2025/04/05 15:42:18.61433918,1743860538,61079071,piren,-264.6293873880051,-300.74806020950814,2.3275986532351496,0.0023363728749820414,0.0004904635135935735,-0.002513340540703625,0.9999939919452804
2025/04/05 15:42:18.145852148,1743860538,145516060,piren,-264.5861133193688,-300.75390673146745,2.3259714115571057,-0.007736633349600915,0.000519967908330877,-0.0025892335225312607,0.9999665844454774
2025/04/05 15:42:18.231865608,1743860538,229503107,piren,-264.5643256358314,-300.73927677248076,2.3323112870997393,-0.002995007159341516,0.0004773228453087151,-0.0025883935708040547,0.9999920511252774
2025/04/05 15:42:18.274353126,1743860538,273219423,piren,-264.54246506047326,-300.7369438234322,2.333627908574394,-0.0032452987605318187,0.0005339061343097355,-0.0025880052206384008,0.99999124256624
2025/04/05 15:42:18.317267101,1743860538,316942688,piren,-264.52121193665334,-300.7350333653635,2.3347285092161267,0.0009719919978263996,0.0005610428034963167,-0.0025902881735477227,0.999996015426915
2025/04/05 15:42:18.404278079,1743860538,401933431,piren,-264.47844337394986,-300.74129604550416,2.332765826721855,0.027753366558277683,0.00018720863030675868,-0.003128580418143799,0.9996098876972846
2025/04/05 15:42:18.487999967,1743860538,486541821,piren,-264.4580273654928,-300.7901967082075,2.311027412912813,-0.0005596806126995797,0.00026983007714224624,-0.0028853582434852773,0.999995644319088
2025/04/05 15:42:18.532687967,1743860538,532342395,piren,-264.43775002255074,-300.7781291388887,2.3167291836948323,0.022535754651277152,0.00045237896639287043,-0.002977470506021565,0.999741501481735
2025/04/05 15:42:18.575813725,1743860538,575267411,piren,-264.4168651546557,-300.8077404195855,2.3038705594114393,-0.00010073376267670799,0.0005093283471630636,-0.002966472747096681,0.9999954652281102
2025/04/05 15:42:18.660955140,1743860538,660697106,piren,-264.374358341821,-300.7958806989871,2.309731633666087,0.03013914144544362,0.00043347722820092087,-0.002789980646054489,0.9995417251212773
2025/04/05 15:42:18.746379178,1743860538,746004974,piren,-264.35394076176664,-300.8319308738961,2.293422437529015,-0.018852833828821552,0.0006755766093254065,-0.0028240660110394706,0.9998180528996429
2025/04/05 15:42:18.790065665,1743860538,789660054,piren,-264.3323358838159,-300.7757860224565,2.3171872389215222,-0.008167043917980763,0.0008620237888942399,-0.0028296782360139293,0.9999622739032257
2025/04/05 15:42:18.835046100,1743860538,833837002,piren,-264.31093513008193,-300.7535059025778,2.327341269963254,-0.00957853505349643,0.0008247578580525912,-0.002829095624828434,0.9999497825684298
2025/04/05 15:42:18.880498026,1743860538,879167095,piren,-264.28939206339226,-300.7353949741067,2.3355311789309314,-0.028397901485410226,0.0008665989138366482,-0.0029738415291670106,0.9995918989588236
2025/04/05 15:42:18.925425667,1743860538,924341267,piren,-264.2706580946721,-300.691309631992,2.3530487889374467,0.002119792114496173,0.0008136646930346436,-0.0029989907033456413,0.9999929252179337
2025/04/05 15:42:18.969289711,1743860538,968763921,piren,-264.24852570036296,-300.7116304402376,2.34556621040282,0.02906103383787975,0.0006247460931948423,-0.0030267833096546512,0.9995728610698618
2025/04/05 15:42:19.57524382,1743860539,57138879,piren,-264.2049850627778,-300.76821640629134,2.3212714609035245,-0.029270624585833124,0.00026037131611470247,-0.0031392247121060433,0.9995665600705838
2025/04/05 15:42:19.142974417,1743860539,142594697,piren,-264.1843153428902,-300.715333647069,2.342859225783795,0.0021080658458037787,0.00018908372166421473,-0.002966860968536078,0.9999933589988133
2025/04/05 15:42:19.187207320,1743860539,186839782,piren,-264.163057144254,-300.7306836074987,2.337809644849058,0.028875875127268403,0.00017274209390534314,-0.0029728981049833053,0.9995785691343432
2025/04/05 15:42:19.231789201,1743860539,231508319,piren,-264.1421592939141,-300.78642701225687,2.3139053214537633,-0.002614023866557743,0.00024265119450130076,-0.0029785643162971724,0.9999921180460557
2025/04/05 15:42:19.276281327,1743860539,275572476,piren,-264.1204034850559,-300.77422682441403,2.3203040577896688,-0.02870312681513706,0.0002993015651020851,-0.0029720816042600505,0.99958351710127
2025/04/05 15:42:19.361483428,1743860539,361130803,piren,-264.0770178407517,-300.72302637640433,2.3413293755372813,0.02791642155790762,0.0004228811586100652,-0.0030776897500462007,0.9996054333609484
2025/04/05 15:42:19.446757851,1743860539,446358420,piren,-264.0554173252438,-300.77957058414194,2.317374201078486,-0.0010942145751326694,0.0005953230608831095,-0.0031124747966307527,0.9999943803769885
2025/04/05 15:42:19.491675092,1743860539,491317035,piren,-264.032648220745,-300.7721826876693,2.3218630046524003,-0.019581644325419402,0.0007698220553294243,-0.0030986592706052593,0.9998031630727323
2025/04/05 15:42:19.537618979,1743860539,537272966,piren,-264.0103536552648,-300.7355551033637,2.337505929189462,0.0030461428071637325,0.0007128566321459314,-0.0031078936404376704,0.9999902768760005
2025/04/05 15:42:19.582717495,1743860539,581411864,piren,-263.98807975920454,-300.7477378185735,2.3334409205969866,0.027792012831109884,0.0006269148893851971,-0.0031248433584728785,0.9996086465985086
2025/04/05 15:42:19.627560948,1743860539,627223778,piren,-263.9685999637639,-300.79784337859235,2.3117447713326573,0.00024849030967662216,0.0007115393930819284,-0.0031063951866418483,0.9999948911235511
2025/04/05 15:42:19.671244177,1743860539,670871282,piren,-263.9457945879875,-300.7880164469142,2.3169560843386034,-0.009982891320046618,0.0008159490196310095,-0.003224814891392125,0.9999446368059612
2025/04/05 15:42:19.758704486,1743860539,757603553,piren,-263.9011948433552,-300.7660176740423,2.3271124908216674,0.03263166993603511,2.4707064641517012e-05,-0.0033411861280931497,0.9994618601937766
2025/04/05 15:42:19.845570556,1743860539,844916132,piren,-263.88082038851974,-300.81871318209147,2.303668738613646,0.001249545829382358,0.0005072644302512927,-0.003215494590687039,0.9999939209378002
2025/04/05 15:42:19.890839475,1743860539,890479104,piren,-263.8586876593146,-300.8045853747081,2.310742525335828,-0.0008308392898952191,0.0006937767908799066,-0.003214271485777942,0.9999942484027868
2025/04/05 15:42:19.937321603,1743860539,936087926,piren,-263.8367068364715,-300.79073553212237,2.3174345545601085,-0.03262429466851486,0.0007964628057373132,-0.0031859975738448808,0.9994622906662565
2025/04/05 15:42:19.980872785,1743860539,980462193,piren,-263.81422742486444,-300.72676755000634,2.3428026054182154,-0.0033075035164727745,0.0007578681218194182,-0.0032077580146251863,0.9999890981130335
2025/04/05 15:42:20.26683390,1743860540,25602388,piren,-263.79264273536177,-300.7312038995477,2.342070457920229,-0.003143790232315157,0.0007015283400563513,-0.003208028198950819,0.9999896664446278
2025/04/05 15:42:20.111986561,1743860540,111573716,piren,-263.7494307797066,-300.7324627525126,2.3426355911994325,-0.0022572637190702302,0.0006107698023197159,-0.0033740914507807565,0.9999915735783143
2025/04/05 15:42:20.202433241,1743860540,201215259,piren,-263.70633654186435,-300.73653079374935,2.3418577200371624,0.016481283145941685,0.0003245488657123254,-0.003369510882716239,0.9998584441661272
2025/04/05 15:42:20.291662448,1743860540,288902699,piren,-263.68534254440954,-300.77340128609853,2.326373715655508,-0.0011604429795603742,0.00015629772733473303,-0.003277076304254058,0.9999939448386714
2025/04/05 15:42:20.335070259,1743860540,333842334,piren,-263.6646701126085,-300.77051578765844,2.328091592560336,-0.003445442711678622,0.00017260682289865095,-0.003276827187747032,0.9999886807034302
2025/04/05 15:42:20.379685845,1743860540,379196664,piren,-263.64556950655395,-300.76442469929907,2.330976536321592,-0.027065826678089173,0.00025187031694759053,-0.003265383479555103,0.9996282883443759
2025/04/05 15:42:20.424471967,1743860540,424061743,piren,-263.6232567042363,-300.72016334163624,2.34836340352143,-0.0006494887465630849,0.00021695511642394905,-0.003270907240092143,0.9999944161147464
2025/04/05 15:42:20.469162722,1743860540,468752067,piren,-263.60079821148184,-300.733429133847,2.3434658534413786,-0.03139061392781483,0.00033036676780217835,-0.0033109629574975107,0.9995016546956427
2025/04/05 15:42:20.556776396,1743860540,556364111,piren,-263.5562303135461,-300.6897001999056,2.360498164899072,0.01274787035284967,0.0006526232665349987,-0.003394081308970705,0.9999127692436012
2025/04/05 15:42:20.645510692,1743860540,644184408,piren,-263.5337332548642,-300.7350139903397,2.342126541330045,0.0011715494882295078,0.00046027867038706346,-0.003324561025477445,0.9999936814347029
2025/04/05 15:42:20.689382026,1743860540,689049464,piren,-263.5111669459607,-300.7486336631307,2.33722090429729,-0.004793868720084271,0.0002678645887014885,-0.003322924013049496,0.9999829524783211
2025/04/05 15:42:20.735665774,1743860540,735309616,piren,-263.4893536042485,-300.74849795586067,2.337845836887599,-0.024492019578876933,0.0003090323066032451,-0.003317090685934496,0.9996944745197718
2025/04/05 15:42:20.781123646,1743860540,779931536,piren,-263.4668190270855,-300.71506157798535,2.3511540831930664,-0.0010266666214934315,0.0002567993039703801,-0.0033234174497822357,0.9999939174346113
2025/04/05 15:42:20.827665322,1743860540,825238914,piren,-263.44491672715935,-300.7311656699,2.345159291583367,-0.00570691052034134,0.0002509124407770009,-0.0033223298642166407,0.9999781649313816
2025/04/05 15:42:20.914855884,1743860540,914449033,piren,-263.40072485415794,-300.7346637148001,2.344418729460715,-0.013807709832135756,0.0003235166614805743,-0.003541028717418312,0.9998983466341885
