time,header_stamp_secs,header_stamp_nsecs,header_frame_id,twist_linear_x,twist_linear_y,twist_linear_z,twist_angular_x,twist_angular_y,twist_angular_z
2025/04/05 15:42:02.895480304,1743860522,816786872,piren,0.016567243333565785,-0.005493726164240251,-0.01493675634878476,-0.0002558460069096742,0.016080887900951486,0.0
2025/04/05 15:42:02.948272108,1743860522,945187794,piren,0.020266293230588418,-0.09040420434530405,-0.055402708658398345,0.0001172855151035983,0.006537144879576359,0.007124755218079855
2025/04/05 15:42:02.987872573,1743860522,985179440,piren,0.020293762703204266,0.009645923232165482,-0.012830457328755554,-0.0001710170148727748,0.001020790268531839,0.0
2025/04/05 15:42:03.31032021,1743860523,26207555,piren,0.01598853081932248,0.1672464222998775,0.049278853560584195,-8.410394868468447e-05,-0.0034799763328962727,0.0
2025/04/05 15:42:03.117265005,1743860523,114381498,piren,0.008876719120962663,0.1263486191666749,0.03722094902043467,0.00044313671685443937,-0.011478614406104582,0.03329846553202814
2025/04/05 15:42:03.189048825,1743860523,187130792,piren,0.013198939118456111,-0.02611838858501811,-0.026638843072271476,0.0014401316759525599,-0.014838208759581265,0.027644323287776683
2025/04/05 15:42:03.226585023,1743860523,223627374,piren,0.010554317854712282,-0.01968838258526317,-0.01836799688640956,2.531540094860464e-06,-0.017676217375905693,0.004671025544553342
2025/04/05 15:42:03.298637844,1743860523,295614585,piren,0.010896084728801726,0.005214789282673011,-0.003269720206042711,-4.444728303424894e-05,-0.01944830260732718,0.0
2025/04/05 15:42:03.333455916,1743860523,331369861,piren,0.004316593545763682,0.13940994829681644,0.051718846430668694,-0.00040204550337854985,-0.02006398761226495,0.005844697372354924
2025/04/05 15:42:03.371165510,1743860523,367469377,piren,0.003863838197139559,0.09745475956638133,0.03971101571519592,-0.0007477222523125496,-0.019415121326830043,0.0
2025/04/05 15:42:03.440690642,1743860523,438619544,piren,0.006941536035265018,-0.05147844409025251,-0.021877955792168655,-0.0007173781824568959,-0.01671186588192215,0.006731797448514215
2025/04/05 15:42:03.475986030,1743860523,474130125,piren,0.0019265325819105804,-0.1510813327715817,-0.0627425709053232,0.0011946924750241468,-0.012875684703004283,0.0
2025/04/05 15:42:03.544678099,1743860523,542722646,piren,-0.011794525488176074,0.005834428415255999,0.004406556726040622,0.0011770707724058198,-0.009399341568002293,0.0055909131811860985
2025/04/05 15:42:03.580612660,1743860523,578252571,piren,-0.011555399517783367,0.11208838525076377,0.049379435489028255,-0.0005405566285045032,-0.005571573936284854,0.0
2025/04/05 15:42:03.654095179,1743860523,651034881,piren,-0.006194972151888575,0.07118272067182321,0.035902681845414966,-0.00045715817351008964,0.004515476346159357,0.0057374828481728014
2025/04/05 15:42:03.721716833,1743860523,719706105,piren,-0.00886012731652954,0.039642090057169,0.024451831263114947,0.001209837124245953,0.009156279367363811,0.0
2025/04/05 15:42:03.793195166,1743860523,790454817,piren,-0.008876502322254962,-0.0006505577035562302,0.007655270164539978,0.0013798229924237083,0.01306159695574698,0.02341276985653276
2025/04/05 15:42:03.828500869,1743860523,826649203,piren,-0.006558798486639714,-0.025943737658916985,-0.004049265128279805,-7.485218011409324e-05,0.015067224637631618,0.0030033532108176032
2025/04/05 15:42:03.899934493,1743860523,898072875,piren,0.0037496468917652247,-0.010154424083065647,-0.000699098139476567,-0.0003279611839574977,0.019326963874189,0.0
2025/04/05 15:42:04.2783724,1743860523,994950849,piren,-0.01591580129625072,-0.001405183133601282,7.307468647067003e-05,-0.0004546400786287734,0.022454310330061254,0.014632221295531675
2025/04/05 15:42:04.51628561,1743860524,47637513,piren,-0.01957095423199462,-0.10762491828036157,-0.05222879380073923,0.0014439880944634358,0.017302087165224612,-0.0030065045358690463
2025/04/05 15:42:04.138800308,1743860524,130835368,piren,-0.005855761737893773,0.0477069865228265,0.0073781967332439205,0.0014888498007204353,0.01273801126937583,0.0
2025/04/05 15:42:04.197761926,1743860524,190636540,piren,0.004018846705048417,0.14663124159583335,0.045310778892461094,-0.0001493565340657812,0.007592117097889034,-0.017276602032612467
2025/04/05 15:42:04.254497267,1743860524,249763498,piren,0.013233745034858656,0.09940407309013667,0.02782764409504946,-0.0003526813513880429,-0.003133299964932785,-0.003743117441287838
2025/04/05 15:42:04.358916015,1743860524,356143117,piren,0.015395578336756442,0.06093262482299965,0.015116573023586608,0.0010644828269986732,-0.01157085747667706,-0.004080250331304723
2025/04/05 15:42:04.430482117,1743860524,427628661,piren,0.01304003107579774,0.010994461881046531,-0.0024872451813299137,-0.00021031435463052524,-0.014699776857824542,0.0
2025/04/05 15:42:04.504597421,1743860524,502391302,piren,0.011098505282507174,-0.0061514479397368135,-0.0064624324397795216,-0.0004383629013983919,-0.016866443448916392,-0.02921817444816293
2025/04/05 15:42:04.544342510,1743860524,540636160,piren,0.001936842536633775,0.10460591145383719,0.03798737030112516,-0.0009090383705421026,-0.01801274317637009,-0.007078098150793659
2025/04/05 15:42:04.588631122,1743860524,582351489,piren,-0.00020721372707157648,0.053076545629301704,0.021323134971815955,-0.0002669392794056306,-0.018081423011777974,0.0
2025/04/05 15:42:04.624606591,1743860524,622670760,piren,-0.0003011909128872511,-0.03307888591361855,-0.011029042294115603,-0.0008050092247867265,-0.01890212168777701,0.0
2025/04/05 15:42:04.699091808,1743860524,695659698,piren,0.014709340038143634,-0.16040398418640445,-0.06481344604169915,0.000934188768289776,-0.018745299655992958,-0.0393827707086952
2025/04/05 15:42:04.735985912,1743860524,732522602,piren,0.013507192464885517,-0.06119365888657678,-0.020331794790555087,-3.571711192061474e-05,-0.017321693392440447,-0.007066225567402968
2025/04/05 15:42:04.771576199,1743860524,768758940,piren,0.013342932045270569,-0.05451279342473692,-0.013724546512065424,0.0008727504882875777,-0.014860922533114305,0.0
2025/04/05 15:42:04.842987025,1743860524,840093841,piren,0.010077961587649039,0.0494949627690409,0.028825669757275095,0.00027400724958056617,-0.011973191845559105,-0.007200724976126815
2025/04/05 15:42:04.878671665,1743860524,876554718,piren,0.011918011572743121,0.05577410166274664,0.033655887352467204,-0.000653697059185606,-0.008176911465575335,0.0
2025/04/05 15:42:04.950174849,1743860524,948279360,piren,0.012889571002096995,0.022455318703169427,0.021627095307286015,-0.0005804055757171915,-0.0038883763058863477,-0.007672123091986067
2025/04/05 15:42:04.990404304,1743860524,988310470,piren,0.016100646402082926,-0.1179052761086944,-0.0396203207962672,-0.000400933623518231,0.0005288693631795971,0.0
2025/04/05 15:42:05.28928587,1743860525,25404741,piren,0.01745510513251247,-0.1957889682962098,-0.07411170339145637,0.0011997946748370384,0.00503499091511391,-0.007937391995043501
2025/04/05 15:42:05.102621915,1743860525,95774924,piren,0.014480255793796457,-0.2633797389034492,-0.10630949101209888,0.0017602282010571906,0.009608060987005744,0.0
2025/04/05 15:42:05.140622589,1743860525,136846232,piren,0.013184158839339941,-0.29733075259005026,-0.1242461246121665,0.0022551606630319037,0.013589455118718967,-0.0091393908522347
2025/04/05 15:42:05.179627809,1743860525,176667512,piren,0.007455391171333757,-0.1910449337806761,-0.07799202549787278,0.0017838554753533246,0.016594119254919357,0.0
2025/04/05 15:42:05.256011360,1743860525,253308988,piren,0.006651935213358227,-0.0980526520591405,-0.040312407208625806,0.0012309118496645851,0.01935006476262009,-0.01123740188381972
2025/04/05 15:42:05.334027208,1743860525,332246808,piren,0.011080239621924191,-0.14033234800681324,-0.06430366297573943,0.0030898785550574235,0.018960314207339513,-0.014289946690614003
2025/04/05 15:42:05.371395891,1743860525,368919069,piren,0.008907568342920056,-0.07988216218950524,-0.039976002685061574,0.003381368957647938,0.017520369015336847,0.0
2025/04/05 15:42:05.442052392,1743860525,440044674,piren,0.005594430278279104,0.09232336340228416,0.028485476092105944,0.0015632082096450626,0.01499952172918048,-0.018716875067544086
2025/04/05 15:42:05.479772791,1743860525,476355543,piren,0.006789865785322034,0.1048082002455891,0.03353875047231891,0.002076404156254285,0.011407499370686865,0.0
2025/04/05 15:42:05.548473581,1743860525,546654101,piren,0.01852689114480199,-0.014688859490160536,-0.02241220291553791,0.0011461875595234852,0.007279208966669211,-0.022380161479501857
2025/04/05 15:42:05.588411472,1743860525,584096871,piren,0.02109176009403199,-0.0807549788171394,-0.05290110764752437,0.0017462737506245612,0.0025624442947814285,0.0
2025/04/05 15:42:05.628671193,1743860525,626170913,piren,0.023483314927625537,-0.014223968016767091,-0.02196956301128107,0.0005014793435813225,-0.00274406070650688,-0.030432958061830575
2025/04/05 15:42:05.669074279,1743860525,664674002,piren,0.026199319342322263,0.05745716212309221,0.010568426283405222,-0.0005381000674840703,-0.007171900508935825,0.0
2025/04/05 15:42:05.741044795,1743860525,738881297,piren,0.023546756380528673,0.08921400266585865,0.026270818599914026,0.00010776276559939794,-0.01042163942312307,-0.027690209495279082
2025/04/05 15:42:05.780004089,1743860525,777730381,piren,0.02043204575993513,0.0882459973711781,0.028057134155938957,-0.0006112388863743472,-0.013159857413016156,0.0
2025/04/05 15:42:05.820507425,1743860525,817748450,piren,0.01903778905821127,0.10466445347951835,0.03706236181428746,-0.0007574794245542396,-0.01473735127484556,0.0
2025/04/05 15:42:05.896288544,1743860525,891863509,piren,0.019222110747568872,0.08475075780656939,0.030629035050694742,-0.0010309091665791292,-0.01555059277102959,-0.15700427344855922
2025/04/05 15:42:05.934187447,1743860525,930234115,piren,0.012246663801761312,0.1523205118039192,0.05954182914738933,-0.0031614633683583766,-0.015311197837905155,-0.03181790813192095
2025/04/05 15:42:05.972534450,1743860525,970000715,piren,0.006603788106394856,0.1433937099945075,0.057922176470435606,-0.0026739935265646746,-0.013989775130392885,0.0
2025/04/05 15:42:06.44422888,1743860526,42170570,piren,0.005389562859136273,0.09841692564546123,0.04084924332572111,-0.0012350723237933765,-0.012333801428641286,-0.03135929857345131
2025/04/05 15:42:06.82795876,1743860526,79864404,piren,0.011786329908045443,0.16340828079692132,0.06697553063302582,-0.003344189535340126,-0.00932292871048337,0.0
2025/04/05 15:42:06.153266368,1743860526,151543361,piren,0.0227760037616008,0.09643735533636633,0.04027489944598013,-0.0022113447889832256,-0.0021767676525369433,-0.03325224350944604
2025/04/05 15:42:06.226348339,1743860526,224028358,piren,0.02919085815083235,0.035471372862548985,0.015019783721128981,-0.002415996418542049,0.0016564003372394743,-0.03828736675936044
2025/04/05 15:42:06.297306058,1743860526,295169558,piren,0.03452114614774472,0.003670525617145058,0.001346497532951468,-0.003115102899953795,0.008653836152259859,0.0
2025/04/05 15:42:06.369086812,1743860526,366955250,piren,0.0476835874163953,0.016738371449856158,0.004353930703606217,-0.0005300635172865567,0.011401283787632643,-0.17840624082317075
2025/04/05 15:42:06.441122129,1743860526,438315092,piren,0.04886919717000636,-0.012447158303893344,-0.010001198789358162,-0.00046369858049236584,0.013750057649786979,-0.03394515579379042
2025/04/05 15:42:06.478659610,1743860526,476683291,piren,0.04696706924360113,-0.02065149511936336,-0.015631314801466904,-0.00011891906793086817,0.014924522734028018,0.0
2025/04/05 15:42:06.536700592,1743860526,534739107,piren,0.04914904840438793,0.09558906802572043,0.027954461207111227,0.00021385654795088446,0.015288552142986028,-0.03366385191348773
2025/04/05 15:42:06.574787064,1743860526,572476930,piren,0.06074443349771171,0.05764346173746222,0.010908092662952631,0.0006814131161452431,0.014819921147915794,0.0
2025/04/05 15:42:06.646342973,1743860526,644414504,piren,0.07134524683560811,0.0352888649059884,0.00022930278433211208,0.0006003467099175348,0.013803411891375513,-0.03271825551108302
2025/04/05 15:42:06.684741780,1743860526,682624773,piren,0.07687922988329773,0.030903986441899782,-0.002849576171879527,0.0013958448373773587,0.011731792437506041,0.0
2025/04/05 15:42:06.722343131,1743860526,720571592,piren,0.08242632168698946,0.06929868964252879,0.01173348508016854,0.001653277535662217,0.008890514912542847,0.0
2025/04/05 15:42:06.794621342,1743860526,792407780,piren,0.08814591596710669,0.04926257677816526,0.002680591030946892,0.00263055714678149,0.006012384105666986,-0.17229263105806428
2025/04/05 15:42:06.831641524,1743860526,829953968,piren,0.08513845936472533,0.03518771240615084,-0.003523175712148792,0.0033363913978447725,0.0029298996276626572,-0.030772700106413545
2025/04/05 15:42:06.904189349,1743860526,902520887,piren,0.08181231149196717,0.11630573821444218,0.02883587325635577,0.0011805674855584697,-0.0030421989198397012,0.0
2025/04/05 15:42:06.979195104,1743860526,977367066,piren,0.09037340313134334,-0.033795583997334094,-0.03674322106286117,0.0006552001864935949,-0.005631509866655579,-0.14389008278679818
2025/04/05 15:42:07.20051347,1743860527,16832408,piren,0.09134469482778511,-0.1244247927388636,-0.07527677734843377,0.0015106132967223234,-0.007265348040171296,0.0
2025/04/05 15:42:07.93614703,1743860527,90949072,piren,0.09267615302551346,-0.09489294536915563,-0.05851584098883732,9.499913399736758e-05,-0.009095066262026077,-0.15155170628826262
2025/04/05 15:42:07.132979825,1743860527,129771392,piren,0.09389444758321586,-0.1581989382028945,-0.0853159759100412,8.434469386768053e-05,-0.010345607872262932,-0.026614169090315998
2025/04/05 15:42:07.172202296,1743860527,169561422,piren,0.09225727875232222,-0.15425981201888075,-0.08049212094868222,-0.00017848213032252742,-0.01101528394191149,0.0
2025/04/05 15:42:07.244889935,1743860527,242723209,piren,0.09335115887870414,-0.1923326449018526,-0.09657470918762859,-0.0007932572761859873,-0.010495179738374147,-0.025743774350558277
2025/04/05 15:42:07.283604103,1743860527,280972179,piren,0.10142770454112904,-0.09103506643327759,-0.04848733378398696,-0.0004181726143625419,-0.010074159502548129,0.0
2025/04/05 15:42:07.356356133,1743860527,354137370,piren,0.11342971608437435,0.09025064126417477,0.02879055123614572,-0.0019149267622336097,-0.00801719961664609,-0.025541370941961704
2025/04/05 15:42:07.429112701,1743860527,426660178,piren,0.12298871367511308,0.08982600174649691,0.03331518056906036,-0.0011335219141251998,-0.006429221499136677,0.0
2025/04/05 15:42:07.501638063,1743860527,499222269,piren,0.1317980014463046,0.17726422725609212,0.07092926864255583,-0.002589668827475042,-0.004478178238251439,-0.12858411385247817
2025/04/05 15:42:07.539235143,1743860527,537611607,piren,0.1338528629742086,0.052692760549235246,0.019042351549635822,-0.0035482714499742245,-0.002294485535622019,-0.022920138468173198
2025/04/05 15:42:07.577410690,1743860527,575589884,piren,0.1344844730387194,0.0009879344982897664,-0.0011528178013773954,-0.001913507178520085,0.0002016565079905131,0.0
2025/04/05 15:42:07.615350692,1743860527,613516456,piren,0.13727741567909102,0.13325604936221738,0.05270990273738209,-0.0016269801948272232,0.002529645946764198,0.0
2025/04/05 15:42:07.689444059,1743860527,687126801,piren,0.1471791051055788,0.0898805647233536,0.03653178397571348,-0.0006916344883594429,0.004803393604290774,-0.11369584699049474
2025/04/05 15:42:07.727019464,1743860527,725226574,piren,0.15137680863776945,0.1490289679806216,0.060666842258759845,-0.002267338252212934,0.007289403444856606,-0.02111800516339382
2025/04/05 15:42:07.801236839,1743860527,798658788,piren,0.15117198991083564,0.10678248261328976,0.043521868659852345,-0.00040733024515976837,0.009223087854635229,0.0
2025/04/05 15:42:07.873380487,1743860527,871544256,piren,0.16735256557999487,0.2024075593400545,0.0789744895071112,-0.0011374762196420683,0.009534768297634931,-0.1007708497553858
2025/04/05 15:42:07.947306442,1743860527,945731432,piren,0.1698802358867851,0.07275333424145233,0.02406309377609145,0.0005112866303689606,0.009235925468660582,-0.01931394515130617
2025/04/05 15:42:07.986340123,1743860527,984255905,piren,0.1706819778346016,0.03584023555840818,0.008923817409777515,0.001097662904887179,0.00840989784764555,0.0
2025/04/05 15:42:08.23629160,1743860528,21996169,piren,0.17419224407244652,0.12419264344457646,0.04273805121576285,0.00033238062818817077,0.007642514042743214,0.0
2025/04/05 15:42:08.97322108,1743860528,95534923,piren,0.1794872566242702,0.07281415260927193,0.022200276259878294,-0.0001191199105993353,0.005711780911302487,-0.09875514914735921
2025/04/05 15:42:08.135928170,1743860528,133475282,piren,0.18197370328871326,-0.06891765277869066,-0.040487598870766306,0.0014921032257837277,0.0033932248086441775,-0.018245031893565505
2025/04/05 15:42:08.174517311,1743860528,172443945,piren,0.18283403171562893,-0.05477095784190109,-0.03257418987568715,0.0018401521996611817,0.0009379436121236411,0.0
2025/04/05 15:42:08.248959994,1743860528,247343837,piren,0.1842278806589547,-0.043761309153114186,-0.026431151451179698,0.0017740964747512068,-0.0016871645192859548,-0.01743771408636358
2025/04/05 15:42:08.288462838,1743860528,285806567,piren,0.19007884582811127,-0.03150147675364619,-0.019954619286732107,0.0024679821723127895,-0.00391680232391132,0.0
2025/04/05 15:42:08.326102188,1743860528,324258850,piren,0.1939513724615153,-0.029975540026679796,-0.018132957384948606,0.0021512518922984945,-0.005916050935029619,-0.01959255708073005
2025/04/05 15:42:08.398269888,1743860528,396767427,piren,0.19889239919616553,-0.02410941333155219,-0.01399928628294243,0.0029508575104020994,-0.008928532128649582,0.0
2025/04/05 15:42:08.472681131,1743860528,470483344,piren,0.20303811715007208,0.047851820273309066,0.016653857080191417,0.0016595531250804395,-0.009631618932534336,-0.07740997826553063
2025/04/05 15:42:08.547239274,1743860528,545243033,piren,0.20205097306452438,0.022257811932514096,0.00778083975787202,0.000293213620347858,-0.00938645302092747,-0.014480950301765126
2025/04/05 15:42:08.621537174,1743860528,619669329,piren,0.19769349727716867,-0.036237226086813595,-0.014155171074530154,-0.0005294029133424311,-0.008423042146555745,0.0
2025/04/05 15:42:08.697093648,1743860528,695157565,piren,0.20168248228173974,-0.13702552934682838,-0.05935558034515092,-0.0012611546421896732,-0.005227795935149946,-0.07273159931038224
2025/04/05 15:42:08.771877081,1743860528,770083858,piren,0.20333221292298725,-0.22902564946916695,-0.10053030870443366,-0.0017881744212994263,-0.0032004714073651597,-0.06794445300610448
2025/04/05 15:42:08.846060364,1743860528,843537628,piren,0.20401758104671894,-0.23733969183131134,-0.10426632115291107,-0.0013549787876516856,-0.0008941597132621264,-0.011416135425045323
2025/04/05 15:42:08.885322271,1743860528,883176370,piren,0.2057909452679723,-0.17853260504693877,-0.07662962468760072,-0.00019269252366631003,0.001173321846957486,0.0
2025/04/05 15:42:08.925064012,1743860528,923131933,piren,0.21224333516765903,0.010630687627281643,0.003356130582542166,-0.0010819317165356114,0.003115054225012549,0.0
2025/04/05 15:42:09.20065361,1743860529,17947638,piren,0.22309920572179173,0.15257511751092406,0.0615691382109989,-0.0018303910103105565,0.007098828532351233,-0.058647686080711824
2025/04/05 15:42:09.94650245,1743860529,92398710,piren,0.22779108100198747,0.1269265473765705,0.052979800594359985,-0.00015201609834708508,0.008124104581334059,-0.049583342605095455
2025/04/05 15:42:09.135665246,1743860529,131217137,piren,0.23451049676082214,0.2041141854024323,0.08379043670961357,-0.003566981078664379,0.007965236683166444,-0.010654184859198675
2025/04/05 15:42:09.172053006,1743860529,170304925,piren,0.23774426816326005,0.054837133921319614,0.019034046745118174,-0.001936833343136214,0.007977796196507153,0.0
2025/04/05 15:42:09.245280665,1743860529,242915989,piren,0.23836065884288465,-0.05973304917210895,-0.03199707124932808,2.3237920642425435e-05,0.00687181556278957,-0.00937883231360429
2025/04/05 15:42:09.283533917,1743860529,281860345,piren,0.24727870622332368,0.0698720166051777,0.022909400940137478,-0.0010016182704809602,0.006167347662490552,0.0
2025/04/05 15:42:09.321874252,1743860529,320299461,piren,0.24941311928528187,0.06053289480928527,0.02123939356641414,-0.0007877502519824228,0.005103439489032361,0.0
2025/04/05 15:42:09.402503461,1743860529,397111099,piren,0.2503239386499444,0.00199783618063578,-0.003128588365406495,-0.0001383221012384114,0.0037387365449304696,-0.04288083913705762
2025/04/05 15:42:09.438640059,1743860529,436552154,piren,0.25237186090412245,0.10264622223271602,0.03843032453388161,0.0011278151108953054,0.0022396432490540056,-0.00845020931452469
2025/04/05 15:42:09.477273678,1743860529,474686670,piren,0.2552798420895669,0.19389894660166704,0.07460071671755655,0.0011032228034719323,0.0004554525299549915,0.0
2025/04/05 15:42:09.515801378,1743860529,513521092,piren,0.25759202762451416,0.21702577301971415,0.08477771249712047,0.0007656031003699726,-0.002467860411880152,0.0
2025/04/05 15:42:09.590924896,1743860529,589159628,piren,0.268051547808227,0.1463220357849883,0.05774944981255947,0.000588448839010401,-0.003973682511628934,-0.0333249438794651
2025/04/05 15:42:09.630472050,1743860529,628634834,piren,0.26344184469353416,0.10122727253510733,0.04071754462298349,0.0027194247003643835,-0.0052292648361034425,-0.004766650789506692
2025/04/05 15:42:09.670647816,1743860529,668860677,piren,0.26075308874296743,0.14168782309802794,0.05702329975501916,0.002664097587112492,-0.006127083154804525,0.0
2025/04/05 15:42:09.745535599,1743860529,743393847,piren,0.2566115136654843,0.0649139197239498,0.026813891821868104,0.0011204089916548657,-0.0066317866042885625,-0.004082132645731731
2025/04/05 15:42:09.785151108,1743860529,783172308,piren,0.2535745281360959,-0.08392484446749163,-0.03790028149399739,0.0012781554235974692,-0.006759097146518163,0.0
2025/04/05 15:42:09.824846795,1743860529,822849942,piren,0.25408961857237944,-0.060238127321871934,-0.025211964438681005,0.0027260378854719663,-0.00653663492341947,0.0
2025/04/05 15:42:09.901949247,1743860529,899780115,piren,0.2563465290055318,0.05703754019391512,0.022451688107645668,0.001177634704562127,-0.004896144981613051,-0.016656338686637566
2025/04/05 15:42:09.977937419,1743860529,976032020,piren,0.25515814650057095,-0.00013253305441990673,0.0031120230094194914,0.0007717130039260356,-0.0036770841663137503,-0.015002381156352357
2025/04/05 15:42:10.53474307,1743860530,51465608,piren,0.2568280816716195,0.03213496482567338,0.017070242056209314,0.00015219979871271695,-0.0021834433089783977,-0.002176239309234908
2025/04/05 15:42:10.93370916,1743860530,90456094,piren,0.2550597419933637,-0.10791713425651264,-0.04489210937385238,0.000898468557153021,-0.0010684687839375216,0.0
2025/04/05 15:42:10.131743219,1743860530,129737541,piren,0.26973625313589755,-0.032245901752730205,-0.011945568528511148,-0.000847753353767546,-0.0004586244350100686,-0.0013068118440500785
2025/04/05 15:42:10.171615596,1743860530,169469176,piren,0.26730850442304466,-0.1421012259775574,-0.06058642191678601,0.0002427010565035262,0.0011098456026400207,0.0
2025/04/05 15:42:10.245325988,1743860530,243655493,piren,0.27015194501686884,-0.01212315525626706,-0.006134866078487351,-0.0010008880128194824,0.0026857721815493865,-4.4851252845015475e-05
2025/04/05 15:42:10.285831328,1743860530,282976147,piren,0.2706206257840676,-0.03374594087526872,-0.013379258277361646,-0.0006531743711303286,0.003934743688915608,0.0
2025/04/05 15:42:10.325125216,1743860530,322351876,piren,0.2726206289192759,-0.03373886946783329,-0.01241450714481694,-0.0010808004661823657,0.0049593256414235225,0.0
2025/04/05 15:42:10.400106759,1743860530,398203346,piren,0.27582991168401344,-0.027120333274296506,-0.00983500515166867,-0.0011341181216163127,0.006008982258729801,0.001865302759112363
2025/04/05 15:42:10.476679465,1743860530,473326423,piren,0.2811265519334483,0.09568040505328157,0.0374718196495798,-0.0007534445021858744,0.005998867663615128,0.0042075480447478445
2025/04/05 15:42:10.553134809,1743860530,551038733,piren,0.28601522901622045,0.05907581571987124,0.022627366385435995,-0.0002427099290550407,0.004880189216572059,0.0012011826515594254
2025/04/05 15:42:10.632264509,1743860530,630102376,piren,0.29208201245223786,0.1322221262579666,0.05048721528223146,-0.0005279631508245781,0.003877267104858913,0.0017505282614127839
2025/04/05 15:42:10.672183260,1743860530,670365715,piren,0.2959929983142956,0.18001796309458826,0.06835690145974659,0.000572514090161734,0.0026787900200669268,0.0
2025/04/05 15:42:10.750112193,1743860530,745944022,piren,0.2981597505366608,0.1918576222074995,0.07276868291632034,0.00012820740439832922,0.000687767742330443,0.002546793421082848
2025/04/05 15:42:10.788583160,1743860530,786388055,piren,0.30253094349391174,0.20283521297060417,0.0766130449027979,-0.0005098396793421348,-0.0005269344729497194,0.0
2025/04/05 15:42:10.827437554,1743860530,825865764,piren,0.3001787322251857,0.09219769162800788,0.03328769671075549,-0.0005381494693159825,-0.0016857586511720792,0.0
2025/04/05 15:42:10.907333756,1743860530,904633612,piren,0.29894177980931996,0.018436956217011025,0.004915411792842696,0.0007092048500328689,-0.003414193683989804,0.017986736611642046
2025/04/05 15:42:10.985354842,1743860530,982935641,piren,0.29835686930687183,0.08349418668144665,0.030232663141146365,0.0007560806803458808,-0.003832948777959747,0.018426157856522338
2025/04/05 15:42:11.24370455,1743860531,22687126,piren,0.2985346063956512,0.12459615098550841,0.04633236901789417,-0.000383339428152665,-0.004227663272629787,0.0
2025/04/05 15:42:11.101425722,1743860531,99386147,piren,0.2984379399785666,-0.0550564788538844,-0.027039417360817164,0.0026199084168358,-0.004413938330326289,0.020342595021483664
2025/04/05 15:42:11.178750120,1743860531,176773281,piren,0.298358924842023,-0.13452258599700084,-0.05736263884180175,0.0028409313272298752,-0.0040822233029172055,0.015940150415219612
2025/04/05 15:42:11.255152059,1743860531,253117617,piren,0.301339539429864,-0.02990683846364786,-0.013449545717455602,0.0020237891616943296,-0.0023864542444091094,0.0044219244670864735
2025/04/05 15:42:11.333932280,1743860531,329908505,piren,0.30301646552488815,0.05041446931341001,0.01957101241855838,0.0005237324374828947,-0.0014566620245198836,0.0
2025/04/05 15:42:11.373977600,1743860531,372376565,piren,0.30253815792416383,-0.0976342460401605,-0.04160658801836774,0.0009185718513597372,-0.0006354904654160082,0.022767802881781273
2025/04/05 15:42:11.451822728,1743860531,449156182,piren,0.3047096994942421,-0.09978974392733958,-0.03943586532936727,0.001089007012337599,0.00018343866331995649,0.0044850272907164795
2025/04/05 15:42:11.492211199,1743860531,490039161,piren,0.30676311536826684,-0.10076388125639765,-0.03801938931256188,0.0008547738543763785,0.0010009295823208463,0.0
2025/04/05 15:42:11.533736386,1743860531,531875640,piren,0.3080718606389837,-0.09599724815820933,-0.03510388461788174,0.000633920212052823,0.00118903221829208,0.0
2025/04/05 15:42:11.594267073,1743860531,592310945,piren,0.3107128604264289,-0.08548706493893347,-0.030424385480401092,0.0004194918439134262,0.0019919288548582623,0.026694670688588735
2025/04/05 15:42:11.635497355,1743860531,633229029,piren,0.31126319389486523,-0.07896800470311915,-0.02787674735904317,0.00013696019204048471,0.002712034904029799,0.005778147472175046
2025/04/05 15:42:11.677885385,1743860531,674712044,piren,0.3122989372388929,-0.07085452589176326,-0.02497457636163644,-0.0001641705093288283,0.0030817373585522133,0.0
2025/04/05 15:42:11.755524629,1743860531,752774002,piren,0.31695899159735746,-0.059150956451548484,-0.021088009991665817,-5.81676171466319e-05,0.0032427452458132335,0.006002064333214798
2025/04/05 15:42:11.834424722,1743860531,832664017,piren,0.3207564700775038,0.06395547020069955,0.025738942515415468,-0.0013129736643394078,0.003053358876846843,0.005977715243551188
2025/04/05 15:42:11.877318406,1743860531,874456608,piren,0.32078762202804684,-0.012209181554362084,-0.006127985293958874,2.9938662389170715e-06,0.002661278793250125,0.0
2025/04/05 15:42:11.955699981,1743860531,953555384,piren,0.3236896093768792,0.08675181842486437,0.0324207296837652,-0.0010916595377126323,0.0015418280186471974,0.006539966141295515
2025/04/05 15:42:12.33657192,1743860532,32050774,piren,0.32526559779516906,0.09256302514841137,0.03565344633825512,-0.0002818845265241945,0.00030453033625969117,0.00712523026862208
2025/04/05 15:42:12.112852453,1743860532,109313655,piren,0.32900400282778725,0.12996943319913098,0.050289270298010114,-0.0012579526980183058,-0.0008041541290924686,0.0
2025/04/05 15:42:12.192212050,1743860532,187908314,piren,0.32716405736691745,-0.03028897958770302,-0.017233135962548884,-0.0010718707663388428,-0.0013880405427138857,0.032834625699689785
2025/04/05 15:42:12.230138946,1743860532,228631200,piren,0.330613753867101,-0.12359293898889462,-0.055893935297108455,-0.0001640120166664389,-0.001860364734457827,0.009206125076752041
2025/04/05 15:42:12.270497178,1743860532,268448355,piren,0.33446974366552246,-0.028905568154413586,-0.015214397881636602,-0.000880949987270026,-0.0019506778305576832,0.0
2025/04/05 15:42:12.348325433,1743860532,346544272,piren,0.33474025423142856,-0.0891501054280974,-0.03875130739574259,-8.608475652937811e-05,-0.0018232649636802105,0.007475118380588909
2025/04/05 15:42:12.428825400,1743860532,425276825,piren,0.3362834699190899,0.0440177259929902,0.015032297750944612,0.0009355005340776254,-0.0017517835520516137,0.0
2025/04/05 15:42:12.510348168,1743860532,504863023,piren,0.337537602295106,0.0507636444348469,0.020444367518939122,0.0013800363756028239,-0.0016843273733476662,0.03943424019797663
2025/04/05 15:42:12.586880679,1743860532,584666477,piren,0.341751350477307,0.11819230873807154,0.04754267715220657,0.0004372111915211374,-0.001458808967935785,0.03898832682090988
2025/04/05 15:42:12.628795908,1743860532,626261237,piren,0.34115909135707634,-0.05778002290721759,-0.02696375591166464,0.0012460468325475574,-0.0016493845056120046,0.0
2025/04/05 15:42:12.708486328,1743860532,705893029,piren,0.34038177350398663,-0.07877023972478071,-0.03235186742166902,0.0029276920204393464,-0.0003028542349338269,0.04270921473108147
2025/04/05 15:42:12.790964086,1743860532,788573082,piren,0.3384539912653509,0.028655275241772513,0.011999480683347066,0.0015346272093853326,0.0005052326866964194,0.04353882201486665
2025/04/05 15:42:12.836310841,1743860532,832630023,piren,0.3395702586898552,-0.005754320091636497,7.170649760468786e-05,0.002525007989757488,0.0010922213290855466,0.008466208131673252
2025/04/05 15:42:12.879295291,1743860532,875630786,piren,0.34306515958701317,0.07990512462829484,0.03416235046061253,0.0023893298956206253,0.0014450356257577823,0.0
2025/04/05 15:42:12.927604977,1743860532,923234530,piren,0.34531771009269513,0.1325164614353531,0.05489629029691827,0.0010734125502742287,0.0017898696997142147,0.0
2025/04/05 15:42:13.14041134,1743860533,11766352,piren,0.34677139251798517,0.1732173039532887,0.06985396939670274,0.0005699154816811362,0.0022392863448725546,0.04109541033459959
2025/04/05 15:42:13.96311089,1743860533,93559673,piren,0.34681282872988967,0.06691547700138527,0.02844997426856602,0.0010606833422456155,0.0023141768962971717,0.03965180297747547
2025/04/05 15:42:13.175483455,1743860533,173194897,piren,0.3469247014483245,-0.01637643515627986,-0.004568992237393904,0.0009234652434331274,0.002065732467840944,0.04083122140066432
2025/04/05 15:42:13.218402782,1743860533,216407300,piren,0.3497209508742345,0.0053179272071253,0.004390195173727501,-0.001186962300018666,0.0016146973208518351,0.0
2025/04/05 15:42:13.298813334,1743860533,295626583,piren,0.3504784992424903,-0.034125233588837886,-0.011251420613572153,0.00032322698427086736,0.0008284255937140638,0.03851784344068198
2025/04/05 15:42:13.377009839,1743860533,375032493,piren,0.3515039119055928,0.03691278712467522,0.015619245588078395,-0.0011566694996032016,0.00041890932809602384,0.0369227473069625
2025/04/05 15:42:13.458257263,1743860533,454698724,piren,0.353487704750296,-0.027513638063327905,-0.009752617092332074,-0.0009643145023076952,-0.0004973418825071675,0.007076685942713659
2025/04/05 15:42:13.538669035,1743860533,535085556,piren,0.35581018754587607,-0.07196367767801291,-0.027320817204637093,-0.001972224850044546,-0.00020887569617781195,0.006480833891357219
2025/04/05 15:42:13.581378539,1743860533,578203405,piren,0.35350931560860777,-0.08519620166934999,-0.03222407558652028,-0.0005890922716759617,-0.0007267245384725118,0.0
2025/04/05 15:42:13.622055043,1743860533,620239147,piren,0.35350931560860777,-0.08519620166934999,-0.03222407558652028,-0.0005793032359753894,-0.0013646053982209173,0.0
2025/04/05 15:42:13.703520402,1743860533,701407803,piren,0.3558872488149519,-0.1033409322266374,-0.03942458021147607,-0.0018439520463517,-0.001098251371672715,0.03012645277572912
2025/04/05 15:42:13.782863342,1743860533,781172533,piren,0.3579589927900998,-0.2678815155431033,-0.11371384239879671,-0.001143662383954693,-0.0013549059884952735,0.02287051360526473
2025/04/05 15:42:13.824826596,1743860533,822990639,piren,0.36236477319375815,-0.1832504512263307,-0.07566192988350591,0.00016269566915388652,-0.0015671048053621007,0.0
2025/04/05 15:42:13.908586445,1743860533,904676633,piren,0.3640453619895198,-0.10332682845118996,-0.04033290240774119,0.0007245155479882643,-0.001654045162278052,0.02216198591555213
2025/04/05 15:42:13.987795789,1743860533,985427956,piren,0.3655749506653138,-0.0007045608490438005,0.0026832825957398623,-0.0005132581119455951,-0.0015470383921252424,0.02097275732197952
2025/04/05 15:42:14.29529455,1743860534,27784019,piren,0.3667949932914326,-0.09267196900454963,-0.037136351489370556,0.0008738558741991918,-0.001558407048699437,0.0038734529655027315
2025/04/05 15:42:14.71476847,1743860534,68991855,piren,0.3690833877344631,-0.05686696443808559,-0.020142913622229176,0.002184096955458084,-0.0014935793735248247,0.0
2025/04/05 15:42:14.149790238,1743860534,147981308,piren,0.36977739082090016,-0.06489352541261668,-0.02257982904774072,0.0005121114292247646,-0.0011063055413441044,0.004058195412098783
2025/04/05 15:42:14.232555522,1743860534,230356859,piren,0.368987245246035,-0.13809766122048983,-0.055902931551914434,0.0004012406664318077,-0.0007933731163771445,0.004209722910328055
2025/04/05 15:42:14.272916639,1743860534,271031758,piren,0.3684156014973269,-0.17792618223570514,-0.07410726415986385,0.0012416083923782253,-0.00048403338051304396,0.0
2025/04/05 15:42:14.352552444,1743860534,350277835,piren,0.36843659554078845,-0.0821072109258688,-0.031291305592214554,0.0008284177009863069,0.00027433472228490327,0.004464497138660225
2025/04/05 15:42:14.432479114,1743860534,430667588,piren,0.36871947734530297,-0.09543326611415011,-0.03696585234174034,0.0011099894516946214,0.000682312807627907,0.0
2025/04/05 15:42:14.475087913,1743860534,471928739,piren,0.3691012666701681,-0.03273541196313033,-0.009067802018737619,0.00092160248999988,0.0008750063608338924,0.024736464633037594
2025/04/05 15:42:14.554826256,1743860534,552993419,piren,0.37087246331980167,0.02201783478817617,0.014615395979844296,0.0005356072533310219,0.0014212142819870464,0.00462696066469389
2025/04/05 15:42:14.634892660,1743860534,633020924,piren,0.3718133112309715,0.16476856212166296,0.0706823993265775,-0.0012364149924144639,0.0024380784740114752,0.0
2025/04/05 15:42:14.736335953,1743860534,734468561,piren,0.3695978102035951,0.0369012767521332,0.015871438132420895,-0.000944592920439579,0.002143021906088947,0.002073499356884761
2025/04/05 15:42:14.777773619,1743860534,775982600,piren,0.3743552187955629,0.043834874031381914,0.02069877795394138,-0.0003455735275755136,0.002001827680977606,0.0
2025/04/05 15:42:14.821564809,1743860534,819641294,piren,0.3774146564163402,0.1552194825347675,0.06498982014331456,-0.0009229217296170062,0.001540383209989309,0.0
2025/04/05 15:42:14.903586419,1743860534,901485774,piren,0.3820860781491319,0.21886769035190864,0.08986779738349529,-0.0006488119647650411,0.001818805637991795,0.01869246029770197
2025/04/05 15:42:14.984753898,1743860534,982767459,piren,0.38028027925761304,0.24382442268824944,0.09975097751593079,-0.0024575989825687426,0.0013396254196104112,0.014407754873769265
2025/04/05 15:42:15.29567711,1743860535,24433480,piren,0.38273524163614636,0.03414947191677187,0.011224516438451071,-0.0035699293865844002,0.0006167713605096111,0.0
2025/04/05 15:42:15.106540037,1743860535,105017467,piren,0.38452974673195967,-0.06129290869275733,-0.026249536773125144,-0.0003165856606788594,-0.00040250385418733763,0.013193944991816335
2025/04/05 15:42:15.187308534,1743860535,185747361,piren,0.3850761849495484,-0.06554846204448891,-0.024808442614250865,-0.0006396277215108279,-0.0008646076036136604,0.013460246698393569
2025/04/05 15:42:15.230558909,1743860535,227115982,piren,0.3861121172225921,-0.11070361462548076,-0.04260618123755154,-0.00017561455868418167,-0.0004969694161953705,0.0
2025/04/05 15:42:15.309209618,1743860535,307565356,piren,0.3861436890786535,-0.0820610074737027,-0.028695876863409384,-0.0013403208688433728,-0.0014820152272746292,0.010370562598730091
2025/04/05 15:42:15.392056562,1743860535,389131167,piren,0.3895696912870789,-0.15336418864471793,-0.06055019159844942,-0.000404084112903977,-0.0018826799089541532,0.006009809625930975
2025/04/05 15:42:15.434891305,1743860535,432384667,piren,0.3917512964266734,-0.08157041244912702,-0.02843572644407185,-0.00032114704797362733,-0.002152406466609103,0.0008788167507181432
2025/04/05 15:42:15.476161297,1743860535,473949255,piren,0.39298393589165237,-0.029387576339922228,-0.0052590300592254,-0.0006273288162006843,-0.002300705415456678,0.0
2025/04/05 15:42:15.558331391,1743860535,556515201,piren,0.39285594053540074,-0.10396119713659513,-0.03843429970157753,0.002395533823418902,-0.002224399974017886,0.0006423467487099649
2025/04/05 15:42:15.640429971,1743860535,638809062,piren,0.39218927940983117,-0.06310169923553927,-0.019670975734619876,0.0027656194298653234,-0.0019787392836888274,0.0004179032092662006
2025/04/05 15:42:15.683761165,1743860535,681610910,piren,0.39147168334770865,0.04516645416506493,0.025143930209462404,0.0017000824986533958,-0.0015777490586801593,0.0
2025/04/05 15:42:15.726562857,1743860535,723733205,piren,0.3903650261951952,-0.05445598248907059,-0.018271805792797153,0.002689516349746448,-0.0011302621572049708,0.0
2025/04/05 15:42:15.808593697,1743860535,806168370,piren,0.38984000774912597,-0.028177065870294754,-0.005419473304576202,0.0023424227643353526,-9.637684595623176e-05,0.0011744640443769104
2025/04/05 15:42:15.892057758,1743860535,889211920,piren,0.38956414569302067,-0.009929492698756221,0.0033024243394212203,0.0006768023065153416,0.0004123918931252417,0.0001531232959702558
2025/04/05 15:42:15.934203228,1743860535,932615664,piren,0.3885521851632802,-0.09883518058841159,-0.03721228486019509,0.0007437628780534289,0.0009058811551508246,0.0
2025/04/05 15:42:15.975813048,1743860535,974182895,piren,0.3885521851632802,-0.09883518058841159,-0.03721228486019509,0.0017269620421982953,0.0013587169972759598,-0.00042704104679997077
2025/04/05 15:42:16.18511327,1743860536,16656325,piren,0.3920117381999262,0.06646665418743455,0.030129188838057853,0.0014219437669745628,0.001674291064160848,0.0
2025/04/05 15:42:16.99878946,1743860536,98350960,piren,0.3947263650458808,0.1656560087535587,0.07049227774111624,-2.3487805349710913e-06,0.001955782307054364,-0.0013540868025497474
2025/04/05 15:42:16.181240070,1743860536,179647891,piren,0.39745356992953024,0.10672068049057147,0.04853454738960711,-6.498575493727294e-05,0.0016667589966871666,-0.0023259805325542447
2025/04/05 15:42:16.225317841,1743860536,222143953,piren,0.40040938991242003,0.18155573990520738,0.07802323801130942,-0.0010407043691367049,0.001368440746675727,0.0
2025/04/05 15:42:16.307540861,1743860536,304445971,piren,0.40117735423787054,0.11254588332249173,0.0515415777449785,-0.002167513435798033,0.000994248970637569,-0.0018500242413187916
2025/04/05 15:42:16.387979495,1743860536,386083126,piren,0.40128164602865585,0.016118576748704677,0.01212481490508633,-0.0025910216833516498,0.0008609192641310657,-0.0015595272289955263
2025/04/05 15:42:16.431146943,1743860536,429411356,piren,0.40062503340504924,0.002610236523560768,0.00753457808520462,-0.0028707650653029934,0.000721290415426565,-0.00024550257163925225
2025/04/05 15:42:16.473778683,1743860536,471228137,piren,0.40016678229890207,-0.004197267767312344,0.005232921498788164,-0.0014469063484041425,0.00048256920119045494,0.0
2025/04/05 15:42:16.555865933,1743860536,554114159,piren,0.40077405534584615,0.09407877490507477,0.04261364331279754,-0.0015004936047353483,-7.457337020220093e-05,-0.00033060181974844716
2025/04/05 15:42:16.642120783,1743860536,640428581,piren,0.40181709094217694,0.08694223491743347,0.04049698524735308,-0.002180639139325467,0.0003740091709158693,-0.0007410181088567412
2025/04/05 15:42:16.686219584,1743860536,684332221,piren,0.4000668817254791,-0.07582561750782527,-0.030092530427681688,-0.0018697137539588913,-7.859316145892515e-05,0.0
2025/04/05 15:42:16.729537359,1743860536,727513033,piren,0.401916160343535,-0.12206601124589662,-0.048005765034626474,-0.0001971399392586652,-0.0004713549685861103,0.0
2025/04/05 15:42:16.811551407,1743860536,809854670,piren,0.4055646387438173,-0.007909135800900302,-0.00036015476925226053,0.0005034689725843102,-0.0012921153278324842,-0.007229521806493883
2025/04/05 15:42:16.898275678,1743860536,894430739,piren,0.4079121920851321,0.00140301477358723,0.00563754906243257,0.00020785362172228154,-0.0007908016405200278,-0.007830710582075323
2025/04/05 15:42:16.979951310,1743860536,978208557,piren,0.4050358314571894,-0.006155910722326851,0.0049075528804017245,0.0012021315195696628,-0.0010117567633483335,-0.009330852210451431
2025/04/05 15:42:17.23685957,1743860537,21497538,piren,0.40614830717431677,0.1043429480173933,0.04705817776672592,0.0015050624974504892,-0.0011049116709810197,0.0
2025/04/05 15:42:17.104873214,1743860537,103216355,piren,0.4071268437836806,0.15532881804510967,0.06677613890976981,0.0025287765045552556,-0.0010720260682337013,-0.009765805503815166
2025/04/05 15:42:17.188677909,1743860537,186754269,piren,0.40683220976561635,0.06671558769676328,0.03281203544431822,0.0014606105630754023,-0.0009530668161231684,-0.011965214315375594
2025/04/05 15:42:17.232433977,1743860537,229603140,piren,0.40572645423967507,-0.04056230887049361,-0.010764320922450957,0.0006519807372731708,-0.0007381263566089098,0.0
2025/04/05 15:42:17.275208880,1743860537,272904362,piren,0.40469402081730543,-0.07814683726928644,-0.025018504008693335,0.002815302802440238,-0.00047565790800149554,-0.013548947352794391
2025/04/05 15:42:17.356723999,1743860537,354976740,piren,0.40347351486543626,-0.09260922268249425,-0.030240217506265345,0.0010323254686320446,0.00010139884636596983,-0.0026817915655910404
2025/04/05 15:42:17.441738142,1743860537,439029221,piren,0.4023696028838003,-0.2007168602632185,-0.07938248419320328,-0.0008464908084544977,0.0010486297868625854,-0.002971889717681288
2025/04/05 15:42:17.484024664,1743860537,482007901,piren,0.4006081494023874,-0.24348422980392506,-0.09848625700213315,0.0004273941850723296,0.0011775881427497322,0.0
2025/04/05 15:42:17.529290703,1743860537,526559565,piren,0.40283311593839244,-0.04352230789404468,-0.01697003473485882,0.0016090739001860912,0.001225222604107186,0.0
2025/04/05 15:42:17.611599407,1743860537,608831639,piren,0.4054962459300441,0.06542492761295822,0.028947693225153122,-0.0014782042613100369,0.0008805659210211618,-0.018211441803563194
2025/04/05 15:42:17.698607671,1743860537,693752099,piren,0.41027636747217,0.09321577450018655,0.04283794191219204,-0.001124926655677489,0.0004499746290843844,-0.01799781935041208
2025/04/05 15:42:17.740072952,1743860537,738299693,piren,0.4133286418021271,0.0449910364740396,0.02527826139440773,-0.000967548535406526,-7.216093227937548e-06,-0.0033710322550813644
2025/04/05 15:42:17.785022853,1743860537,783107676,piren,0.4139075960677928,0.005997221309463084,0.010581309803571026,-0.0014339243411175208,-0.00013355203713344066,0.0
2025/04/05 15:42:17.830348526,1743860537,827090918,piren,0.4138614974756365,-0.016522841743016513,0.002117268825111974,-0.0017159981605218927,-0.0003664122683980974,0.0
2025/04/05 15:42:17.874929706,1743860537,871949724,piren,0.4147872632223425,-0.02825482310772652,-0.0022977149519182276,-0.0030102042453502747,-0.0005604121395501647,-0.016804261763159835
2025/04/05 15:42:17.957981029,1743860537,956542422,piren,0.41507785555754706,-0.018533229645299187,0.0017471718377993668,-0.0018548287970275622,-0.00084728253358693,-0.00293702638010294
2025/04/05 15:42:18.63003771,1743860538,61079071,piren,0.41798860539379346,-0.053110623841893655,-0.013072670332688606,-0.0006275626717314954,-0.001001810788522974,-0.0028419569433978603
2025/04/05 15:42:18.147455981,1743860538,145516060,piren,0.42054611654193647,-0.054209032274229074,-0.013761243816600231,-0.0004424763359006701,-0.0008507531353457843,-0.0026620157630050435
2025/04/05 15:42:18.231844823,1743860538,229503107,piren,0.4223013427330897,-0.01566965315305363,0.0018597430929304104,-0.0009474651354472196,-0.0006928706979641618,-0.002418747700953528
2025/04/05 15:42:18.275456938,1743860538,273219423,piren,0.4227933356874928,-0.008700025989991745,0.004574192235025943,-0.0005355437263210368,-0.0005232731360533524,0.0
2025/04/05 15:42:18.318549356,1743860538,316942688,piren,0.42321983158280996,-0.003490879467335007,0.00651383785058105,0.0001356858338967441,-0.00036190401420838547,0.0
2025/04/05 15:42:18.405000093,1743860538,401933431,piren,0.42287362554548047,-0.01662274774353075,0.0006834922690866939,0.0009958545806122915,0.00010999945858207112,-0.011993378651382355
2025/04/05 15:42:18.488533884,1743860538,486541821,piren,0.42029028746851504,-0.12341601231742,-0.04770616250046448,0.0015350645589359414,0.00047452063486288235,-0.009175329832562442
2025/04/05 15:42:18.534153929,1743860538,532342395,piren,0.4188212247867795,-0.08292487636263043,-0.029749149562079715,0.001113557791331791,0.0006992260442876717,-0.0019851725949647167
2025/04/05 15:42:18.578644660,1743860538,575267411,piren,0.41779493230428666,-0.13934127971392565,-0.05495701944718941,0.0018666064308605066,0.0008453846303884336,0.0
2025/04/05 15:42:18.663257938,1743860538,660697106,piren,0.41678987770769704,-0.08114077252948784,-0.02937202944676013,0.0012914685020804972,0.0010016691756013201,-0.0016943674593410242
2025/04/05 15:42:18.747660410,1743860538,746004974,piren,0.41599908456500995,-0.15227408446476084,-0.062365588396662404,0.0021716504875798266,0.0009948417170856923,-0.0016644519374261035
2025/04/05 15:42:18.791313751,1743860538,789660054,piren,0.4168192778341563,-0.010215402778248367,-0.00247241925963667,0.001156697306932436,0.0007787570207789675,0.0
2025/04/05 15:42:18.835513338,1743860538,833837002,piren,0.4181734486258392,0.040434736730640596,0.020369047148762896,0.00045285002210661594,0.0005053094790696426,0.0
2025/04/05 15:42:18.882691606,1743860538,879167095,piren,0.41872901146625735,0.07611067490456722,0.036266136862100104,0.0018465165477827851,0.00021358813022548867,-0.008089928209381269
2025/04/05 15:42:18.926502329,1743860538,924341267,piren,0.42263185446031454,0.1672498177134918,0.07193801268586131,0.0010703979901147773,-8.807427282943691e-05,0.0
2025/04/05 15:42:18.972197125,1743860538,968763921,piren,0.42469179003355745,0.10343658987676521,0.047286067098230286,-0.0008490166678604154,-0.0003527254065224577,-0.006917999824762616
2025/04/05 15:42:19.58865858,1743860539,57138879,piren,0.42429219298087445,-0.04598620234255518,-0.01752554156571659,5.686948684868122e-05,-0.0004909114585843449,-0.0011158863172242913
2025/04/05 15:42:19.144668122,1743860539,142594697,piren,0.42260629915945175,0.07725542244420525,0.03264350978605637,-0.0004414894385790699,-0.0003297227536062413,-0.001126464061915189
2025/04/05 15:42:19.188904504,1743860539,186839782,piren,0.4219050257092022,0.03437428923548454,0.01771694603557772,-0.002307350094725057,-0.00014568863569444995,0.0
2025/04/05 15:42:19.233827783,1743860539,231508319,piren,0.4216646381364626,-0.09332310988056573,-0.037372604543449525,-0.0024053378209932543,2.2280644998362422e-05,-0.001345808772514427
2025/04/05 15:42:19.278090166,1743860539,275572476,piren,0.4222509855333101,-0.05563772206073676,-0.018918413158082403,-0.0008032668077287784,0.00017743713502749148,0.0
2025/04/05 15:42:19.363524462,1743860539,361130803,piren,0.4238980015927609,0.070640323400267,0.032055420506441785,-0.0029928472839022527,0.00025196713726340227,-0.0014755180772539702
2025/04/05 15:42:19.448478187,1743860539,446358420,piren,0.42518113741566593,-0.06281400306152078,-0.024717622495336447,-0.002029605818534996,0.00021344765034305026,-0.0014000493796830216
2025/04/05 15:42:19.493430985,1743860539,491317035,piren,0.42661772871119863,-0.039130658589237435,-0.01188294235610035,-0.0004370112368726273,1.5659353106986593e-05,0.0
2025/04/05 15:42:19.539524953,1743860539,537272966,piren,0.42875197818466404,0.0466551291843649,0.02421757341498884,-0.0008811103019888693,-0.0001944896673834135,-0.0012939709819197597
2025/04/05 15:42:19.586580466,1743860539,581411864,piren,0.42967283832763314,0.014293079248000704,0.012439174131531013,-0.0021236832570476257,-0.0003566945165451423,0.0
2025/04/05 15:42:19.629254076,1743860539,627223778,piren,0.43231174883130735,-0.09841079317111451,-0.03695392936458188,-0.0004680609878474314,-0.0005037276585455492,0.0
2025/04/05 15:42:19.672721807,1743860539,670871282,piren,0.43478973397800474,-0.06559743616289723,-0.021251425620495156,-0.0008749188471881294,-0.0006483102246803968,-0.004997029855754662
2025/04/05 15:42:19.760193544,1743860539,757603553,piren,0.4359053186285564,-0.0019186993597935659,0.006111512160489552,0.0007933350363495798,-0.00039659602796856093,-0.0008849391774085941
2025/04/05 15:42:19.846933697,1743860539,844916132,piren,0.4328771579848308,-0.11882312815159765,-0.0466701416467036,0.0012989609760925222,-0.00021617852236928693,-0.0009140602443951281
2025/04/05 15:42:19.894158211,1743860539,890479104,piren,0.43292374322413707,-0.07392454427190331,-0.025645697802989222,0.0010102572197660947,-0.00024410901821866383,0.0
2025/04/05 15:42:19.938796426,1743860539,936087926,piren,0.433575663676811,-0.034904555738284576,-0.00791363515455577,0.001327058841385152,-0.00024192153082704812,-0.0008371115538824451
2025/04/05 15:42:19.983453459,1743860539,980462193,piren,0.43441887341682556,0.1112148644839186,0.049361954474766934,0.0008260893434972971,-0.00022681463314505035,0.0
2025/04/05 15:42:20.27769980,1743860540,25602388,piren,0.4342887177221655,0.08903696223528694,0.04226788870698742,0.0009438808926228166,-0.00018952091880668307,0.0
2025/04/05 15:42:20.114058869,1743860540,111573716,piren,0.4329814559322585,0.06622136539012953,0.034027903463685,0.0011660719149898806,-7.651855867479564e-05,-0.0032934554155183
2025/04/05 15:42:20.203764410,1743860540,201215259,piren,0.43179779258875894,0.042349454776559096,0.02467847927223689,0.0010157965957975506,0.0001422641606383049,-0.002420543136497443
2025/04/05 15:42:20.291642300,1743860540,288902699,piren,0.42946577983047973,-0.044401550061274435,-0.012535317184914213,0.0009100023091770287,0.0005180718704716659,-0.0012154276283862604
2025/04/05 15:42:20.335695472,1743860540,333842334,piren,0.42779265378699166,-0.03306547617175912,-0.007327478721773823,0.000532039580700817,0.0008550195189170991,0.0
2025/04/05 15:42:20.382013091,1743860540,379196664,piren,0.42950440304848597,-0.016379209084834118,-0.00021790654294951556,0.0016565823662553912,0.001133051818915053,-0.0014212334153762467
2025/04/05 15:42:20.425660722,1743860540,424061743,piren,0.4314912860105778,0.08390593712993048,0.0384867068664977,-0.00012584224663135274,0.001333418564459659,0.0
2025/04/05 15:42:20.471990898,1743860540,468752067,piren,0.43244434438770435,0.04490243483878711,0.023235026560047292,-0.00011197520772935925,0.0014559872636308513,-0.002509458238118011
2025/04/05 15:42:20.557894004,1743860540,556364111,piren,0.43397080525528503,0.1319605173655878,0.05584821151637977,-0.0013999119513726746,0.0010386263729706836,-0.0006481215728216336
2025/04/05 15:42:20.646049274,1743860540,644184408,piren,0.43535002772723597,0.016234591235070706,0.008665788935188296,-0.0015784348983003376,0.0007121083978597033,-0.0005296809297115453
2025/04/05 15:42:20.690661725,1743860540,689049464,piren,0.4360464968329779,-0.0158789577686088,-0.003221274705652326,-0.001306722558898413,0.0006107644637426722,0.0
2025/04/05 15:42:20.737592426,1743860540,735309616,piren,0.43625194599853784,-0.013819367108180288,-0.0014757161295666555,-0.0006554631165137711,0.0004397564545048146,-0.0005774170570933273
2025/04/05 15:42:20.782111638,1743860540,779931536,piren,0.43689101414806825,0.0620582441122229,0.028268723876707775,-0.002086402627423546,0.000284531070587105,0.0
2025/04/05 15:42:20.827647535,1743860540,825238914,piren,0.43724309624440133,0.019395529935400717,0.011815741830084246,-0.0021574743317417377,9.964251915486308e-05,0.0
2025/04/05 15:42:20.916246575,1743860540,914449033,piren,0.4371955461161178,0.0072155311648208036,0.00749786257748428,-0.0009107242229853627,-0.00030621527707491914,-0.004204231402138712
2025/04/05 15:42:21.4841344,1743860541,2673062,piren,0.4380314768067819,0.02838004898940251,0.01617773947162315,-0.0026906227634591164,-0.0007159658111224567,-0.005340875539048053
2025/04/05 15:42:21.93886694,1743860541,89444840,piren,0.4380634568092318,-0.09435651661788089,-0.036643925994377866,-0.00026414593068563834,-0.0009836001534398872,-0.0062029617718251315
2025/04/05 15:42:21.137756510,1743860541,135922762,piren,0.4395812228837712,0.028909305930029022,0.012200646467793015,7.245239742171299e-05,-0.0011749762239008962,-0.0012368769645437292
2025/04/05 15:42:21.182829165,1743860541,180452114,piren,0.44271442394269794,-0.013549178429775037,-0.0029881262706546365,-0.0006694994389345498,-0.0012810403962552365,0.0
2025/04/05 15:42:21.228714807,1743860541,226682877,piren,0.4430770375350221,-0.14385767477310712,-0.05947392140871455,-0.00045648949424590465,-0.001320197611116952,0.0
2025/04/05 15:42:21.274808554,1743860541,271840156,piren,0.4432376757189104,-0.21986324448862382,-0.09216767104237858,0.00011110649178027127,-0.001289835324266889,-0.004701744882756145
2025/04/05 15:42:21.361051292,1743860541,359285436,piren,0.4430029205410392,-0.1351031962435622,-0.053302720575155914,0.0009095367480567954,-0.0009756773822506527,-0.0007071367603101305
2025/04/05 15:42:21.472848410,1743860541,470784853,piren,0.4411497020719253,-0.19087685205108706,-0.07813302389684051,0.0006760438711007221,-0.0006508537140778249,-0.0006339908194827316
2025/04/05 15:42:21.561699153,1743860541,559920559,piren,0.44201972045093496,-0.08594511077985724,-0.03121371403406817,0.0011047015846099588,-0.00034911221608428263,-0.000550355995234447
2025/04/05 15:42:21.651278991,1743860541,649196345,piren,0.4436057483240347,-0.13724721471758083,-0.05438619016327917,0.002445929320685027,2.7078190372277015e-05,-0.0003899363456287737
2025/04/05 15:42:21.741320932,1743860541,739474254,piren,0.4462542284021765,0.05241616475491401,0.02382181626966573,0.0020133618948976486,0.00020125651755638317,-0.00025418737774237396
2025/04/05 15:42:21.787437807,1743860541,784971583,piren,0.4465892662988153,0.0529899812141598,0.027109484845038122,6.846643580521057e-05,0.00037991615929497174,0.0
2025/04/05 15:42:21.834066267,1743860541,831715114,piren,0.4458220826205888,-0.04653246486222951,-0.01622463723904421,-0.00017965239192196947,0.0005346260749877842,-0.000115312006993533
2025/04/05 15:42:21.880690466,1743860541,878676167,piren,0.44536564390491545,0.007282528631276819,0.008733720325687911,0.000997401998631603,0.0006375112875124046,0.0
2025/04/05 15:42:21.927457874,1743860541,925587267,piren,0.44606482117160334,0.14116337388081818,0.06245651658035345,0.0005109410209299451,0.000717984184592024,0.0
2025/04/05 15:42:21.973400607,1743860541,971508092,piren,0.4455711306949069,0.10429293624806676,0.04924647652999492,-0.0014771249193622669,0.0007759322111868195,0.000322201198198997
2025/04/05 15:42:22.63801610,1743860542,60246955,piren,0.4434943618069155,-0.02838213435502393,-0.008757629020284381,-0.00040456943357964253,0.0007325236397693393,0.0002493020388377058
2025/04/05 15:42:22.151265770,1743860542,148992976,piren,0.4441390907838012,0.10329748714848438,0.04466295008011012,-0.001988739276423079,0.000721884306253691,0.0004617101138138845
2025/04/05 15:42:22.197680267,1743860542,194665831,piren,0.4424300283856154,0.02240903569841113,0.012609920398864063,-0.0030488516598165157,0.0009355086849145424,0.0
2025/04/05 15:42:22.243342243,1743860542,241579851,piren,0.44076845619765653,-0.08003506320997028,-0.03160574387867716,-0.0014700621730567528,0.0011163521554918663,0.0004192307498215331
2025/04/05 15:42:22.289395977,1743860542,287588745,piren,0.44126683311869774,0.07401582969105266,0.031152154084928392,-0.0013649904621888718,0.0012041419532625006,0.0
2025/04/05 15:42:22.335724576,1743860542,333829569,piren,0.44504169672682103,0.08041366129414246,0.03670887105230948,-0.001997888199899816,0.0012333330258267208,0.0002506864980048351
2025/04/05 15:42:22.383463457,1743860542,379962037,piren,0.4476002132151279,0.058419744697039734,0.029509366539182427,-0.001961722786677584,0.0011860085349261436,0.0
2025/04/05 15:42:22.427824223,1743860542,426054952,piren,0.45051141524768346,0.16440034942243117,0.07015526332783319,-0.0019610125627662553,0.0010072802265752691,0.0
2025/04/05 15:42:22.474797083,1743860542,472169302,piren,0.45197092655162113,0.10548878822924097,0.048032240727433215,-0.0019231035052512983,0.0004711236853029323,-0.0002770920047004552
2025/04/05 15:42:22.566572071,1743860542,562542369,piren,0.45168617600397726,-0.05666863194037387,-0.022076932809806535,0.0007977263189186402,-0.00030680597899192534,5.663511055423246e-06
2025/04/05 15:42:22.658369851,1743860542,656206251,piren,0.45187174955103715,0.0558084060473452,0.02424240154997146,0.0012747236547939298,-0.0005306542588679266,-4.869962649403502e-05
2025/04/05 15:42:22.749158960,1743860542,746495630,piren,0.4514947258228857,0.12729332634753562,0.05363102676309946,-0.0005812243124993772,-0.0006482218633576286,-0.0003825951483693686
2025/04/05 15:42:22.839725243,1743860542,836801963,piren,0.4500712973573171,-0.037039019815346824,-0.014638308431154143,0.0030742881085348383,-0.0008848800791442881,-0.0006523193085525158
2025/04/05 15:42:22.885256841,1743860542,883450878,piren,0.45004191371954205,-0.0672421500493324,-0.023975752737126793,0.003442221249954452,-0.0011944707096482486,0.0
2025/04/05 15:42:22.932380425,1743860542,930685198,piren,0.45087528988728975,0.034893070085673106,0.018146979995571,0.0025997960562600553,-0.0014020970813486335,0.0
2025/04/05 15:42:22.980248033,1743860542,977174571,piren,0.45009062487392826,0.027746196687030978,0.017513850533775566,0.001665733793249452,-0.0011894886556824136,-0.003102726068817891
2025/04/05 15:42:23.25456416,1743860543,23743386,piren,0.45009062487392826,0.027746196687030978,0.017513850533775566,0.0004317554466538967,-0.0010723134084951046,0.0
2025/04/05 15:42:23.116688753,1743860543,114507328,piren,0.44775159563500877,-0.08650799170368328,-0.030698095771211385,0.002277314813038834,-0.0011208583733676506,-0.0033833376920923224
2025/04/05 15:42:23.206870834,1743860543,204104081,piren,0.4456595359418769,-0.07971608141729077,-0.026145995624893146,0.003591287763189237,-0.0002510700447274774,-0.0025737890015060517
2025/04/05 15:42:23.297619149,1743860543,295243670,piren,0.44673560370533766,0.08902325902490746,0.041714975595726456,0.001184313378800762,0.0005164526051810063,-0.0023720953968317873
