time,header_stamp_secs,header_stamp_nsecs,header_frame_id,twist_linear_x,twist_linear_y,twist_linear_z,twist_angular_x,twist_angular_y,twist_angular_z
2025/04/05 15:42:02.895786936,1743860522,816786872,piren,0.016350966572681952,-0.0070840536717606106,-0.014499080825309308,-0.0002558460069096742,0.016080887900951486,0.0
2025/04/05 15:42:02.948717485,1743860522,945187794,piren,0.016517635025479017,-0.0900433670572062,-0.05720544304058277,0.0001172855151035983,0.006537144879576359,0.007124755218079855
2025/04/05 15:42:02.987992398,1743860522,985179440,piren,0.020756056018892206,0.009616499356750937,-0.012091747333699507,-0.0001710170148727748,0.001020790268531839,0.0
2025/04/05 15:42:03.31245091,1743860523,26207555,piren,0.023312717767937058,0.1662579701873875,0.04970119553448557,-8.410394868468447e-05,-0.0034799763328962727,0.0
2025/04/05 15:42:03.117540110,1743860523,114381498,piren,0.014689748620525377,0.12788726491728142,0.0292784478943567,0.00044313671685443937,-0.011478614406104582,0.03329846553202814
2025/04/05 15:42:03.189056031,1743860523,187130792,piren,0.012016146615190671,-0.02684820165133956,-0.0264725606047294,0.0014401316759525599,-0.014838208759581265,0.027644323287776683
2025/04/05 15:42:03.226738216,1743860523,223627374,piren,0.009680327931653753,-0.020047420173391405,-0.01846081090711585,2.531540094860464e-06,-0.017676217375905693,0.004671025544553342
2025/04/05 15:42:03.298826497,1743860523,295614585,piren,0.01113121771616968,0.004920660063981526,-0.0029142506061900584,-4.444728303424894e-05,-0.01944830260732718,0.0
2025/04/05 15:42:03.333463445,1743860523,331369861,piren,0.010492872951776845,0.1387677803058821,0.05255481430160096,-0.00040204550337854985,-0.02006398761226495,0.005844697372354924
2025/04/05 15:42:03.371182338,1743860523,367469377,piren,0.0082084695206399,0.09929859696631683,0.034084216956490374,-0.0007477222523125496,-0.019415121326830043,0.0
2025/04/05 15:42:03.440701289,1743860523,438619544,piren,0.004533675922657597,-0.05295766927450078,-0.018756095696256546,-0.0007173781824568959,-0.01671186588192215,0.006731797448514215
2025/04/05 15:42:03.476728912,1743860523,474130125,piren,-0.005140118807165402,-0.147265851290982,-0.07107924497226104,0.0011946924750241468,-0.012875684703004283,0.0
2025/04/05 15:42:03.544745179,1743860523,542722646,piren,-0.011518718878014679,0.006094726392785401,0.004768915412349954,0.0011770707724058198,-0.009399341568002293,0.0055909131811860985
2025/04/05 15:42:03.580631594,1743860523,578252571,piren,-0.00645110172376038,0.11222006801082565,0.0500070158832707,-0.0005405566285045032,-0.005571573936284854,0.0
2025/04/05 15:42:03.654379984,1743860523,651034881,piren,-0.0027840875368408432,0.0712563620236662,0.03618203550987704,-0.00045715817351008964,0.004515476346159357,0.0057374828481728014
2025/04/05 15:42:03.721793805,1743860523,719706105,piren,-0.006947164908342088,0.040179809788259684,0.024191093348611317,0.001209837124245953,0.009156279367363811,0.0
2025/04/05 15:42:03.793221340,1743860523,790454817,piren,-0.008877868192106383,-0.00017121100532267725,0.007679376488361031,0.0013798229924237083,0.01306159695574698,0.02341276985653276
2025/04/05 15:42:03.828513274,1743860523,826649203,piren,-0.00777863725525783,-0.02557834728333425,-0.004211040499261466,-7.485218011409324e-05,0.015067224637631618,0.0030033532108176032
2025/04/05 15:42:03.901482767,1743860523,898072875,piren,0.0032533839240379394,-0.010318668799160343,-0.0007755551149558515,-0.0003279611839574977,0.019326963874189,0.0
2025/04/05 15:42:04.2809575,1743860523,994950849,piren,-0.015962663863056212,-0.0006387936277002283,0.0002791335644192844,-0.0004546400786287734,0.022454310330061254,0.014632221295531675
2025/04/05 15:42:04.51655976,1743860524,47637513,piren,-0.024392826041449576,-0.10346706042860365,-0.058254181225562966,0.0014439880944634358,0.017302087165224612,-0.0030065045358690463
2025/04/05 15:42:04.138812876,1743860524,130835368,piren,-0.0036524761963865056,0.047434064890411715,0.010067432704598672,0.0014888498007204353,0.01273801126937583,0.0
2025/04/05 15:42:04.197804054,1743860524,190636540,piren,0.010426032203132514,0.14613343770266293,0.04589395452907727,-0.0001493565340657812,0.007592117097889034,-0.017276602032612467
2025/04/05 15:42:04.254798419,1743860524,249763498,piren,0.017527485630350444,0.0985899202034074,0.0283459770020587,-0.0003526813513880429,-0.003133299964932785,-0.003743117441287838
2025/04/05 15:42:04.359076164,1743860524,356143117,piren,0.018096730318758157,0.06028286020690805,0.014724282568790416,0.0010644828269986732,-0.01157085747667706,-0.004080250331304723
2025/04/05 15:42:04.430622163,1743860524,427628661,piren,0.013518571212995531,0.01040800131127855,-0.0024553476672759503,-0.00021031435463052524,-0.014699776857824542,0.0
2025/04/05 15:42:04.505294744,1743860524,502391302,piren,0.010818585318396598,-0.006173307929810322,-0.006901350970075446,-0.0004383629013983919,-0.016866443448916392,-0.02921817444816293
2025/04/05 15:42:04.544372597,1743860524,540636160,piren,0.0064215158741087585,0.10418132685386934,0.03865493036263763,-0.0009090383705421026,-0.01801274317637009,-0.007078098150793659
2025/04/05 15:42:04.588998513,1743860524,582351489,piren,0.0020822638672340823,0.05344954325751598,0.020264481765997697,-0.0002669392794056306,-0.018081423011777974,0.0
2025/04/05 15:42:04.624759622,1743860524,622670760,piren,-0.0016597088261224046,-0.033630522803185854,-0.009065124697127796,-0.0008050092247867265,-0.01890212168777701,0.0
2025/04/05 15:42:04.699121845,1743860524,695659698,piren,0.00816935544666258,-0.15844227674077743,-0.07054000416653845,0.000934188768289776,-0.018745299655992958,-0.0393827707086952
2025/04/05 15:42:04.736131628,1743860524,732522602,piren,0.01106167630125126,-0.06158378152588906,-0.020629279822459236,-3.571711192061474e-05,-0.017321693392440447,-0.007066225567402968
2025/04/05 15:42:04.771602009,1743860524,768758940,piren,0.011153116594836164,-0.05413022759787195,-0.0168394806903054,0.0008727504882875777,-0.014860922533114305,0.0
2025/04/05 15:42:04.843315243,1743860524,840093841,piren,0.012077319565646845,0.048203592987768586,0.03021237927415102,0.00027400724958056617,-0.011973191845559105,-0.007200724976126815
2025/04/05 15:42:04.878683504,1743860524,876554718,piren,0.014189601327002884,0.05490415424833063,0.034200836686733765,-0.000653697059185606,-0.008176911465575335,0.0
2025/04/05 15:42:04.950186363,1743860524,948279360,piren,0.013775615938171606,0.023049429349771677,0.020422287880727752,-0.0005804055757171915,-0.0038883763058863477,-0.007672123091986067
2025/04/05 15:42:04.991239616,1743860524,988310470,piren,0.011189373822926995,-0.12036691365898446,-0.033425421141593324,-0.000400933623518231,0.0005288693631795971,0.0
2025/04/05 15:42:05.28946645,1743860525,25404741,piren,0.009259829482846177,-0.20083339438721368,-0.06091591448975402,0.0011997946748370384,0.00503499091511391,-0.007937391995043501
2025/04/05 15:42:05.102650019,1743860525,95774924,piren,0.003498648290992645,-0.2704025926907886,-0.08803675299663101,0.0017602282010571906,0.009608060987005744,0.0
2025/04/05 15:42:05.140850513,1743860525,136846232,piren,0.0010314995847213512,-0.298417263543752,-0.12232158758319914,0.0022551606630319037,0.013589455118718967,-0.0091393908522347
2025/04/05 15:42:05.179660613,1743860525,176667512,piren,-0.00023720648863862284,-0.1914578482133817,-0.07733266911612965,0.0017838554753533246,0.016594119254919357,0.0
2025/04/05 15:42:05.256020767,1743860525,253308988,piren,0.0028517414507940597,-0.10057151921671471,-0.034071954537529245,0.0012309118496645851,0.01935006476262009,-0.01123740188381972
2025/04/05 15:42:05.334036258,1743860525,332246808,piren,0.005802564998644585,-0.1418763681998618,-0.061549387203576826,0.0030898785550574235,0.018960314207339513,-0.014289946690614003
2025/04/05 15:42:05.371413037,1743860525,368919069,piren,0.005963828942232184,-0.0781225363173286,-0.04381652044863593,0.003381368957647938,0.017520369015336847,0.0
2025/04/05 15:42:05.442162813,1743860525,440044674,piren,0.00898784434689945,0.092108372903584,0.028312359903280918,0.0015632082096450626,0.01499952172918048,-0.018716875067544086
2025/04/05 15:42:05.479807138,1743860525,476355543,piren,0.010542207297566423,0.10658015720846134,0.02617710553253491,0.002076404156254285,0.011407499370686865,0.0
2025/04/05 15:42:05.548498205,1743860525,546654101,piren,0.018078738180278855,-0.01678327538043204,-0.021279004240184248,0.0011461875595234852,0.007279208966669211,-0.022380161479501857
2025/04/05 15:42:05.588441959,1743860525,584096871,piren,0.018465154948212402,-0.0818933830914117,-0.05212742077388434,0.0017462737506245612,0.0025624442947814285,0.0
2025/04/05 15:42:05.628761893,1743860525,626170913,piren,0.02314254587422962,-0.014873395729715267,-0.02190099803582404,0.0005014793435813225,-0.00274406070650688,-0.030432958061830575
2025/04/05 15:42:05.669100796,1743860525,664674002,piren,0.028125652272599146,0.056504774922359294,0.010750792648098549,-0.0005381000674840703,-0.007171900508935825,0.0
2025/04/05 15:42:05.741333939,1743860525,738881297,piren,0.026367900051455447,0.08860633881917154,0.02563970525485862,0.00010776276559939794,-0.01042163942312307,-0.027690209495279082
2025/04/05 15:42:05.780011011,1743860525,777730381,piren,0.023223579384934138,0.08743485038823087,0.02842251961304201,-0.0006112388863743472,-0.013159857413016156,0.0
2025/04/05 15:42:05.820534098,1743860525,817748450,piren,0.02236661623072491,0.10436149501936196,0.03604326196885525,-0.0007574794245542396,-0.01473735127484556,0.0
2025/04/05 15:42:05.896300244,1743860525,891863509,piren,0.021218108789067283,0.08313556043245922,0.03359447468725329,-0.0010309091665791292,-0.01555059277102959,-0.15700427344855922
2025/04/05 15:42:05.934217051,1743860525,930234115,piren,0.015077214996618245,0.15139752921800306,0.0612226611911621,-0.0031614633683583766,-0.015311197837905155,-0.03181790813192095
2025/04/05 15:42:05.972603786,1743860525,970000715,piren,0.009308793530922331,0.1436173987762358,0.05698889139263632,-0.0026739935265646746,-0.013989775130392885,0.0
2025/04/05 15:42:06.44443926,1743860526,42170570,piren,0.007978980766807274,0.09627769691706176,0.045282891514015704,-0.0012350723237933765,-0.012333801428641286,-0.03135929857345131
2025/04/05 15:42:06.82820242,1743860526,79864404,piren,0.016160202395662952,0.16341396189148502,0.06604264097340175,-0.003344189535340126,-0.00932292871048337,0.0
2025/04/05 15:42:06.153286609,1743860526,151543361,piren,0.025011252716891294,0.0964373459303751,0.03892624981220015,-0.0022113447889832256,-0.0021767676525369433,-0.03325224350944604
2025/04/05 15:42:06.226368772,1743860526,224028358,piren,0.029921311436166373,0.03501556466067701,0.014647311999113337,-0.002415996418542049,0.0016564003372394743,-0.03828736675936044
2025/04/05 15:42:06.297328486,1743860526,295169558,piren,0.03458981593633102,0.0029570680687760185,0.0013400474594872822,-0.003115102899953795,0.008653836152259859,0.0
2025/04/05 15:42:06.369112649,1743860526,366955250,piren,0.04789938381616582,0.01617747938366103,0.00409786421017482,-0.0005300635172865567,0.011401283787632643,-0.17840624082317075
2025/04/05 15:42:06.441347250,1743860526,438315092,piren,0.04877004341465079,-0.012927101097005402,-0.00987558006743282,-0.00046369858049236584,0.013750057649786979,-0.03394515579379042
2025/04/05 15:42:06.478693127,1743860526,476683291,piren,0.04681981926138028,-0.020173920224860593,-0.016662692264862736,-0.00011891906793086817,0.014924522734028018,0.0
2025/04/05 15:42:06.536715310,1743860526,534739107,piren,0.05068900421701784,0.09499530572604227,0.027218881827978776,0.00021385654795088446,0.015288552142986028,-0.03366385191348773
2025/04/05 15:42:06.574889303,1743860526,572476930,piren,0.06166528105821258,0.05672165278259816,0.010568282036441681,0.0006814131161452431,0.014819921147915794,0.0
2025/04/05 15:42:06.646495473,1743860526,644414504,piren,0.07184291717910844,0.03426464082073568,0.00017450723651478864,0.0006003467099175348,0.013803411891375513,-0.03271825551108302
2025/04/05 15:42:06.684769177,1743860526,682624773,piren,0.07731574180391264,0.02984926041388222,-0.0022113732982855586,0.0013958448373773587,0.011731792437506041,0.0
2025/04/05 15:42:06.722354292,1743860526,720571592,piren,0.0833974290408606,0.06816213846922699,0.011527067008640332,0.001653277535662217,0.008890514912542847,0.0
2025/04/05 15:42:06.794647697,1743860526,792407780,piren,0.0883991562401976,0.0488168692864863,0.002488370926389296,0.00263055714678149,0.006012384105666986,-0.17229263105806428
2025/04/05 15:42:06.831659689,1743860526,829953968,piren,0.08513263994006841,0.03532246205441858,-0.001975455827011619,0.0033363913978447725,0.0029298996276626572,-0.030772700106413545
2025/04/05 15:42:06.905028978,1743860526,902520887,piren,0.08181035156253592,0.11790396151281277,0.021389457134791446,0.0011805674855584697,-0.0030421989198397012,0.0
2025/04/05 15:42:06.979877174,1743860526,977367066,piren,0.09019532179680748,-0.03633691716455895,-0.03469856138634243,0.0006552001864935949,-0.005631509866655579,-0.14389008278679818
2025/04/05 15:42:07.20073166,1743860527,16832408,piren,0.09057129560184399,-0.1259722260623614,-0.07361938741359343,0.0015106132967223234,-0.007265348040171296,0.0
2025/04/05 15:42:07.93634000,1743860527,90949072,piren,0.0925438047957487,-0.09843982836238943,-0.0525631853390042,9.499913399736758e-05,-0.009095066262026077,-0.15155170628826262
2025/04/05 15:42:07.132998753,1743860527,129771392,piren,0.09439562311938335,-0.16123574634560328,-0.0788313866251435,8.434469386768053e-05,-0.010345607872262932,-0.026614169090315998
2025/04/05 15:42:07.172303124,1743860527,169561422,piren,0.09274879151129545,-0.15894987940784502,-0.07013611146283473,-0.00017848213032252742,-0.01101528394191149,0.0
2025/04/05 15:42:07.244906911,1743860527,242723209,piren,0.09234157396339138,-0.192946731964626,-0.09632004960416349,-0.0007932572761859873,-0.010495179738374147,-0.025743774350558277
2025/04/05 15:42:07.283636297,1743860527,280972179,piren,0.10099503845612288,-0.08858357022690076,-0.05365573035171175,-0.0004181726143625419,-0.010074159502548129,0.0
2025/04/05 15:42:07.356377487,1743860527,354137370,piren,0.11356162926666928,0.0902398575162328,0.028300159960806537,-0.0019149267622336097,-0.00801719961664609,-0.025541370941961704
2025/04/05 15:42:07.429144082,1743860527,426660178,piren,0.12312606998683458,0.08812071447229321,0.03714224155943478,-0.0011335219141251998,-0.006429221499136677,0.0
2025/04/05 15:42:07.501705610,1743860527,499222269,piren,0.13110060022686457,0.18108008606699794,0.062023508851337214,-0.002589668827475042,-0.004478178238251439,-0.12858411385247817
2025/04/05 15:42:07.539318022,1743860527,537611607,piren,0.13344294483572886,0.05438193426868328,0.017067887742672348,-0.0035482714499742245,-0.002294485535622019,-0.022920138468173198
2025/04/05 15:42:07.578596384,1743860527,575589884,piren,0.13446924734841925,0.0021689059061648394,-0.0013022506202676463,-0.001913507178520085,0.0002016565079905131,0.0
2025/04/05 15:42:07.615369374,1743860527,613516456,piren,0.13625683263605934,0.1349300364764241,0.051074046346453836,-0.0016269801948272232,0.002529645946764198,0.0
2025/04/05 15:42:07.689596670,1743860527,687126801,piren,0.14665671323694893,0.08941041560756886,0.03965302231272301,-0.0006916344883594429,0.004803393604290774,-0.11369584699049474
2025/04/05 15:42:07.727097928,1743860527,725226574,piren,0.15002750735362408,0.15071099355762962,0.05985800446477197,-0.002267338252212934,0.007289403444856606,-0.02111800516339382
2025/04/05 15:42:07.801256267,1743860527,798658788,piren,0.15011826104098508,0.10619344512287734,0.0483433769328318,-0.00040733024515976837,0.009223087854635229,0.0
2025/04/05 15:42:07.873503646,1743860527,871544256,piren,0.16572118709628475,0.2062105846573764,0.07229352806285066,-0.0011374762196420683,0.009534768297634931,-0.1007708497553858
2025/04/05 15:42:07.948365236,1743860527,945731432,piren,0.1690371727494358,0.07486238780280846,0.02352513106476842,0.0005112866303689606,0.009235925468660582,-0.01931394515130617
2025/04/05 15:42:07.986352049,1743860527,984255905,piren,0.17025650696802017,0.037283995815816415,0.01091421323922818,0.001097662904887179,0.00840989784764555,0.0
2025/04/05 15:42:08.23668712,1743860528,21996169,piren,0.1727791450944745,0.12628818146975024,0.04233147580646824,0.00033238062818817077,0.007642514042743214,0.0
2025/04/05 15:42:08.97440389,1743860528,95534923,piren,0.17869307277880184,0.07590166270305053,0.017836807912573867,-0.0001191199105993353,0.005711780911302487,-0.09875514914735921
2025/04/05 15:42:08.135947591,1743860528,133475282,piren,0.18293746951208226,-0.06661963371491224,-0.039987796484175275,0.0014921032257837277,0.0033932248086441775,-0.018245031893565505
2025/04/05 15:42:08.174916806,1743860528,172443945,piren,0.18359418313821388,-0.052432551240299746,-0.03214377561229498,0.0018401521996611817,0.0009379436121236411,0.0
2025/04/05 15:42:08.249518246,1743860528,247343837,piren,0.1846183751616445,-0.04227153113837401,-0.02612935448516576,0.0017740964747512068,-0.0016871645192859548,-0.01743771408636358
2025/04/05 15:42:08.288476176,1743860528,285806567,piren,0.19035107319413877,-0.030017653871812957,-0.019644512968192487,0.0024679821723127895,-0.00391680232391132,0.0
2025/04/05 15:42:08.326119459,1743860528,324258850,piren,0.19424283172562187,-0.028191133375522794,-0.017873285801332288,0.0021512518922984945,-0.005916050935029619,-0.01959255708073005
2025/04/05 15:42:08.398487254,1743860528,396767427,piren,0.1991203651359418,-0.021744789335810852,-0.014617613023359552,0.0029508575104020994,-0.008928532128649582,0.0
2025/04/05 15:42:08.472701745,1743860528,470483344,piren,0.20236810643661793,0.050704936906661204,0.016364093177200917,0.0016595531250804395,-0.009631618932534336,-0.07740997826553063
2025/04/05 15:42:08.547259684,1743860528,545243033,piren,0.2016505346292427,0.02576737554372759,0.007324726412032015,0.000293213620347858,-0.00938645302092747,-0.014480950301765126
2025/04/05 15:42:08.621555988,1743860528,619669329,piren,0.19827072323825307,-0.033727267347267186,-0.012141500408103327,-0.0005294029133424311,-0.008423042146555745,0.0
2025/04/05 15:42:08.697100720,1743860528,695157565,piren,0.20418153994345686,-0.13671698794143633,-0.05092414186564291,-0.0012611546421896732,-0.005227795935149946,-0.07273159931038224
2025/04/05 15:42:08.771930911,1743860528,770083858,piren,0.20701752775772386,-0.2314850906426602,-0.08637983506803482,-0.0017881744212994263,-0.0032004714073651597,-0.06794445300610448
2025/04/05 15:42:08.846079753,1743860528,843537628,piren,0.20815568452978192,-0.2369295793964512,-0.09674892157774691,-0.0013549787876516856,-0.0008941597132621264,-0.011416135425045323
2025/04/05 15:42:08.885340381,1743860528,883176370,piren,0.20893750426196156,-0.17124181821298567,-0.08436387026913796,-0.00019269252366631003,0.001173321846957486,0.0
2025/04/05 15:42:08.925085935,1743860528,923131933,piren,0.21201880541380314,0.01421934046531119,0.004164728399621106,-0.0010819317165356114,0.003115054225012549,0.0
2025/04/05 15:42:09.20086115,1743860529,17947638,piren,0.2201522895301325,0.15718376974946774,0.06057567828096339,-0.0018303910103105565,0.007098828532351233,-0.058647686080711824
2025/04/05 15:42:09.94669708,1743860529,92398710,piren,0.22557056146162996,0.12816204510132603,0.059147242381531705,-0.00015201609834708508,0.008124104581334059,-0.049583342605095455
2025/04/05 15:42:09.135705120,1743860529,131217137,piren,0.2305229857547113,0.21278297787015968,0.072533912240649,-0.003566981078664379,0.007965236683166444,-0.010654184859198675
2025/04/05 15:42:09.172065324,1743860529,170304925,piren,0.2366725688993708,0.06036174141089186,0.0153068135515333,-0.001936833343136214,0.007977796196507153,0.0
2025/04/05 15:42:09.245305976,1743860529,242915989,piren,0.23934630132779422,-0.05454091265760257,-0.03385690923765354,2.3237920642425435e-05,0.00687181556278957,-0.00937883231360429
2025/04/05 15:42:09.283898255,1743860529,281860345,piren,0.24611336200711037,0.07394243408230677,0.02268099184188794,-0.0010016182704809602,0.006167347662490552,0.0
2025/04/05 15:42:09.322263387,1743860529,320299461,piren,0.24839711922741647,0.06518183209823247,0.01929889086226836,-0.0007877502519824228,0.005103439489032361,0.0
2025/04/05 15:42:09.402515503,1743860529,397111099,piren,0.25024993500238363,0.00666014205154905,-0.0025428753296063964,-0.0001383221012384114,0.0037387365449304696,-0.04288083913705762
2025/04/05 15:42:09.438652418,1743860529,436552154,piren,0.25031212561939775,0.1051379387051074,0.04466034674492861,0.0011278151108953054,0.0022396432490540056,-0.00845020931452469
2025/04/05 15:42:09.477290269,1743860529,474686670,piren,0.25139932249575925,0.1954809869434583,0.083159068041725,0.0011032228034719323,0.0004554525299549915,0.0
2025/04/05 15:42:09.515882825,1743860529,513521092,piren,0.2528543197872347,0.2218505891986659,0.08653385709591972,0.0007656031003699726,-0.002467860411880152,0.0
2025/04/05 15:42:09.590944749,1743860529,589159628,piren,0.265244667043367,0.15101952824580428,0.05861005106439566,0.000588448839010401,-0.003973682511628934,-0.0333249438794651
2025/04/05 15:42:09.630497182,1743860529,628634834,piren,0.2613970628816732,0.10443785225257991,0.04550599097104234,0.0027194247003643835,-0.0052292648361034425,-0.004766650789506692
2025/04/05 15:42:09.670727551,1743860529,668860677,piren,0.25793553927250773,0.14716511370873983,0.05595494710480011,0.002664097587112492,-0.006127083154804525,0.0
2025/04/05 15:42:09.745640083,1743860529,743393847,piren,0.2554200878968586,0.07091944659491964,0.022655716887458505,0.0011204089916548657,-0.0066317866042885625,-0.004082132645731731
2025/04/05 15:42:09.785716800,1743860529,783172308,piren,0.25502304954314703,-0.07933774927012999,-0.038060713578756726,0.0012781554235974692,-0.006759097146518163,0.0
2025/04/05 15:42:09.824866313,1743860529,822849942,piren,0.25511456883821976,-0.05426265787741193,-0.028247657016624475,0.0027260378854719663,-0.00653663492341947,0.0
2025/04/05 15:42:09.901962373,1743860529,899780115,piren,0.2552031010177885,0.061983804686664784,0.022367105555017,0.001177634704562127,-0.004896144981613051,-0.016656338686637566
2025/04/05 15:42:09.977958468,1743860529,976032020,piren,0.25511588621473763,0.004566703253411888,0.0032267321073829415,0.0007717130039260356,-0.0036770841663137503,-0.015002381156352357
2025/04/05 15:42:10.53487450,1743860530,51465608,piren,0.25617558107357,0.03797548696155574,0.014718923703191306,0.00015219979871271695,-0.0021834433089783977,-0.002176239309234908
2025/04/05 15:42:10.93397576,1743860530,90456094,piren,0.25727561524110304,-0.10189373606446561,-0.04630124932472433,0.000898468557153021,-0.0010684687839375216,0.0
2025/04/05 15:42:10.131881362,1743860530,129737541,piren,0.27027165047522933,-0.028053415988390576,-0.010314157449198079,-0.000847753353767546,-0.0004586244350100686,-0.0013068118440500785
2025/04/05 15:42:10.171641559,1743860530,169469176,piren,0.26981702557360826,-0.13445273857562123,-0.06662239324742841,0.0002427010565035262,0.0011098456026400207,0.0
2025/04/05 15:42:10.245341057,1743860530,243655493,piren,0.27032507355373847,-0.007339100808608228,-0.0060969729417830075,-0.0010008880128194824,0.0026857721815493865,-4.4851252845015475e-05
2025/04/05 15:42:10.285855694,1743860530,282976147,piren,0.27118762686277115,-0.02895385184790768,-0.013124849602097421,-0.0006531743711303286,0.003934743688915608,0.0
2025/04/05 15:42:10.325216747,1743860530,322351876,piren,0.2731876196017453,-0.028890399520625727,-0.012178174117184762,-0.0010808004661823657,0.0049593256414235225,0.0
2025/04/05 15:42:10.400265298,1743860530,398203346,piren,0.27627494518298246,-0.02161707223274037,-0.010919562036888025,-0.0011341181216163127,0.006008982258729801,0.001865302759112363
2025/04/05 15:42:10.476703482,1743860530,473326423,piren,0.27935796707531674,0.10067259762932461,0.037618741328104506,-0.0007534445021858744,0.005998867663615128,0.0042075480447478445
2025/04/05 15:42:10.553150812,1743860530,551038733,piren,0.2849139824676564,0.06280456760884687,0.026196752157391198,-0.0002427099290550407,0.004880189216572059,0.0012011826515594254
2025/04/05 15:42:10.632305067,1743860530,630102376,piren,0.28964619454029933,0.13436934225526684,0.058253870493653506,-0.0005279631508245781,0.003877267104858913,0.0017505282614127839
2025/04/05 15:42:10.673570546,1743860530,670365715,piren,0.2927103300257473,0.18168179915641955,0.07748144691791167,0.000572514090161734,0.0026787900200669268,0.0
2025/04/05 15:42:10.750119228,1743860530,745944022,piren,0.2945891834662412,0.19278298468397434,0.08399880388200308,0.00012820740439832922,0.000687767742330443,0.002546793421082848
2025/04/05 15:42:10.788608334,1743860530,786388055,piren,0.2988923644711759,0.20841408289760857,0.07591823596609286,-0.0005098396793421348,-0.0005269344729497194,0.0
2025/04/05 15:42:10.827476639,1743860530,825865764,piren,0.2985014813788565,0.09747955065965452,0.03332205263755914,-0.0005381494693159825,-0.0016857586511720792,0.0
2025/04/05 15:42:10.907356786,1743860530,904633612,piren,0.29862090766721283,0.022753918524681872,0.006171145678662619,0.0007092048500328689,-0.003414193683989804,0.017986736611642046
2025/04/05 15:42:10.985464355,1743860530,982935641,piren,0.2969990265116628,0.08626744717774462,0.03537824757332902,0.0007560806803458808,-0.003832948777959747,0.018426157856522338
2025/04/05 15:42:11.24380497,1743860531,22687126,piren,0.2964926579668562,0.13128915971850952,0.04060862946686171,-0.000383339428152665,-0.004227663272629787,0.0
2025/04/05 15:42:11.101446537,1743860531,99386147,piren,0.299236734778844,-0.05126314843280289,-0.02563232617815626,0.0026199084168358,-0.004413938330326289,0.020342595021483664
2025/04/05 15:42:11.178775601,1743860531,176773281,piren,0.30039432938782445,-0.1268092003835097,-0.06393371630710587,0.0028409313272298752,-0.0040822233029172055,0.015940150415219612
2025/04/05 15:42:11.255237144,1743860531,253117617,piren,0.30174327852028565,-0.024586799744673017,-0.015076817862000883,0.0020237891616943296,-0.0023864542444091094,0.0044219244670864735
2025/04/05 15:42:11.333949281,1743860531,329908505,piren,0.3022299314056823,0.05580782398768982,0.01691676584668154,0.0005237324374828947,-0.0014566620245198836,0.0
2025/04/05 15:42:11.374302432,1743860531,372376565,piren,0.3039829775436988,-0.09311316715978347,-0.041438854130495514,0.0009185718513597372,-0.0006354904654160082,0.022767802881781273
2025/04/05 15:42:11.452679120,1743860531,449156182,piren,0.3061138668076259,-0.09554175507553142,-0.03908011026598544,0.001089007012337599,0.00018343866331995649,0.0044850272907164795
2025/04/05 15:42:11.492230506,1743860531,490039161,piren,0.30817228094110416,-0.09646023066561217,-0.03778507429517944,0.0008547738543763785,0.0010009295823208463,0.0
2025/04/05 15:42:11.533836918,1743860531,531875640,piren,0.3094433525479339,-0.09160916536421362,-0.034764897122629534,0.000633920212052823,0.00118903221829208,0.0
2025/04/05 15:42:11.594300589,1743860531,592310945,piren,0.31190093982218814,-0.08114343468479367,-0.03016139724378475,0.0004194918439134262,0.0019919288548582623,0.026694670688588735
2025/04/05 15:42:11.635757072,1743860531,633229029,piren,0.31228565554357945,-0.07489667520081163,-0.02767656173236132,0.00013696019204048471,0.002712034904029799,0.005778147472175046
2025/04/05 15:42:11.678005326,1743860531,674712044,piren,0.31322636461244696,-0.06675867839331466,-0.024642298496288895,-0.0001641705093288283,0.0030817373585522133,0.0
2025/04/05 15:42:11.755635756,1743860531,752774002,piren,0.31778883177871886,-0.053326054874016045,-0.02394018457000335,-5.81676171466319e-05,0.0032427452458132335,0.006002064333214798
2025/04/05 15:42:11.834450898,1743860531,832664017,piren,0.31982828449406886,0.06892186674083353,0.024436717241167832,-0.0013129736643394078,0.003053358876846843,0.005977715243551188
2025/04/05 15:42:11.877346405,1743860531,874456608,piren,0.3209304145655216,-0.007483187175380867,-0.006243851447624581,2.9938662389170715e-06,0.002661278793250125,0.0
2025/04/05 15:42:11.955775322,1743860531,953555384,piren,0.3224765898121253,0.09016977380528343,0.03507429039697569,-0.0010916595377126323,0.0015418280186471974,0.006539966141295515
2025/04/05 15:42:12.33754306,1743860532,32050774,piren,0.32400027501074363,0.09487046258272139,0.04074565120073526,-0.0002818845265241945,0.00030453033625969117,0.00712523026862208
2025/04/05 15:42:12.112874096,1743860532,109313655,piren,0.3272809861345533,0.13643681077127381,0.04400966861127591,-0.0012579526980183058,-0.0008041541290924686,0.0
2025/04/05 15:42:12.192414863,1743860532,187908314,piren,0.3274996424110011,-0.02726850920259738,-0.015847281119673134,-0.0010718707663388428,-0.0013880405427138857,0.032834625699689785
2025/04/05 15:42:12.230362186,1743860532,228631200,piren,0.33191317720256924,-0.11796554444889255,-0.060187822183380355,-0.0001640120166664389,-0.001860364734457827,0.009206125076752041
2025/04/05 15:42:12.270517044,1743860532,268448355,piren,0.3347524953769501,-0.025816134553121955,-0.014536617094448614,-0.000880949987270026,-0.0019506778305576832,0.0
2025/04/05 15:42:12.348332502,1743860532,346544272,piren,0.33572531680163353,-0.08282136872632605,-0.043926933268581235,-8.608475652937811e-05,-0.0018232649636802105,0.007475118380588909
2025/04/05 15:42:12.428920765,1743860532,425276825,piren,0.33575400572610403,0.04750863216220569,0.016195055635658415,0.0009355005340776254,-0.0017517835520516137,0.0
2025/04/05 15:42:12.510378253,1743860532,504863023,piren,0.33712440846220676,0.05210403525163529,0.023640123776954444,0.0013800363756028239,-0.0016843273733476662,0.03943424019797663
2025/04/05 15:42:12.586900161,1743860532,584666477,piren,0.34068407161886916,0.1237604502928049,0.0405145385905985,0.0004372111915211374,-0.001458808967935785,0.03898832682090988
2025/04/05 15:42:12.628820330,1743860532,626261237,piren,0.34168417001953744,-0.0550957596842782,-0.025913047263502624,0.0012460468325475574,-0.0016493845056120046,0.0
2025/04/05 15:42:12.709359523,1743860532,705893029,piren,0.34086169260345356,-0.07482629629356591,-0.03640710952800529,0.0029276920204393464,-0.0003028542349338269,0.04270921473108147
2025/04/05 15:42:12.791188175,1743860532,788573082,piren,0.33824002536536135,0.03116763604924906,0.011767762881672948,0.0015346272093853326,0.0005052326866964194,0.04353882201486665
2025/04/05 15:42:12.836668983,1743860532,832630023,piren,0.33960104431009164,-0.0034939830337438324,-2.6726186855935972e-05,0.002525007989757488,0.0010922213290855466,0.008466208131673252
2025/04/05 15:42:12.879311625,1743860532,875630786,piren,0.34250636195599904,0.08019650829158179,0.03877513289241299,0.0023893298956206253,0.0014450356257577823,0.0
2025/04/05 15:42:12.927742036,1743860532,923234530,piren,0.3444023476639495,0.13107127815108552,0.06344981568747411,0.0010734125502742287,0.0017898696997142147,0.0
2025/04/05 15:42:13.16079890,1743860533,11766352,piren,0.34583787266625465,0.1750343152307798,0.06995258693969449,0.0005699154816811362,0.0022392863448725546,0.04109541033459959
2025/04/05 15:42:13.97476791,1743860533,93559673,piren,0.3465328592611662,0.06853460545335271,0.028003670785574194,0.0010606833422456155,0.0023141768962971717,0.03965180297747547
2025/04/05 15:42:13.175517548,1743860533,173194897,piren,0.34701312113487576,-0.01426199622473257,-0.004929606213484746,0.0009234652434331274,0.002065732467840944,0.04083122140066432
2025/04/05 15:42:13.218464028,1743860533,216407300,piren,0.3496827100695919,0.007270459189281303,0.004630372056882202,-0.001186962300018666,0.0016146973208518351,0.0
2025/04/05 15:42:13.298831490,1743860533,295626583,piren,0.3506087133387077,-0.03210604232001098,-0.0130014092353915,0.00032322698427086736,0.0008284255937140638,0.03851784344068198
2025/04/05 15:42:13.377388688,1743860533,375032493,piren,0.35131461244458184,0.038665952912056184,0.015636557783061993,-0.0011566694996032016,0.00041890932809602384,0.0369227473069625
2025/04/05 15:42:13.458281933,1743860533,454698724,piren,0.35359134254838825,-0.02619310287778325,-0.009630943137830078,-0.0009643145023076952,-0.0004973418825071675,0.007076685942713659
2025/04/05 15:42:13.538694461,1743860533,535085556,piren,0.356181172753668,-0.06985805002766693,-0.027944812421259197,-0.001972224850044546,-0.00020887569617781195,0.006480833891357219
2025/04/05 15:42:13.581522553,1743860533,578203405,piren,0.3540004258944252,-0.0812003504307155,-0.03682148292574919,-0.0005890922716759617,-0.0007267245384725118,0.0
2025/04/05 15:42:13.623009362,1743860533,620239147,piren,0.35401188815295453,-0.08336341223433334,-0.031491976682722946,-0.0005793032359753894,-0.0013646053982209173,0.0
2025/04/05 15:42:13.704088062,1743860533,701407803,piren,0.35618135578471677,-0.10431465061109706,-0.03380347802583089,-0.0018439520463517,-0.001098251371672715,0.03012645277572912
2025/04/05 15:42:13.782881951,1743860533,781172533,piren,0.3591240718074733,-0.26606878849180143,-0.11429473164147505,-0.001143662383954693,-0.0013549059884952735,0.02287051360526473
2025/04/05 15:42:13.824943868,1743860533,822990639,piren,0.3631591087751484,-0.1810473374232618,-0.07714277468241443,0.00016269566915388652,-0.0015671048053621007,0.0
2025/04/05 15:42:13.908652372,1743860533,904676633,piren,0.36439220148368673,-0.10069352502238689,-0.04371887003266188,0.0007245155479882643,-0.001654045162278052,0.02216198591555213
2025/04/05 15:42:13.987808319,1743860533,985427956,piren,0.3655738994426063,0.0008667743867820037,0.0027773573617461134,-0.0005132581119455951,-0.0015470383921252424,0.02097275732197952
2025/04/05 15:42:14.29595006,1743860534,27784019,piren,0.3671585254050701,-0.091399533767913,-0.0366948496953865,0.0008738558741991918,-0.001558407048699437,0.0038734529655027315
2025/04/05 15:42:14.71495814,1743860534,68991855,piren,0.3692995709027857,-0.05593580987442998,-0.018738938599960613,0.002184096955458084,-0.0014935793735248247,0.0
2025/04/05 15:42:14.149808626,1743860534,147981308,piren,0.37007717001018525,-0.06446012391927873,-0.01855041088977738,0.0005121114292247646,-0.0011063055413441044,0.004058195412098783
2025/04/05 15:42:14.232578451,1743860534,230356859,piren,0.3695902364826623,-0.139541527276296,-0.04773791163229958,0.0004012406664318077,-0.0007933731163771445,0.004209722910328055
2025/04/05 15:42:14.272942853,1743860534,271031758,piren,0.3691939825677947,-0.17632172286192307,-0.07406835785681012,0.0012416083923782253,-0.00048403338051304396,0.0
2025/04/05 15:42:14.352569056,1743860534,350277835,piren,0.36877326828998075,-0.08190480309507259,-0.027643166426085466,0.0008284177009863069,0.00027433472228490327,0.004464497138660225
2025/04/05 15:42:14.432591622,1743860534,430667588,piren,0.3691105436226115,-0.09418663034343436,-0.036253561832299705,0.0011099894516946214,0.000682312807627907,0.0
2025/04/05 15:42:14.475107385,1743860534,471928739,piren,0.36919819129782366,-0.03172564046655025,-0.008703824835797987,0.00092160248999988,0.0008750063608338924,0.024736464633037594
2025/04/05 15:42:14.554914932,1743860534,552993419,piren,0.3708306396187751,0.021705323776054802,0.01607154432565462,0.0005356072533310219,0.0014212142819870464,0.00462696066469389
2025/04/05 15:42:14.634915897,1743860534,633020924,piren,0.3715918542472856,0.16871089489884838,0.06201569838545022,-0.0012364149924144639,0.0024380784740114752,0.0
2025/04/05 15:42:14.736361231,1743860534,734468561,piren,0.3694799151347506,0.03801441875856355,0.0159888823901973,-0.000944592920439579,0.002143021906088947,0.002073499356884761
2025/04/05 15:42:14.778235363,1743860534,775982600,piren,0.374214710251188,0.04369480515799064,0.023364076344511018,-0.0003455735275755136,0.002001827680977606,0.0
2025/04/05 15:42:14.821584312,1743860534,819641294,piren,0.3768434504062309,0.15219007101625145,0.07473809957766184,-0.0009229217296170062,0.001540383209989309,0.0
2025/04/05 15:42:14.903610467,1743860534,901485774,piren,0.38193781806140475,0.21396669890928763,0.10154217298383983,-0.0006488119647650411,0.001818805637991795,0.01869246029770197
2025/04/05 15:42:14.984772900,1743860534,982767459,piren,0.37978888677933176,0.2500784275224552,0.08505809175911543,-0.0024575989825687426,0.0013396254196104112,0.014407754873769265
2025/04/05 15:42:15.30154158,1743860535,24433480,piren,0.3826641677482094,0.03522998683452169,0.010267625867770726,-0.0035699293865844002,0.0006167713605096111,0.0
2025/04/05 15:42:15.106649061,1743860535,105017467,piren,0.38461629876671855,-0.060999811529649534,-0.02565756564651022,-0.0003165856606788594,-0.00040250385418733763,0.013193944991816335
2025/04/05 15:42:15.187404307,1743860535,185747361,piren,0.3851889366369875,-0.06567761547980551,-0.022619943280097605,-0.0006396277215108279,-0.0008646076036136604,0.013460246698393569
2025/04/05 15:42:15.230588885,1743860535,227115982,piren,0.38624253751194787,-0.11027512810207778,-0.042535189846862484,-0.00017561455868418167,-0.0004969694161953705,0.0
2025/04/05 15:42:15.309228857,1743860535,307565356,piren,0.3862788799622254,-0.08296301452364899,-0.023878358991112025,-0.0013403208688433728,-0.0014820152272746292,0.010370562598730091
2025/04/05 15:42:15.392385471,1743860535,389131167,piren,0.3898925266796963,-0.15229296836567163,-0.0611728195889836,-0.000404084112903977,-0.0018826799089541532,0.006009809625930975
2025/04/05 15:42:15.434914490,1743860535,432384667,piren,0.3919162398712582,-0.08064797383270289,-0.028791773466672974,-0.00032114704797362733,-0.002152406466609103,0.0008788167507181432
2025/04/05 15:42:15.476188642,1743860535,473949255,piren,0.3930395139359901,-0.02890042020762841,-0.003516689633169277,-0.0006273288162006843,-0.002300705415456678,0.0
2025/04/05 15:42:15.558343458,1743860535,556515201,piren,0.39309289463759145,-0.10332306405291346,-0.03772580731721996,0.002395533823418902,-0.002224399974017886,0.0006423467487099649
2025/04/05 15:42:15.640656770,1743860535,638809062,piren,0.39232918574697956,-0.06150900347425474,-0.021809519010819078,0.0027656194298653234,-0.0019787392836888274,0.0004179032092662006
2025/04/05 15:42:15.683787927,1743860535,681610910,piren,0.39136923627101433,0.0472323981234736,0.022836946806885982,0.0017000824986533958,-0.0015777490586801593,0.0
2025/04/05 15:42:15.726587752,1743860535,723733205,piren,0.39048595916062945,-0.053731931217929796,-0.017825876083659566,0.002689516349746448,-0.0011302621572049708,0.0
2025/04/05 15:42:15.808613565,1743860535,806168370,piren,0.38989885785126827,-0.027417063447619,-0.005072933272008325,0.0023424227643353526,-9.637684595623176e-05,0.0011744640443769104
2025/04/05 15:42:15.892068463,1743860535,889211920,piren,0.3895824070190813,-0.008886744376665043,0.004037122354852465,0.0006768023065153416,0.0004123918931252417,0.0001531232959702558
2025/04/05 15:42:15.934289954,1743860535,932615664,piren,0.3887781405341014,-0.09683892505348489,-0.039996596092072,0.0007437628780534289,0.0009058811551508246,0.0
2025/04/05 15:42:15.977380405,1743860535,974182895,piren,0.38878378946104436,-0.0957549796751742,-0.042474658107365046,0.0017269620421982953,0.0013587169972759598,-0.00042704104679997077
2025/04/05 15:42:16.18529738,1743860536,16656325,piren,0.3918481416515879,0.06550992912460459,0.03409208259589401,0.0014219437669745628,0.001674291064160848,0.0
2025/04/05 15:42:16.99956152,1743860536,98350960,piren,0.39425868645790524,0.16693757903605533,0.07008502391875003,-2.3487805349710913e-06,0.001955782307054364,-0.0013540868025497474
2025/04/05 15:42:16.182170904,1743860536,179647891,piren,0.3971282160130315,0.10467740300654912,0.05519119069674222,-6.498575493727294e-05,0.0016667589966871666,-0.0023259805325542447
2025/04/05 15:42:16.225324273,1743860536,222143953,piren,0.39990059449067966,0.18225317971747623,0.07900053734756192,-0.0010407043691367049,0.001368440746675727,0.0
2025/04/05 15:42:16.307573364,1743860536,304445971,piren,0.4008716754052469,0.11464644441925431,0.04923893055695524,-0.002167513435798033,0.000994248970637569,-0.0018500242413187916
2025/04/05 15:42:16.388006655,1743860536,386083126,piren,0.4012395207341852,0.017000212950125927,0.012313360751871711,-0.0025910216833516498,0.0008609192641310657,-0.0015595272289955263
2025/04/05 15:42:16.431431749,1743860536,429411356,piren,0.4006159731914693,0.00350886651479604,0.007650521032006246,-0.0028707650653029934,0.000721290415426565,-0.00024550257163925225
2025/04/05 15:42:16.473802271,1743860536,471228137,piren,0.40017356450718433,-0.0035755207834690466,0.005175722202871159,-0.0014469063484041425,0.00048256920119045494,0.0
2025/04/05 15:42:16.556024193,1743860536,554114159,piren,0.4005337687218356,0.09389758872767398,0.04519430126683168,-0.0015004936047353483,-7.457337020220093e-05,-0.00033060181974844716
2025/04/05 15:42:16.644420845,1743860536,640428581,piren,0.40163093081973517,0.09009102370918225,0.03510178707275378,-0.002180639139325467,0.0003740091709158693,-0.0007410181088567412
2025/04/05 15:42:16.686974505,1743860536,684332221,piren,0.40027049133507236,-0.07569038502012565,-0.027624154166551184,-0.0018697137539588913,-7.859316145892515e-05,0.0
2025/04/05 15:42:16.729563859,1743860536,727513033,piren,0.402238074165916,-0.11888084197499568,-0.05303905755143498,-0.0001971399392586652,-0.0004713549685861103,0.0
2025/04/05 15:42:16.811670805,1743860536,809854670,piren,0.4055871310445215,-0.006666267834069369,-1.8553073688897374e-05,0.0005034689725843102,-0.0012921153278324842,-0.007229521806493883
2025/04/05 15:42:16.898281753,1743860536,894430739,piren,0.40790765598572876,0.002737222937383898,0.005473450502507579,0.00020785362172228154,-0.0007908016405200278,-0.007830710582075323
2025/04/05 15:42:16.980323699,1743860536,978208557,piren,0.4050498126949348,-0.005212185490566562,0.004846280483230387,0.0012021315195696628,-0.0010117567633483335,-0.009330852210451431
2025/04/05 15:42:17.23702173,1743860537,21497538,piren,0.4057867069502928,0.10258175752478771,0.0535957255927301,0.0015050624974504892,-0.0011049116709810197,0.0
2025/04/05 15:42:17.104965483,1743860537,103216355,piren,0.40650111109393783,0.15686650965921517,0.06699332951106796,0.0025287765045552556,-0.0010720260682337013,-0.009765805503815166
2025/04/05 15:42:17.188703422,1743860537,186754269,piren,0.4065716682634046,0.06901614328791485,0.03124574764143623,0.0014606105630754023,-0.0009530668161231684,-0.011965214315375594
2025/04/05 15:42:17.232467291,1743860537,229603140,piren,0.4058756687684046,-0.03920063089737574,-0.010167556971761145,0.0006519807372731708,-0.0007381263566089098,0.0
2025/04/05 15:42:17.275448225,1743860537,272904362,piren,0.4049866263068863,-0.076824468205383,-0.02437083914906354,0.002815302802440238,-0.00047565790800149554,-0.013548947352794391
2025/04/05 15:42:17.356780496,1743860537,354976740,piren,0.40387557591998713,-0.09259425661629057,-0.024344175802986923,0.0010323254686320446,0.00010139884636596983,-0.0026817915655910404
2025/04/05 15:42:17.441758210,1743860537,439029221,piren,0.4030516239019369,-0.2031541779692595,-0.069050000428108,-0.0008464908084544977,0.0010486297868625854,-0.002971889717681288
2025/04/05 15:42:17.484048747,1743860537,482007901,piren,0.40157558164183244,-0.23524504692106907,-0.11343642482568998,0.0004273941850723296,0.0011775881427497322,0.0
2025/04/05 15:42:17.529317214,1743860537,526559565,piren,0.4030036211233913,-0.04110214358914998,-0.018851732381181208,0.0016090739001860912,0.001225222604107186,0.0
2025/04/05 15:42:17.611630129,1743860537,608831639,piren,0.40509048428492117,0.0666596180431245,0.031682651778694726,-0.0014782042613100369,0.0008805659210211618,-0.018211441803563194
2025/04/05 15:42:17.698627357,1743860537,693752099,piren,0.40974520498568245,0.09524758347872932,0.04344804278450915,-0.001124926655677489,0.0004499746290843844,-0.01799781935041208
2025/04/05 15:42:17.740165864,1743860537,738299693,piren,0.41305269159974484,0.047284159080902534,0.025601411256831155,-0.000967548535406526,-7.216093227937548e-06,-0.0033710322550813644
2025/04/05 15:42:17.785280140,1743860537,783107676,piren,0.4138617474270169,0.00821358809004154,0.01088208851995672,-0.0014339243411175208,-0.00013355203713344066,0.0
2025/04/05 15:42:17.830366919,1743860537,827090918,piren,0.413940203182356,-0.014330046851694908,0.002642757252740073,-0.0017159981605218927,-0.0003664122683980974,0.0
2025/04/05 15:42:17.874962526,1743860537,871949724,piren,0.41492782452188165,-0.02613341760334835,-0.0020082769325092675,-0.0030102042453502747,-0.0005604121395501647,-0.016804261763159835
2025/04/05 15:42:17.958808729,1743860537,956542422,piren,0.4151759558650865,-0.01609852290080213,0.0024336426796513536,-0.0018548287970275622,-0.00084728253358693,-0.00293702638010294
2025/04/05 15:42:18.64160621,1743860538,61079071,piren,0.4182629471587266,-0.0510683849574213,-0.012419114521075305,-0.0006275626717314954,-0.001001810788522974,-0.0028419569433978603
2025/04/05 15:42:18.147578969,1743860538,145516060,piren,0.4208351558008911,-0.05181452678707689,-0.014144030750226093,-0.0004424763359006701,-0.0008507531353457843,-0.0026620157630050435
2025/04/05 15:42:18.231889091,1743860538,229503107,piren,0.4223749077171709,-0.013495367113696996,0.002175579430202245,-0.0009474651354472196,-0.0006928706979641618,-0.002418747700953528
2025/04/05 15:42:18.275476788,1743860538,273219423,piren,0.4228276847821458,-0.006542529393149821,0.004976211359719549,-0.0005355437263210368,-0.0005232731360533524,0.0
2025/04/05 15:42:18.318628741,1743860538,316942688,piren,0.42322462491764784,-0.001285206711941273,0.0069933736497526065,0.0001356858338967441,-0.00036190401420838547,0.0
2025/04/05 15:42:18.405097172,1743860538,401933431,piren,0.4229687411100006,-0.01390954191328098,0.0016896075846752614,0.0009958545806122915,0.00010999945858207112,-0.011993378651382355
2025/04/05 15:42:18.488552862,1743860538,486541821,piren,0.42102105210307783,-0.12093516698694984,-0.047615909621441424,0.0015350645589359414,0.00047452063486288235,-0.009175329832562442
2025/04/05 15:42:18.534506543,1743860538,532342395,piren,0.4193365228275001,-0.08167763938713007,-0.025659485544531464,0.001113557791331791,0.0006992260442876717,-0.0019851725949647167
2025/04/05 15:42:18.578761635,1743860538,575267411,piren,0.4186700263854914,-0.1368488859666654,-0.05455880400110723,0.0018666064308605066,0.0008453846303884336,0.0
2025/04/05 15:42:18.663315481,1743860538,660697106,piren,0.41726405941993366,-0.08042621507523134,-0.024138597415161535,0.0012914685020804972,0.0010016691756013201,-0.0016943674593410242
2025/04/05 15:42:18.747779991,1743860538,746004974,piren,0.4169334651370132,-0.14747347049380388,-0.06745489547783357,0.0021716504875798266,0.0009948417170856923,-0.0016644519374261035
2025/04/05 15:42:18.791934300,1743860538,789660054,piren,0.4168740857534732,-0.007820510274672794,-0.0019010342854601367,0.001156697306932436,0.0007787570207789675,0.0
2025/04/05 15:42:18.836235642,1743860538,833837002,piren,0.4179042775008775,0.04239576251676428,0.02185207813787574,0.00045285002210661594,0.0005053094790696426,0.0
2025/04/05 15:42:18.882703719,1743860538,879167095,piren,0.41820802742327085,0.07639630208047762,0.04132436796859154,0.0018465165477827851,0.00021358813022548867,-0.008089928209381269
2025/04/05 15:42:18.926524032,1743860538,924341267,piren,0.42150313467520356,0.17008631816735048,0.07190977284211049,0.0010703979901147773,-8.807427282943691e-05,0.0
2025/04/05 15:42:18.972229834,1743860538,968763921,piren,0.42399416302961423,0.1085922155355396,0.041652097555340654,-0.0008490166678604154,-0.0003527254065224577,-0.006917999824762616
2025/04/05 15:42:19.60000893,1743860539,57138879,piren,0.4245789723256637,-0.042224670603594826,-0.019887530990118682,5.686948684868122e-05,-0.0004909114585843449,-0.0011158863172242913
2025/04/05 15:42:19.144686806,1743860539,142594697,piren,0.42212772863623327,0.07989891607631297,0.03247194240691422,-0.0004414894385790699,-0.0003297227536062413,-0.001126464061915189
2025/04/05 15:42:19.188997976,1743860539,186839782,piren,0.4216844292018539,0.03785080630429628,0.015776288751674684,-0.002307350094725057,-0.00014568863569444995,0.0
2025/04/05 15:42:19.234505502,1743860539,231508319,piren,0.42223071327391004,-0.09061338459526001,-0.03764864889065531,-0.0024053378209932543,2.2280644998362422e-05,-0.001345808772514427
2025/04/05 15:42:19.278269374,1743860539,275572476,piren,0.42258308020456387,-0.05195781771851897,-0.02175506283906442,-0.0008032668077287784,0.00017743713502749148,0.0
2025/04/05 15:42:19.363546710,1743860539,361130803,piren,0.42342423209170055,0.07493606910600707,0.028348302467148437,-0.0029928472839022527,0.00025196713726340227,-0.0014755180772539702
2025/04/05 15:42:19.448492033,1743860539,446358420,piren,0.42559295320971735,-0.06011228922431844,-0.024345642709885325,-0.002029605818534996,0.00021344765034305026,-0.0014000493796830216
2025/04/05 15:42:19.493442878,1743860539,491317035,piren,0.4268695175850582,-0.036004054827901935,-0.012697330586262684,-0.0004370112368726273,1.5659353106986593e-05,0.0
2025/04/05 15:42:19.539542736,1743860539,537272966,piren,0.4284184813595211,0.04946766092650548,0.02453581241053097,-0.0008811103019888693,-0.0001944896673834135,-0.0012939709819197597
2025/04/05 15:42:19.586603723,1743860539,581411864,piren,0.42955756405302475,0.017661062623783003,0.012089631748687674,-0.0021236832570476257,-0.0003566945165451423,0.0
2025/04/05 15:42:19.629476846,1743860539,627223778,piren,0.43296698057202704,-0.09574108225875991,-0.03629000121103877,-0.0004680609878474314,-0.0005037276585455492,0.0
2025/04/05 15:42:19.672748158,1743860539,670871282,piren,0.4352375462571535,-0.06236161310525357,-0.021818960416934544,-0.0008749188471881294,-0.0006483102246803968,-0.004997029855754662
2025/04/05 15:42:19.760217821,1743860539,757603553,piren,0.43590676259620786,0.0013960886379151473,0.006150126518440103,0.0007933350363495798,-0.00039659602796856093,-0.0008849391774085941
2025/04/05 15:42:19.846954333,1743860539,844916132,piren,0.43367970175110465,-0.11615241982758223,-0.04593695100187354,0.0012989609760925222,-0.00021617852236928693,-0.0009140602443951281
2025/04/05 15:42:19.894174110,1743860539,890479104,piren,0.43342513812827493,-0.07109763187247858,-0.02516513241413046,0.0010102572197660947,-0.00024410901821866383,0.0
2025/04/05 15:42:19.938817838,1743860539,936087926,piren,0.4338013714496495,-0.031574705759336574,-0.009392435788874304,0.001327058841385152,-0.00024192153082704812,-0.0008371115538824451
2025/04/05 15:42:19.983547676,1743860539,980462193,piren,0.4336216123172006,0.11366818932735454,0.05076363145955337,0.0008260893434972971,-0.00022681463314505035,0.0
2025/04/05 15:42:20.27792042,1743860540,25602388,piren,0.4336492472829582,0.09155189586495575,0.04344451743376795,0.0009438808926228166,-0.00018952091880668307,0.0
2025/04/05 15:42:20.114077755,1743860540,111573716,piren,0.4324831738762563,0.06898604347218784,0.03486170892911871,0.0011660719149898806,-7.651855867479564e-05,-0.0032934554155183
2025/04/05 15:42:20.203789515,1743860540,201215259,piren,0.43148423879726827,0.04605288519549508,0.023501505873018864,0.0010157965957975506,0.0001422641606383049,-0.002420543136497443
2025/04/05 15:42:20.291674234,1743860540,288902699,piren,0.4297513865838276,-0.041556759664251486,-0.012500773002401934,0.0009100023091770287,0.0005180718704716659,-0.0012154276283862604
2025/04/05 15:42:20.335707839,1743860540,333842334,piren,0.4280025420057214,-0.030210415865147056,-0.007397776888745436,0.000532039580700817,0.0008550195189170991,0.0
2025/04/05 15:42:20.382036850,1743860540,379196664,piren,0.42960241273872973,-0.013544976116948746,-0.0008116665546368377,0.0016565823662553912,0.001133051818915053,-0.0014212334153762467
2025/04/05 15:42:20.425868784,1743860540,424061743,piren,0.430916558668075,0.08667662181749262,0.038784603776663346,-0.00012584224663135274,0.001333418564459659,0.0
2025/04/05 15:42:20.472017879,1743860540,468752067,piren,0.4321261302070592,0.04620812998069143,0.026382236875752415,-0.00011197520772935925,0.0014559872636308513,-0.002509458238118011
2025/04/05 15:42:20.558341484,1743860540,556364111,piren,0.4329892193451477,0.13629093593506422,0.052994126086918725,-0.0013999119513726746,0.0010386263729706836,-0.0006481215728216336
2025/04/05 15:42:20.646061919,1743860540,644184408,piren,0.435224247274459,0.019149612644114654,0.00902504362898743,-0.0015784348983003376,0.0007121083978597033,-0.0005296809297115453
2025/04/05 15:42:20.690844114,1743860540,689049464,piren,0.43614399595722037,-0.012950257837974086,-0.003125847606157147,-0.001306722558898413,0.0006107644637426722,0.0
2025/04/05 15:42:20.737606741,1743860540,735309616,piren,0.4363347958323968,-0.010843529715816345,-0.0018102049827798876,-0.0006554631165137711,0.0004397564545048146,-0.0005774170570933273
2025/04/05 15:42:20.782134459,1743860540,779931536,piren,0.4364544586152339,0.06490234380558417,0.02862334674111623,-0.002086402627423546,0.000284531070587105,0.0
2025/04/05 15:42:20.827678514,1743860540,825238914,piren,0.43709897804530756,0.02216297481543374,0.012272305771095476,-0.0021574743317417377,9.964251915486308e-05,0.0
2025/04/05 15:42:20.916266966,1743860540,914449033,piren,0.4371292129550851,0.010097569437806054,0.008019828533600728,-0.0009107242229853627,-0.00030621527707491914,-0.004204231402138712
2025/04/05 15:42:21.4939796,1743860541,2673062,piren,0.43779690695886825,0.03230057768265032,0.01514140175803008,-0.0026906227634591164,-0.0007159658111224567,-0.005340875539048053
2025/04/05 15:42:21.93903015,1743860541,89444840,piren,0.4387637395994095,-0.08881888499475166,-0.041750547460198656,-0.00026414593068563834,-0.0009836001534398872,-0.0062029617718251315
2025/04/05 15:42:21.137779531,1743860541,135922762,piren,0.4393486354564783,0.032121495103220675,0.01253959052139285,7.245239742171299e-05,-0.0011749762239008962,-0.0012368769645437292
2025/04/05 15:42:21.182959396,1743860541,180452114,piren,0.4428033678761855,-0.010474708179430768,-0.0020070345561384647,-0.0006694994389345498,-0.0012810403962552365,0.0
2025/04/05 15:42:21.228734535,1743860541,226682877,piren,0.4441547799302546,-0.14378595904001973,-0.051005573790667946,-0.00045648949424590465,-0.001320197611116952,0.0
2025/04/05 15:42:21.274841118,1743860541,271840156,piren,0.4448775233666873,-0.21613175569777976,-0.09308821848795025,0.00011110649178027127,-0.001289835324266889,-0.004701744882756145
2025/04/05 15:42:21.361437177,1743860541,359285436,piren,0.444022414825631,-0.13474842534050813,-0.0450843461136866,0.0009095367480567954,-0.0009756773822506527,-0.0007071367603101305
2025/04/05 15:42:21.474869378,1743860541,470784853,piren,0.44260904008787827,-0.18700669818683247,-0.0792308915517885,0.0006760438711007221,-0.0006508537140778249,-0.0006339908194827316
2025/04/05 15:42:21.562148752,1743860541,559920559,piren,0.44266029597638884,-0.08442844215815919,-0.025806816911960198,0.0011047015846099588,-0.00034911221608428263,-0.000550355995234447
2025/04/05 15:42:21.651295304,1743860541,649196345,piren,0.4446436499287462,-0.13069559884454374,-0.06157435013904432,0.002445929320685027,2.7078190372277015e-05,-0.0003899363456287737
2025/04/05 15:42:21.741340997,1743860541,739474254,piren,0.44583725987044576,0.055691801988113215,0.024193605092075944,0.0020133618948976486,0.00020125651755638317,-0.00025418737774237396
2025/04/05 15:42:21.787460506,1743860541,784971583,piren,0.44616626423142425,0.05765582809810267,0.024419361151583677,6.846643580521057e-05,0.00037991615929497174,0.0
2025/04/05 15:42:21.834097410,1743860541,831715114,piren,0.4461603700538358,-0.04328134145477861,-0.01592131172835837,-0.00017965239192196947,0.0005346260749877842,-0.000115312006993533
2025/04/05 15:42:21.880717799,1743860541,878676167,piren,0.4452910217913691,0.009877256218975181,0.009910377713078577,0.000997401998631603,0.0006375112875124046,0.0
2025/04/05 15:42:21.927473389,1743860541,925587267,piren,0.4449676286617139,0.14452983842409453,0.06258334062590719,0.0005109410209299451,0.000717984184592024,0.0
2025/04/05 15:42:21.973612994,1743860541,971508092,piren,0.44475845463764024,0.11013003951046887,0.043556353570531794,-0.0014771249193622669,0.0007759322111868195,0.000322201198198997
2025/04/05 15:42:22.63987664,1743860542,60246955,piren,0.4436933986065065,-0.024749131744229307,-0.009650859134886322,-0.00040456943357964253,0.0007325236397693393,0.0002493020388377058
2025/04/05 15:42:22.151284302,1743860542,148992976,piren,0.443372368946962,0.1076066804994313,0.042028879232780154,-0.001988739276423079,0.000721884306253691,0.0004617101138138845
2025/04/05 15:42:22.197712511,1743860542,194665831,piren,0.4422583228053454,0.02616385214814515,0.011337272196949298,-0.0030488516598165157,0.0009355086849145424,0.0
2025/04/05 15:42:22.243395480,1743860542,241579851,piren,0.44132484275192785,-0.07487703140342603,-0.036154940273916816,-0.0014700621730567528,0.0011163521554918663,0.0004192307498215331
2025/04/05 15:42:22.289404654,1743860542,287588745,piren,0.44072679818061455,0.07665426162821107,0.0323918400108474,-0.0013649904621888718,0.0012041419532625006,0.0
2025/04/05 15:42:22.335794765,1743860542,333829569,piren,0.44445644398384737,0.08345456661454217,0.03701100747836982,-0.001997888199899816,0.0012333330258267208,0.0002506864980048351
2025/04/05 15:42:22.383489264,1743860542,379962037,piren,0.4471703646554336,0.05943414568035844,0.0337026327667671,-0.001961722786677584,0.0011860085349261436,0.0
2025/04/05 15:42:22.427835729,1743860542,426054952,piren,0.449298105573727,0.1673125745374236,0.07104566039389698,-0.0019610125627662553,0.0010072802265752691,0.0
2025/04/05 15:42:22.474872398,1743860542,472169302,piren,0.451150354752345,0.11134337674893298,0.04217474244475127,-0.0019231035052512983,0.0004711236853029323,-0.0002770920047004552
2025/04/05 15:42:22.566605300,1743860542,562542369,piren,0.45207804668659174,-0.05220817763246558,-0.024877144002296188,0.0007977263189186402,-0.00030680597899192534,5.663511055423246e-06
2025/04/05 15:42:22.659791595,1743860542,656206251,piren,0.45146410577480856,0.05747263848478088,0.027702116946558147,0.0012747236547939298,-0.0005306542588679266,-4.869962649403502e-05
2025/04/05 15:42:22.749175918,1743860542,746495630,piren,0.45055591360706937,0.13310905594159977,0.04699695043513327,-0.0005812243124993772,-0.0006482218633576286,-0.0003825951483693686
2025/04/05 15:42:22.839749571,1743860542,836801963,piren,0.4503391308409858,-0.03399579595939551,-0.013758446786556924,0.0030742881085348383,-0.0008848800791442881,-0.0006523193085525158
2025/04/05 15:42:22.886340408,1743860542,883450878,piren,0.45053507164467504,-0.06273684560713438,-0.02676387468792075,0.003442221249954452,-0.0011944707096482486,0.0
2025/04/05 15:42:22.932460240,1743860542,930685198,piren,0.4505983850192429,0.03783555305861655,0.01910320906836544,0.0025997960562600553,-0.0014020970813486335,0.0
2025/04/05 15:42:22.980277500,1743860542,977174571,piren,0.4498740185208455,0.030967139508896527,0.017679386897191497,0.001665733793249452,-0.0011894886556824136,-0.003102726068817891
2025/04/05 15:42:23.25548192,1743860543,23743386,piren,0.4498593979000908,0.03176234486730951,0.016608207609975074,0.0004317554466538967,-0.0010723134084951046,0.0
2025/04/05 15:42:23.116712865,1743860543,114507328,piren,0.4484081980330907,-0.08325237519293069,-0.030110248549812788,0.002277314813038834,-0.0011208583733676506,-0.0033833376920923224
2025/04/05 15:42:23.206883334,1743860543,204104081,piren,0.4462467374404826,-0.07503032627745981,-0.029748750597244963,0.003591287763189237,-0.0002510700447274774,-0.0025737890015060517
2025/04/05 15:42:23.297639511,1743860543,295243670,piren,0.4460049489018334,0.08965195017337264,0.04775031769029755,0.001184313378800762,0.0005164526051810063,-0.0023720953968317873
