time,header_stamp_secs,header_stamp_nsecs,header_frame_id,vessel_state_pose_position_x,vessel_state_pose_position_y,vessel_state_pose_position_z,vessel_state_pose_orientation_x,vessel_state_pose_orientation_y,vessel_state_pose_orientation_z,vessel_state_pose_orientation_w,vessel_state_velocity_linear_x,vessel_state_velocity_linear_y,vessel_state_velocity_linear_z,vessel_state_velocity_angular_x,vessel_state_velocity_angular_y,vessel_state_velocity_angular_z,vessel_state_vessel_frame_id,vessel_state_w_1,vessel_state_w_2,vessel_state_w_3,vessel_state_w_4,vessel_state_a_1,vessel_state_a_2,vessel_state_a_3,vessel_state_a_4
2025/04/05 15:58:39.929912772,1743861519,909943525,world_ned,243.25248787865684,10.452467156009407,0.4336814605737221,-0.002502979318588562,0.0006089595088766211,-0.014822407982075098,0.9998868238378082,0.08985401729115244,-0.007726959718069486,0.00018166433272595502,0.006607582339532745,0.0002925802594240911,-0.008772393403409705,,46.0,0.0,295.0,298.0,2.534000000000015,-2.0986477827122942,0.0,0.10471975511965978
2025/04/05 15:58:40.3022174,1743861520,1613127,world_ned,243.26191502056187,10.451279685516134,0.4336887896566205,-0.00197573786676699,0.0006042767654174772,-0.015244719143715524,0.9998816579214271,0.10005764262127582,-0.009951506991874486,0.00011551500334295153,0.013420201158599638,-0.0005532497144441458,-0.008256155838388233,,44.0,0.0,297.0,300.0,2.479000000000016,-2.153647782712293,0.0,0.08726646259971647
2025/04/05 15:58:40.103759521,1743861520,102679263,world_ned,243.27209285939406,10.449925897426146,0.43369096557053644,-0.0011892915375655182,0.0005862527755522088,-0.01564948512080477,0.9998766601480282,0.09892391726255041,-0.010353055930144,0.00010132704904927843,0.017022992652523907,0.0016297155680679955,-0.007941855734993326,,44.0,0.0,297.0,300.0,2.429000000000017,-2.203647782712292,-1.0842021724855045e-21,0.08726646259971647
2025/04/05 15:58:40.208639941,1743861520,205855239,world_ned,243.28317628624816,10.448648262029138,0.43368959661632783,-0.0003389761992696905,0.0005294907927204271,-0.016026798290347193,0.9998713649621122,0.11757844523276147,-0.008169691806978279,9.529297977653861e-05,0.01652234212620209,-0.0018495395129474324,-0.007298701760848215,,37.0,0.0,297.0,300.0,2.379000000000018,-2.253647782712291,0.0,0.06981317007977318
2025/04/05 15:58:40.308119631,1743861520,307119955,world_ned,243.29482975582926,10.447662435210647,0.433686561628773,0.0003891049484330383,0.0004904424537085766,-0.016385755655570825,0.9998655484989643,0.11965774150824655,-0.004069416593354084,7.824265843411898e-05,0.012483383827836663,-0.0004548580843252979,-0.0070537945227569935,,45.0,0.0,298.0,301.0,2.3290000000000193,-2.30364778271229,2.3133728824182618e-35,0.08226646259971647
2025/04/05 15:58:40.409660163,1743861520,408104371,world_ned,243.30728723255797,10.447143723463434,0.4336818885051346,0.0008355578438720705,0.00044508490023986654,-0.01672259191129174,0.9998597194918343,0.12124345394340906,0.0014574162393351736,7.437410198717481e-05,0.005823613524769998,0.0011587176443950628,-0.006536525973050777,,39.0,0.0,297.0,301.0,2.2790000000000203,-2.353647782712289,2.3133728824182618e-35,0.06981317007977318
2025/04/05 15:58:40.507696127,1743861520,502980187,world_ned,243.32057544851543,10.447160626306509,0.4336780254116088,0.0009178389848039175,0.00039906843982433584,-0.01703906258092275,0.9998543237203816,0.13602752176985167,0.007271492314480234,7.105347900830717e-05,-0.001770510736783605,-0.0008358766272880602,-0.006158197640401922,,42.0,0.0,298.0,301.0,2.2290000000000214,-2.393647782712288,2.3133728824182618e-35,0.07481317007977319
2025/04/05 15:58:40.606566976,1743861520,605658764,world_ned,243.33448122831294,10.447660341701775,0.4336760233475409,0.0006484435766965001,0.0003819133508667723,-0.01735130306554998,0.9998491715979204,0.14302994611524747,0.01178597140157411,8.47140261402174e-05,-0.008177813130586358,-0.0007077633593196888,-0.006263757080238903,,42.0,0.0,298.0,301.0,2.1840000000000224,-2.348647782712289,2.3133728824182618e-35,0.08726646259971647
2025/04/05 15:58:40.708013560,1743861520,706809281,world_ned,243.34908131804778,10.448512324972343,0.43367627917117046,0.00010899964706349761,0.0003681858865286716,-0.017656941585942606,0.9998440303227601,0.14470382852936825,0.014841050260732081,0.00011340946799023013,-0.012443802500082696,0.0006660428399779042,-0.0060396378173414225,,36.0,0.0,299.0,302.0,2.1290000000000235,-2.29364778271229,2.3133728824182618e-35,0.06981317007977318
2025/04/05 15:58:40.810714696,1743861520,807979008,world_ned,243.3643366417446,10.449568674688981,0.433676823759371,-0.0005708572885970984,0.000362288263128597,-0.017939367075025657,0.9998388480040761,0.1594728387084756,0.016544976696637813,0.00013803933700744448,-0.013983513620663225,-0.0015591306661315784,-0.005409253002913176,,30.999999999999996,0.0,299.0,301.0,2.0840000000000245,-2.338647782712289,2.3133728824182618e-35,0.05235987755982989
2025/04/05 15:58:40.918759529,1743861520,912265048,world_ned,243.38018262516832,10.450602146842861,0.43367459816658255,-0.0012214734874836746,0.0003692046885231539,-0.018213572100219483,0.9998333048472468,0.1607380344604264,0.01545345632196994,0.0001117398152560537,-0.011767005308667896,-1.2984429742272824e-05,-0.005500455976448788,,34.99999999999999,0.0,300.0,302.0,2.024000000000026,-2.2786477827122904,1.0842021724855285e-21,0.06981317007977318
2025/04/05 15:58:41.13542431,1743861521,8285959,world_ned,243.3966038341819,10.451424526031353,0.4336712480794424,-0.0016891833087308698,0.0003838421401017455,-0.01848680216488809,0.9998276038751267,0.16946543915347517,0.013082090928324058,0.00014164660741928253,-0.0070523225102246375,-0.0006478595692331683,-0.005439223928724849,,34.99999999999999,0.0,300.0,302.0,1.9790000000000267,-2.2336477827122914,2.407412430484045e-35,0.06981317007977318
2025/04/05 15:58:41.104257127,1743861521,102977506,world_ned,243.41358185535512,10.451921781500985,0.4336659157177819,-0.0018727400275200473,0.00039930722319113344,-0.018749310122647453,0.9998223826102592,0.1699930601685191,0.009762255534036084,0.00011065406269612229,-0.0007641194300428366,0.0009004006578788529,-0.005149904452133503,,34.0,0.0,300.0,303.0,1.9340000000000277,-2.1886477827122923,2.407412430484045e-35,0.05235987755982989
2025/04/05 15:58:41.206563190,1743861521,203862049,world_ned,243.43111318491495,10.452086807774563,0.43366401364098855,-0.0017451869238779589,0.00041942918576093807,-0.01899633334774407,0.9998179422880449,0.17616554688511352,0.007189146868249227,0.00017604099373690524,0.005102060566695427,0.0009739176210634932,-0.0047425197278203966,,33.0,0.0,302.0,304.0,1.8790000000000289,-2.2336477827122914,-5.421010862427282e-22,0.05235987755982989
2025/04/05 15:58:41.601798224,1743861521,305528808,world_ned,243.44930082588988,10.452008278589206,0.433665902993832,-0.0013579752690042626,0.00042851047661118883,-0.019222058293732965,0.9998142251222937,0.1801893296066208,0.005514893183206245,0.00019095575775730537,0.009612534136931531,0.0015333555420825244,-0.004324801487172467,,32.0,0.0,302.0,305.00000000000006,1.82900000000003,-2.2836477827122903,-5.421010862427282e-22,0.05235987755982989
2025/04/05 15:58:41.602035145,1743861521,407037818,world_ned,243.46789083555188,10.451815673472876,0.4336739092978543,-0.0008039084302961255,0.00045622301656945285,-0.019417451873726743,0.9998110362236088,0.18623008772344435,0.005206030605658332,0.0002616828412754104,0.011901872032455844,0.0013344411100637136,-0.0036408475039152346,,29.999999999999996,0.0,302.0,305.00000000000006,1.779000000000031,-2.3336477827122892,2.407412430484045e-35,0.03490658503988659
2025/04/05 15:58:41.603173341,1743861521,507869899,world_ned,243.48713497673563,10.451631478747013,0.43368345966402877,-0.00020655086614225328,0.000464074183423164,-0.019587625683947386,0.9998080150168619,0.1975812332635592,0.006305308658444834,0.0002798001661427574,0.011545300640311116,-0.0004578273190571559,-0.003197225036573561,,28.0,0.0,304.0,306.00000000000006,1.729000000000032,-2.3736477827122884,2.407412430484045e-35,0.03490658503988659
2025/04/05 15:58:41.612099066,1743861521,608832800,world_ned,243.50689371631367,10.451588294358915,0.43369122664388016,0.00030708293199816687,0.0004641722995717263,-0.0197428192126824,0.9998049366419854,0.19655460784956277,0.00833959478474298,0.0002667834573290432,0.008887416755376767,0.0009177782148936497,-0.0030525722263073387,,28.0,0.0,304.0,306.00000000000006,1.6790000000000331,-2.3236477827122894,2.407412430484045e-35,0.03490658503988659
2025/04/05 15:58:41.707788851,1743861521,701857481,world_ned,243.52705856337357,10.45177914115515,0.4336946671033192,0.0006350210653702911,0.0004627473479895893,-0.019892580967232985,0.9998018142790103,0.2019842877183997,0.011329356567336258,0.0001884836157705992,0.004390358161399203,0.0003428346991894046,-0.002938404764590658,,26.000000000000004,0.0,304.0,306.00000000000006,1.6290000000000342,-2.2736477827122905,2.407412430484045e-35,0.03490658503988659
2025/04/05 15:58:41.804854096,1743861521,803361337,world_ned,243.5477683516312,10.452317356919044,0.4336939861116641,0.0006927561397516022,0.00043917125847471193,-0.020032805639743568,0.999798986754706,0.21242051471865783,0.015608224609700875,0.00015333731793067582,-0.0015471164902996837,-0.0016338466663933175,-0.002646930891114507,,30.999999999999996,0.0,303.0,306.00000000000006,1.5790000000000353,-2.3236477827122894,2.407412430484045e-35,0.05235987755982989
2025/04/05 15:58:41.906967768,1743861521,904497978,world_ned,243.56888143266977,10.453260692564502,0.43369095123731033,0.0004569212063021728,0.00041063710946601014,-0.02014494279863824,0.9997968813113067,0.2153761218924395,0.019536963899202984,0.00013237698565285135,-0.007011486732131371,-0.0016048790953178747,-0.001986464177149104,,29.999999999999996,0.0,305.00000000000006,307.0,1.5533430342749532,-2.3736477827122884,2.407412430484045e-35,0.03490658503988659
2025/04/05 15:58:42.7498418,1743861522,6018083,world_ned,243.5904077748213,10.454460153071947,0.4336849990431015,1.0016567362990953e-05,0.00037386553208845985,-0.02023959992474815,0.9997950883651702,0.217070796704126,0.021361514679975373,9.542128202544864e-05,-0.010117666786783785,-0.0012149914748732491,-0.0018398471804791702,,28.0,0.0,304.0,307.0,1.5707963267948966,-2.3236477827122894,2.407412430484045e-35,0.03490658503988659
2025/04/05 15:58:42.108125686,1743861522,106836947,world_ned,243.6123457772661,10.455735840613176,0.43367705987365446,-0.0005259183112667898,0.0003277829629039848,-0.02032837882825293,0.9997931651008993,0.2169641975018871,0.021639993663860706,7.525597949366053e-05,-0.010776311991605057,-0.0001973094479106783,-0.0017323560274801265,,29.000000000000004,0.0,306.00000000000006,308.0,1.5707963267948966,-2.2736477827122905,2.407412430484045e-35,0.03490658503988659
2025/04/05 15:58:42.210401385,1743861522,209230602,world_ned,243.6346706018037,10.456934441840085,0.43366635593167174,-0.0010240052093378543,0.0002811992013863166,-0.020412293029224298,0.9997910834937614,0.2221366835094778,0.020414892618571504,5.665971225620748e-05,-0.008928564292790646,-0.0004889796658795004,-0.0016440203837123199,,28.0,0.0,306.00000000000006,308.0,1.5707963267948966,-2.2236477827122916,2.407412430484045e-35,0.03490658503988659
2025/04/05 15:58:42.312316994,1743861522,310471595,world_ned,243.65736320375942,10.45792322845894,0.43365857653447704,-0.0013712708119195112,0.0002419659425532525,-0.020492404792109176,0.9997890389550584,0.2260640234216706,0.018023337186054773,9.001009110664942e-05,-0.005061720513210722,-0.00020977899414262384,-0.0015653961289046258,,26.000000000000004,0.0,306.00000000000006,308.99999999999994,1.5707963267948966,-2.1736477827122926,2.407412430484045e-35,0.03490658503988659
2025/04/05 15:58:42.415259249,1743861522,403584711,world_ned,243.68041993802905,10.458619694962064,0.4336558408173782,-0.001491641429613395,0.00021923795685212114,-0.02056832178802669,0.9997873129217973,0.23684694571472772,0.015087175589627513,0.00013886337620045808,-0.00013675164543519176,-0.0016881019705300773,-0.0014828397731191717,,26.000000000000004,0.0,306.00000000000006,308.99999999999994,1.5707963267948966,-2.1236477827122937,2.407412430484045e-35,0.03490658503988659
2025/04/05 15:58:42.507484499,1743861522,506204651,world_ned,243.70381721082074,10.459008117221329,0.43365825667280544,-0.0013633380146620346,0.00022239963942455532,-0.020640605078556033,0.9997860057381526,0.2287190031352861,0.01231600209077415,0.00017039124023058137,0.004674065020207779,0.0022319919598142494,-0.001415363821285863,,26.000000000000004,0.0,308.0,309.99999999999994,1.5707963267948966,-2.0786477827122947,-2.7105054312135204e-22,0.03490658503988659
2025/04/05 15:58:42.609212052,1743861522,607892182,world_ned,243.7277502777747,10.45915655633816,0.4336654120899122,-0.001030120719753678,0.00022825060724710518,-0.020703787856343955,0.9997850968690034,0.24261167484612042,0.01082162265339267,0.0002008325165945297,0.007992636817556515,-3.213748112926286e-06,-0.0011169799420226397,,25.0,0.0,308.0,309.99999999999994,1.5533430342749532,-2.1286477827122936,2.407412430484045e-35,0.03490658503988659
2025/04/05 15:58:42.709897142,1743861522,708786192,world_ned,243.75190784754145,10.45917798501639,0.43367615876086363,-0.0005714592336563101,0.00027447354663551383,-0.020751280522129163,0.9997844680006328,0.2407159857073593,0.009882307229028222,0.0002544604905789047,0.009804955850399854,0.001905856340487089,-0.0008754415471437703,,21.0,0.0,308.99999999999994,311.0,1.5707963267948966,-2.0736477827122948,2.407412430484045e-35,0.017453292519943295
2025/04/05 15:58:42.811933351,1743861522,810656730,world_ned,243.77645026123807,10.459147194409145,0.433687924011102,-8.034379019118099e-05,0.0003270174903633049,-0.020794076893555585,0.9997837230974413,0.25250486933099614,0.010087147626003446,0.0002621344837907138,0.009467757154803618,-0.0002953912178645572,-0.0008327283263378703,,24.0,0.0,308.99999999999994,312.0,1.5657963267948967,-2.0336477827122956,2.407412430484045e-35,0.017453292519943295
2025/04/05 15:58:42.902824968,1743861522,901561345,world_ned,243.80142266330265,10.459229140513575,0.43369634069878893,0.0003195628920703845,0.00037074940527949965,-0.02082570861841361,0.9997830015983356,0.25235705172781076,0.012332827233731017,0.0002491823021475465,0.006456839442400023,0.0005940990602613195,-0.0004401858903182137,,24.0,0.0,308.99999999999994,312.0,1.5533430342749532,-2.0836477827122946,2.407412430484045e-35,0.017453292519943295
2025/04/05 15:58:43.3962347,1743861523,2366732,world_ned,243.82669627266517,10.459572791370906,0.43370152612522206,0.000525459395208475,0.0004135473453926298,-0.02083644997769116,0.9997826739963762,0.25479621846533557,0.01536770590410889,0.000249317555697368,0.002017671077260771,0.0004814987738773734,-3.1385810617166977e-05,,24.0,0.0,309.99999999999994,313.0,1.5533430342749532,-2.1336477827122935,-8.47032947251893e-24,0.017453292519943295
2025/04/05 15:58:43.105120837,1743861523,103930211,world_ned,243.85217341193155,10.460232180210154,0.4337021167741938,0.0004926229728229284,0.00045813789707143456,-0.020831152959846375,0.9997827816574145,0.25300311600836733,0.0187002617486144,0.00019848857967430959,-0.0028818992397268914,0.001356110585762558,0.00023532179333266825,,28.0,0.0,311.0,314.0,1.5533430342749532,-2.1786477827122925,-8.4703294725353e-24,0.03490658503988659
2025/04/05 15:58:43.207711831,1743861523,205398455,world_ned,243.87800963236,10.461196997234252,0.4336945283888281,0.0002255000575322498,0.0004619940745209483,-0.02080035503439228,0.9997835170383849,0.25842761859045693,0.02150851849200837,0.00011631894638527488,-0.007057833006451364,-0.00026082359666308003,0.0008420397011420688,,25.0,0.0,311.0,314.0,1.5533430342749532,-2.2286477827122915,-8.4703294725353e-24,0.017453292519943295
2025/04/05 15:58:43.307211949,1743861523,306422178,world_ned,243.9040904426533,10.462360345554522,0.4336822947040424,-0.00019993168543591019,0.00043649053291970976,-0.02075195762701404,0.9997845396674138,0.26459609032402287,0.023069582806103103,0.00012438922966362512,-0.009376753915751147,-0.0019248379042581805,0.0010879585594135857,,27.0,0.0,312.0,315.0,1.5533430342749532,-2.2786477827122904,-8.4703294725353e-24,0.03490658503988659
2025/04/05 15:58:43.409483900,1743861523,408386758,world_ned,243.9304532639911,10.463601755243728,0.4336687563799964,-0.0006832349270562961,0.0003782709777514204,-0.020688513417881544,0.9997856647870382,0.261733381612178,0.02330240674371146,9.158127627920638e-05,-0.00948799201788644,-0.0009590425701328735,0.0014020364894932755,,23.0,0.0,313.0,316.0,1.5533430342749532,-2.3336477827122892,2.625802136488408e-22,0.02990658503988659
2025/04/05 15:58:43.511444046,1743861523,510061416,world_ned,243.9569570378262,10.46477926613198,0.43366080719593597,-0.001104643150676362,0.00031060360829739445,-0.02060238438404891,0.9997870898579357,0.26906057911751124,0.021977295633428356,0.00015434692860965288,-0.007183048579031248,-0.0026778620989960254,0.0018949495623246865,,23.0,0.0,314.0,317.00000000000006,1.5533430342749532,-2.383647782712288,-2.795208725939172e-22,0.017453292519943295
2025/04/05 15:58:43.602895042,1743861523,601774243,world_ned,243.9838340791423,10.465748669410942,0.43365904219097784,-0.0013621052786886385,0.00021365703032005698,-0.02049926816777365,0.9997889172342674,0.2694635566440632,0.019619599954552817,0.00015075590373863927,-0.003245581316407655,-0.0020697297287486185,0.002193084631385224,,23.0,0.0,314.0,317.00000000000006,1.5533430342749532,-2.433647782712287,-8.470329472541083e-24,0.017453292519943295
2025/04/05 15:58:43.705575581,1743861523,704153877,world_ned,244.01080513536914,10.466463945288849,0.4336625748688814,-0.0014008788676572836,0.0001444569166278364,-0.020381237863060495,0.9997912891267691,0.2634007034364551,0.01700050061163497,0.00015772146879879686,0.001285010962692176,0.0007293333245950465,0.0024931686097160273,,23.0,0.0,316.0,319.0,1.5533430342749532,-2.478647782712286,-8.470329472541083e-24,0.017453292519943295
2025/04/05 15:58:43.807065970,1743861523,805551531,world_ned,244.03813672475397,10.466921417578963,0.4336765282000759,-0.0012178212069504648,7.929315696430654e-05,-0.020238088782533383,0.9997944440666459,0.27286210850822945,0.014598329603041223,0.0002282722122767481,0.005528711281330252,-0.0005925807315268196,0.0030677931460960962,,19.0,0.0,316.0,319.0,1.5533430342749532,-2.533647782712285,-8.470329472541083e-24,0.0
2025/04/05 15:58:43.909339584,1743861523,906560989,world_ned,244.06576252426092,10.467183961334154,0.4336944939786704,-0.0008597729431967006,4.5890707298910016e-05,-0.02008131380176369,0.9997979793540914,0.27311222840154137,0.013292851143952225,0.00023223327140565978,0.008203721491301589,0.0010332292989899464,0.003156564612334151,,20.0,0.0,318.00000000000006,320.0,1.5533430342749532,-2.583647782712284,-5.505714157152933e-22,0.02990658503988659
2025/04/05 15:58:44.9140384,1743861524,7972119,world_ned,244.09374428445315,10.467385546315576,0.43371040525690163,-0.00042413049104533427,3.9205751751453e-05,-0.01991127202519256,0.9998016602419574,0.2818700025179935,0.013213653902278874,0.00016569634834682906,0.00887984007586911,7.084862076368295e-05,0.0035374337505349063,,24.0,0.0,319.0,321.0,1.5533430342749532,-2.633647782712283,-8.470329472541036e-24,0.017453292519943295
2025/04/05 15:58:44.110077920,1743861524,109110191,world_ned,244.12190567776307,10.467638858438962,0.433719346101934,-6.304746022136526e-06,8.441580056029904e-05,-0.019726867864077527,0.9998054028252178,0.2843077145673419,0.014255263456016024,9.764655323899984e-05,0.00758116360713119,0.0008586331362823551,0.0038133308644947204,,24.0,0.0,319.0,321.0,1.5533430342749532,-2.6836477827122818,-8.470329472541036e-24,0.017453292519943295
2025/04/05 15:58:44.207263262,1743861524,202455974,world_ned,244.15047459329338,10.468048278941225,0.4337188232728094,0.000296967677728302,0.00014103332915960584,-0.019528800614614292,0.9998092407386286,0.28833647489224873,0.016268204510628412,2.157724506780514e-05,0.00456831369183244,0.0008922267382771517,0.004082208173858391,,24.0,0.0,321.0,323.0,1.5533430342749532,-2.7336477827122807,-8.470329472541036e-24,0.017453292519943295
2025/04/05 15:58:44.304715396,1743861524,303446291,world_ned,244.1791933550262,10.468694440131415,0.4337089547295096,0.0004207644893122345,0.00022770875268698075,-0.0193179156352657,0.9998132771880344,0.2858175945777053,0.018731518891327695,-1.4412424798961913e-05,0.0006224026823227922,0.0023192482299077806,0.004328164045350805,,23.0,0.0,321.0,323.0,1.5533430342749532,-2.7836477827122796,-8.470329472541036e-24,0.017453292519943295
2025/04/05 15:58:44.405149866,1743861524,404198570,world_ned,244.20819604829012,10.469596424147525,0.4336928621012748,0.0003402531063456643,0.0002985368896481642,-0.019085480735126094,0.9998177531573733,0.2896911881890186,0.021069381854102388,-1.162952214772185e-05,-0.003290130468316229,0.0013942245773146367,0.004818099517817849,,18.0,0.0,322.0,324.0,1.5533430342749532,-2.8286477827122787,5.336307567702112e-22,0.0
2025/04/05 15:58:44.506128311,1743861524,505007768,world_ned,244.23734689565913,10.470697331323217,0.4336756325846099,8.966346387118852e-05,0.0003572636930914654,-0.018841019458118745,0.9998224243878988,0.29424395614916987,0.02275007154152104,2.256768119531034e-05,-0.006287790040826021,8.74450229946922e-05,0.0049644361743792255,,24.0,0.0,323.0,325.0,1.5533430342749532,-2.8836477827122775,5.336307567702054e-22,0.017453292519943295
2025/04/05 15:58:44.607672983,1743861524,605804114,world_ned,244.2667046761235,10.471923078272743,0.4336609621106997,-0.0002724647513244251,0.00037829546604268476,-0.018587978702450436,0.9998271199078653,0.2958494001652541,0.023431313174127298,0.00010994864549778279,-0.007748427370483014,-0.00070356657197873,0.005130659794942584,,22.0,0.0,324.0,326.0,1.5533430342749532,-2.9336477827122764,5.336307567702054e-22,0.017453292519943295
2025/04/05 15:58:44.712075044,1743861524,710235487,world_ned,244.2961862446222,10.473160819768347,0.43365211270399073,-0.0006559975769690148,0.000364427645386132,-0.0183276823813745,0.9998317523054555,0.29133729240689715,0.022918416107315803,0.00018692230082216,-0.007315281015629284,0.00022199566855661112,0.005260485372600773,,21.0,0.0,326.0,327.99999999999994,1.5533430342749532,-2.9836477827122754,5.336307567702054e-22,0.017453292519943295
2025/04/05 15:58:44.803899721,1743861524,801110780,world_ned,244.32575846695158,10.474303354802286,0.43365143134632467,-0.0009705979367115353,0.00032204719234502435,-0.0180610848651475,0.9998363623307291,0.2921141565864428,0.02143489563952385,0.0002455124735856892,-0.00520190459100175,-0.00018610976648454982,0.005390736627683175,,21.0,0.0,326.0,327.99999999999994,1.5533430342749532,-3.0336477827122743,5.336307567702054e-22,0.017453292519943295
2025/04/05 15:58:44.907540470,1743861524,906406603,world_ned,244.3556371897022,10.475268378991245,0.4336581064935007,-0.001147702193524987,0.00023170637317129829,-0.017787531941116694,0.9998411037756326,0.2992946832049501,0.019389707336223756,0.00027162235906039297,-0.0020138859649378666,-0.0021011721970054776,0.005527694209523652,,22.0,0.0,327.0,329.0,1.5533430342749532,-3.0786477827122734,5.336307567702054e-22,0.017453292519943295
2025/04/05 15:58:45.8536459,1743861525,7276159,world_ned,244.38563573602227,10.476024230492756,0.43367255294331675,-0.0011507927513458556,0.00013685021466005817,-0.017508224072791692,0.9998460476682793,0.3035520353689957,0.01709708628021256,0.00028045878476334527,0.001598291713864079,-0.002759479668367023,0.005623030990665587,,20.0,0.0,329.0,331.0,1.5533430342749532,-3.1286477827122723,5.336307567702054e-22,0.017453292519943295
2025/04/05 15:58:45.109320268,1743861525,108097686,world_ned,244.41578704813088,10.476566034211867,0.4336917450083174,-0.0009771933999641001,5.432172118857179e-05,-0.017218750492490373,0.9998512673261394,0.3016502468050609,0.014895421147345801,0.00024261295905671812,0.004950641617113036,-0.0012710651551613025,0.005860518901628829,,12.0,0.0,332.00000000000006,334.00000000000006,1.5533430342749532,-3.183647782712271,5.336307567702054e-22,-9.027796614315168e-36
2025/04/05 15:58:45.211282923,1743861525,208906641,world_ned,244.44624388499236,10.476925611937096,0.4337097458789345,-0.0006653858255746877,-1.597087610391223e-05,-0.01692298004429007,0.9998565745911034,0.3034326567609742,0.013363550977536994,0.00015914344772769074,0.007114734595144061,-0.0004341883781701495,0.005956101590701766,,10.0,0.0,333.0,334.00000000000006,1.5533430342749532,-3.229,5.336307567702054e-22,-9.027796614315168e-36
2025/04/05 15:58:45.311154998,1743861525,309852257,world_ned,244.4769555743586,10.477182266641302,0.43372080881826797,-0.00028529394816346354,-5.144907783275956e-05,-0.016625941926307695,0.9998617374494428,0.31016690628651966,0.012620550666812743,4.4982025324969265e-05,0.007731260230807971,-0.0008330993976736072,0.005926831604766212,,10.0,0.0,333.0,334.00000000000006,1.5533430342749532,-3.229,1.6178329292557098e-21,-9.027796614315168e-36
2025/04/05 15:58:45.402674454,1743861525,401565014,world_ned,244.50789983502546,10.477445059156553,0.43372284337935113,7.267419761612384e-05,-4.3185357084352505e-05,-0.016328991513898602,0.9998666695563089,0.3087275557757079,0.01312715557167754,-5.082240231746272e-05,0.00642217212385515,0.0010848218685529949,0.005951502126314075,,14.999999999999998,0.0,334.00000000000006,335.0,1.5533430342749532,-3.229,5.336307567702054e-22,-9.027796614315168e-36
2025/04/05 15:58:45.504515256,1743861525,503125730,world_ned,244.53906637213012,10.477807784399495,0.43371531832451826,0.00032723026025211307,7.057855707150204e-06,-0.01603263207697213,0.99987141552263,0.31341441740087994,0.014277650013454497,-0.00012099036256947183,0.0037822558983516136,0.0010827718117264798,0.005908412080325467,,9.0,0.0,335.0,337.0,1.5533430342749532,-3.229,5.336307567702054e-22,-9.027796614315168e-36
2025/04/05 15:58:45.606480337,1743861525,604028790,world_ned,244.5705064192676,10.478335119522292,0.43370032130089664,0.00042082033269380347,8.027755614249854e-05,-0.01573629705421437,0.999876085032932,0.31154419594298755,0.016071436696387553,-0.0001322873090410256,0.00020107278253015125,0.0026275066121517897,0.005941460793745998,,14.999999999999998,0.0,336.0,338.0,1.5533430342749532,-3.229,5.336307567702054e-22,-9.027796614315168e-36
2025/04/05 15:58:45.707943252,1743861525,705256376,world_ned,244.6021388170824,10.479072904643827,0.43368165123642594,0.00032668167610352836,0.00017168806384290132,-0.015440413143117362,0.9998807216084632,0.319836167567624,0.01815237760420459,-8.986835701281223e-05,-0.0035896219430943737,0.0009492499220681963,0.005917676635577716,,22.0,0.0,338.0,340.0,1.5533430342749532,-3.229,5.336307567702054e-22,0.017453292519943295
2025/04/05 15:58:45.806890612,1743861525,806032032,world_ned,244.63393757944417,10.479990659620212,0.4336638821573527,6.917546818317416e-05,0.0002567785648884407,-0.01513889524104756,0.9998853649946097,0.31522914699401966,0.0193145698943464,6.839429640309895e-07,-0.0062424189283348,0.002283530542428614,0.006077417424515197,,16.0,0.0,338.99999999999994,340.99999999999994,1.5707963267948966,-3.229,5.336307567702054e-22,0.0
2025/04/05 15:58:45.909612819,1743861525,907393173,world_ned,244.66586161424593,10.480998321225451,0.43365125709307906,-0.00028415146028822167,0.00032457374675567486,-0.014837127028390984,0.9998898307170515,0.3200677241426093,0.019757842573959464,0.00012312078317783,-0.007536438052174401,0.0007996269252454866,0.006011669632727643,,21.0,0.0,341.99999999999994,343.00000000000006,1.5533430342749532,-3.229,5.336307567702054e-22,0.017453292519943295
2025/04/05 15:58:46.2870001,1743861526,1478872,world_ned,244.6979555966764,10.482002353149566,0.433647255956245,-0.0006526948865522899,0.00035402307557380716,-0.014538322842501382,0.9998940372989401,0.31898838886253744,0.01904665799072527,0.00024466555997464725,-0.0069873654334593836,0.0007153329387898192,0.00594407192343157,,16.0,0.0,343.00000000000006,343.00000000000006,1.5707963267948966,-3.229,5.336307567702054e-22,0.017453292519943295
2025/04/05 15:58:46.103402654,1743861526,102341968,world_ned,244.73016624767996,10.48290472010285,0.4336519131150073,-0.000951504860548842,0.00034494534374504934,-0.014241665395992548,0.9998980701141286,0.32070461697398445,0.017529975162878308,0.0003310526791678927,-0.004931348034655638,-0.0001589768281768349,0.005920929377499468,,19.0,0.0,344.0,345.00000000000006,1.5707963267948966,-3.229,5.336307567702054e-22,0.017453292519943295
2025/04/05 15:58:46.207802659,1743861526,206256616,world_ned,244.7624939916592,10.483619692253658,0.4336641228637629,-0.0011099039532992702,0.00029746066001778184,-0.013940447953744542,0.9999021669849602,0.32240477993622163,0.015098713637294366,0.00037317625791053344,-0.0015678314015700528,-0.0009408826681932944,0.006054184054860253,,11.0,0.0,347.0,348.0,1.5533430342749532,-3.229,5.336307567702054e-22,0.0
2025/04/05 15:58:46.307847614,1743861526,307077377,world_ned,244.79497570559346,10.484088017712983,0.4336814202751466,-0.0010872943278568362,0.00022086965758559495,-0.01363917151597898,0.9999063666203934,0.32082891799640256,0.01245447140448986,0.00032929780552425547,0.002105848580887235,-0.00042770701212142554,0.005997641384047815,,11.0,0.0,347.0,348.0,1.5707963267948966,-3.229,5.336307567702054e-22,0.0
2025/04/05 15:58:46.411485820,1743861526,408011151,world_ned,244.82753313319313,10.484321745105031,0.43369951295567327,-0.0008908306838593002,0.00014666142387705514,-0.013342033244423176,0.9999105835323597,0.325680905602283,0.01016204760875095,0.00027457945038301555,0.005257797220308356,-0.0012410463381204286,0.00591266371642201,,19.0,0.0,349.99999999999994,351.00000000000006,1.5583430342749531,-3.229,5.336307567702054e-22,0.004999999999999999
2025/04/05 15:58:46.511323836,1743861526,508793140,world_ned,244.86045859978154,10.484415406522437,0.43371382762207544,-0.0005839035256256541,5.63080166524988e-05,-0.01304885098410152,0.9999146880479728,0.3318425283001547,0.009309645848208191,0.0001750479517564381,0.006673018019567447,-0.002050190793968371,0.005838853453514886,,19.0,0.0,349.99999999999994,351.00000000000006,1.5707963267948966,-3.229,5.336307567702415e-22,0.017453292519943295
2025/04/05 15:58:46.611709728,1743861526,610140183,world_ned,244.89358969460477,10.484473440396082,0.43371604861501145,-0.0002445758170658456,-1.4297257609221908e-05,-0.01275218787169705,0.9999186575330731,0.3336169314207764,0.009088503344872292,-3.577432991157443e-05,0.006696337347453952,-0.0014559314975807465,0.005956240933974015,,14.0,0.0,354.99999999999994,356.00000000000006,1.5657963267948967,-3.229,-5.50571415715263e-22,-1.0842021724855045e-21
2025/04/05 15:58:46.702364509,1743861526,700922927,world_ned,244.92682450959455,10.484576337201135,0.43370963844060784,5.550687845147556e-05,-3.1138736532593804e-05,-0.012454001425921405,0.9999224438914494,0.3306447602043276,0.009783653478830178,-0.00013558794413135285,0.005206396776196494,0.0008251491958224443,0.005973666178489509,,14.0,0.0,354.99999999999994,356.00000000000006,1.5533430342749532,-3.229,5.336307567702415e-22,0.0
2025/04/05 15:58:46.803434640,1743861526,801861982,world_ned,244.96040837604806,10.484797093520095,0.43369680039126374,0.00024817557435399796,-2.2331294102068393e-05,-0.01215539958280963,0.9999260893541981,0.34056347134455955,0.011096040389630439,-0.00016809494383586632,0.0025955325196606186,-0.0005125426388859734,0.005971374955918278,,13.000000000000002,0.0,356.00000000000006,356.00000000000006,1.5533430342749532,-3.229,5.336307567702415e-22,0.0
2025/04/05 15:58:46.906926589,1743861526,903147746,world_ned,244.9942266855078,10.485178131013653,0.43368117595083894,0.0002935427802014298,2.2333169854382886e-05,-0.011857992369160686,0.9999296482007315,0.3396071454283816,0.012590972767371278,-0.00012923466570048548,-0.0005044120143142947,0.0010035890608820234,0.0059293761256184775,,10.0,0.0,358.0,358.0,1.5707963267948966,-3.229,5.336307567702415e-22,0.0
2025/04/05 15:58:47.6399150,1743861527,3776824,world_ned,245.02825888195287,10.485691763272017,0.4336654669779023,0.0001951849300691182,9.145035614685871e-05,-0.011568759268601861,0.9999330564336097,0.33727754397006593,0.013442731447212032,-7.29124308525309e-05,-0.003102051997318233,0.0025212019356329624,0.005659920005930533,,7.0,0.0,359.0,359.0,1.5707963267948966,-3.179000000000001,5.336307567702415e-22,0.0
2025/04/05 15:58:47.105852341,1743861527,104762396,world_ned,245.0624649002122,10.486311140059536,0.43365535547341666,-2.308796396650598e-05,0.00017516886213226072,-0.011285921762076977,0.9999362963473203,0.34236860470929226,0.014408196591037967,5.025504131336451e-05,-0.005306993479385952,0.0017278760234347005,0.005678344625054088,,9.0,0.0,360.99999999999994,362.0,1.5707963267948966,-3.229,5.336307567702415e-22,0.0
2025/04/05 15:58:47.207630486,1743861527,205545297,world_ned,245.09684446246473,10.486999403481885,0.43365236091782117,-0.0003177624693829027,0.00025575378393776193,-0.011002662682659103,0.9999393856784053,0.34070723806880615,0.014490665507952647,0.0001766084970216453,-0.006187921036570839,0.0023927288946278542,0.005643856804958341,,10.0,0.0,362.0,362.0,1.5533430342749532,-3.229,5.336307567702415e-22,0.0
2025/04/05 15:58:47.309478898,1743861527,307205667,world_ned,245.13141983795094,10.487660656816434,0.43365666816333703,-0.0006159088332752969,0.000312254486721252,-0.010721816976176784,0.9999422812313589,0.3480716508676644,0.013674838978676591,0.0003094200046825566,-0.0055855134389465825,0.0003216495659166202,0.005593172145676241,,10.0,0.0,365.00000000000006,365.00000000000006,1.5533430342749532,-3.229,5.336307567702415e-22,0.0
2025/04/05 15:58:47.410153312,1743861527,408029735,world_ned,245.16610131970674,10.488208187372656,0.43366829314218874,-0.0008454586620733088,0.00034704159191312894,-0.010444970766108787,0.9999450321630081,0.3491355974399896,0.011992040714917598,0.000399177352641491,-0.00361623487082268,-0.00013417114699744938,0.005489042900495328,,5.0,0.0,368.0,368.99999999999994,1.5533430342749532,-3.229,5.336307567702415e-22,0.0
2025/04/05 15:58:47.511948563,1743861527,509152358,world_ned,245.20101719103243,10.488574164471226,0.4336847976616733,-0.0009521650228134757,0.00033953401589855163,-0.01017349093739767,0.9999477377246113,0.3505965939074949,0.00989003178305712,0.0004178774135914857,-0.0008656776088473635,-0.0006981094820244743,0.005381376893477478,,5.0,0.0,368.0,368.99999999999994,1.5533430342749532,-3.229,5.336307567702415e-22,0.0
2025/04/05 15:58:47.611344567,1743861527,610203325,world_ned,245.23603610743768,10.488745922824581,0.43369991651663264,-0.0009165816763228283,0.0003097680881338034,-0.009906989397703998,0.9999504565141395,0.35551686123472187,0.007842603978830914,0.0003547893659096328,0.0019626932050586542,-0.0021336264363571414,0.005292835497622726,,10.0,0.0,371.0,371.0,1.5657963267948967,-3.229,5.336307567702415e-22,0.0
2025/04/05 15:58:47.702230210,1743861527,701117304,world_ned,245.27121162543813,10.488755067468153,0.4337114107236195,-0.0007550454519328835,0.00026053989361439364,-0.009643329810971877,0.9999531830118279,0.354316318679173,0.006325272276048612,0.0002702763147256099,0.004144457492783669,-0.0015961990104152346,0.005259743859854882,,10.0,0.0,371.0,371.0,1.5533430342749532,-3.229,5.336307567702415e-22,0.0
2025/04/05 15:58:47.803278978,1743861527,801860693,world_ned,245.30659875747813,10.488668490772117,0.43371631628333357,-0.0005141781933366752,0.00019716406254112717,-0.009380039774155987,0.9999558548260784,0.35422381305531825,0.005580270689601605,0.00016705434928170762,0.005214997314759762,-0.0010895734785264354,0.005272631855056011,,13.000000000000002,0.0,373.0,373.0,1.5533430342749532,-3.229,5.336307567702415e-22,0.0
2025/04/05 15:58:47.906762428,1743861527,904369476,world_ned,245.3422358436564,10.488564490881291,0.4337150962214095,-0.00025384856182447435,0.0001312982571785245,-0.009115596668917453,0.9999584112447102,0.3563394578659849,0.005627690809768847,5.2260539605052194e-05,0.005024572516163373,-0.0009080926798698107,0.005303775593559769,,14.0,0.0,375.0,375.0,1.5533430342749532,-3.229,5.336307567702415e-22,0.0
2025/04/05 15:58:48.6603032,1743861528,4728091,world_ned,245.3781301445374,10.488537297980535,0.43370552737782714,-4.255658299978044e-05,7.616280368405588e-05,-0.008851599277614981,0.9999608200216612,0.3584673730797969,0.00673312328167444,-8.076264373061212e-05,0.003407997112135465,-0.0004846687862050963,0.00527381236753461,,19.0,0.0,376.99999999999994,376.99999999999994,1.5533430342749532,-3.229,5.336307567702535e-22,0.017453292519943295
2025/04/05 15:58:48.113022600,1743861528,105494485,world_ned,245.414217035811,10.488662773695369,0.4336892939296719,6.457122272583238e-05,4.893286534638762e-05,-0.00858820925786012,0.9999631173687733,0.3640607907092761,0.008230616125889512,-0.00014028104145029992,0.0010455712484260702,-0.0009317597340562496,0.005263510790506537,,17.0,0.0,380.00000000000006,380.00000000000006,1.5533430342749532,-3.229,5.336307567702535e-22,0.017453292519943295
2025/04/05 15:58:48.208210701,1743861528,207082659,world_ned,245.45049225459314,10.488923619204453,0.4336728378764156,5.9712886706881375e-05,5.118108361610168e-05,-0.0083234591793406,0.9999653563209866,0.36069163897292256,0.009117334715743216,-0.00011293814179038695,-0.0010204098394391964,0.0010997243584024768,0.00528461467839687,,6.0,0.0,383.0,383.0,1.5583430342749531,-3.224,5.336307567702535e-22,0.0
2025/04/05 15:58:48.309698322,1743861528,308635290,world_ned,245.48705976683385,10.489259646508154,0.43365989731059684,-3.715972864802837e-05,6.646305195763141e-05,-0.008066385315260176,0.9999674632855626,0.3643905116644952,0.0094533516935241,-6.699410403216314e-05,-0.002599671164191855,0.0010619607024792957,0.0050116124386625155,,5.0,0.0,384.0,384.0,1.5657963267948967,-3.1740000000000013,5.336307567702535e-22,0.0
2025/04/05 15:58:48.411814435,1743861528,410035134,world_ned,245.52384503505152,10.489620908693423,0.4336535377051379,-0.00019540282174052882,9.929996649554267e-05,-0.007823566583745532,0.9999693714125266,0.37138702194960305,0.009372812236860349,5.530557843041938e-05,-0.003499518827409372,4.8812591895084255e-05,0.004740719455195575,,9.0,0.0,387.0,387.0,1.5533430342749532,-3.134000000000002,-8.470329472498718e-24,-5.421010862427522e-22
2025/04/05 15:58:48.503219417,1743861528,500883510,world_ned,245.56080787696334,10.489998829506314,0.43365808130822575,-0.00038685816250995977,0.00015597633177240195,-0.00758557773893876,0.9999711420948669,0.3693505936525984,0.00950834135703196,0.00022369141272576907,-0.0040123915028752385,0.001540131125259562,0.004796748603438478,,9.0,0.0,387.0,387.0,1.5533430342749532,-3.179000000000001,-8.470329472498718e-24,-5.421010862427522e-22
2025/04/05 15:58:48.603765149,1743861528,602654054,world_ned,245.59800363967517,10.490334385725161,0.43366938402432287,-0.0005657914903926088,0.00021347578646293392,-0.00735371646223958,0.9999727782106226,0.3753605055277969,0.008296904355337332,0.0002904889549025957,-0.0031005240415427388,0.0003050852538925901,0.004482210514413968,,3.0,0.0,387.0,387.0,1.5533430342749532,-3.134000000000002,-8.470329472498718e-24,-5.421010862427522e-22
2025/04/05 15:58:48.709133497,1743861528,706784902,world_ned,245.63527708791915,10.490550843410844,0.4336840070741503,-0.0006829142184644608,0.0002747003488582462,-0.007136471246832738,0.9999742641418486,0.36855439807763724,0.006915876255668496,0.0003642480696515943,-0.0016571134766853889,0.002460353021131779,0.004240154886065968,,7.0,0.0,387.99999999999994,387.99999999999994,1.5707963267948966,-3.084000000000003,5.336307567702535e-22,-5.421010862427522e-22
2025/04/05 15:58:48.808228440,1743861528,807075944,world_ned,245.67285854825712,10.490653105279069,0.43369825328421124,-0.0007241378963706036,0.0003020756836729895,-0.006925455646082594,0.9999757109243617,0.3808024875096593,0.00583317960815855,0.00036059962035091215,-0.0001587490015620608,-0.0008037631470724533,0.004227470714460811,,6.0,0.0,389.99999999999994,389.99999999999994,1.5657963267948967,-3.134000000000002,5.336307567702535e-22,0.0
2025/04/05 15:58:48.913803808,1743861528,908218209,world_ned,245.71051305717486,10.490670487684437,0.43370819436802455,-0.0006917969693047987,0.0003252557196674955,-0.006713223752586064,0.9999771738657427,0.3753404972552897,0.004893581922748892,0.0003193827817586938,0.0012633144093708905,0.0008194952733823488,0.004262615652981884,,4.0,0.0,389.99999999999994,389.99999999999994,1.5533430342749532,-3.184000000000001,5.336307567702535e-22,5.421010862427522e-22
2025/04/05 15:58:49.10468794,1743861529,8995223,world_ned,245.7483924791714,10.490619496775182,0.43371042774171764,-0.0005966987394875042,0.0003185937058060687,-0.006498659497779204,0.9999786547088877,0.3811061619205045,0.0042001660815558315,0.0002189936037971432,0.0023488601601486868,-0.0007647010464805541,0.004315478387449636,,3.0,0.0,392.0,392.0,1.5533430342749532,-3.229,5.336307567702535e-22,-5.421010862427522e-22
2025/04/05 15:58:49.111414656,1743861529,109965218,world_ned,245.7864190042061,10.490518933319814,0.4337028664342108,-0.00045869797231885747,0.0002934616442342278,-0.0062846424484930665,0.9999801031749223,0.3843188380740981,0.003608246112136396,0.00010027142457983074,0.0030096609605474466,-0.0015782773130943505,0.004249916178731239,,8.0,0.0,391.00000000000006,391.00000000000006,1.5533430342749532,-3.229,-8.470329472498718e-24,0.0
2025/04/05 15:58:49.202064429,1743861529,200718932,world_ned,245.82458840649394,10.490404711095595,0.4336894564429016,-0.00030968983897706104,0.00025424050907291835,-0.006072664087111278,0.9999814809309482,0.3788315080875134,0.0036017999793425677,3.236602963964635e-05,0.0028471030925170428,0.00010599236415491735,0.004233249932054375,,8.0,0.0,391.00000000000006,391.00000000000006,1.5533430342749532,-3.229,-8.470329472498718e-24,0.0
2025/04/05 15:58:49.303601765,1743861529,301550497,world_ned,245.86296549110855,10.490337537415213,0.43367317352552676,-0.00019120350661473232,0.00020143940732947243,-0.005865071431005645,0.9999827617516681,0.3872239347754817,0.004250084189543612,-8.138258551622883e-06,0.0018549339006832801,-0.001837654193901936,0.004105680338021306,,11.0,0.0,392.0,392.0,1.5533430342749532,-3.229,-8.470329472498718e-24,0.017453292519943295
2025/04/05 15:58:49.403596847,1743861529,402364038,world_ned,245.90151767976639,10.49037753962212,0.43365965277018026,-0.00013993731096649412,0.00014876419792948467,-0.005660046010803768,0.9999839609543335,0.383556040525177,0.00533132674218531,3.4495373908664936e-06,0.00031799717812350074,-0.00024280273591557395,0.004096352351661127,,14.999999999999998,0.0,392.0,392.0,1.5533430342749532,-3.229,-8.470329472498718e-24,0.017453292519943295
2025/04/05 15:58:49.505750263,1743861529,504436937,world_ned,245.94025110314482,10.49053243684247,0.4336535580597033,-0.00016515087038484731,0.00010405517318544674,-0.005456799171964845,0.9999850925091373,0.39067338289846903,0.006245336172230402,6.740301139658698e-05,-0.001138683011649335,-0.0014898792492848859,0.0040395954194818425,,11.0,0.0,393.0,393.0,1.5533430342749532,-3.229,-8.470329472498718e-24,0.017453292519943295
2025/04/05 15:58:49.608023615,1743861529,607125061,world_ned,245.9791439022772,10.490770249615704,0.433657913825595,-0.00025203929525382987,7.226171937029756e-05,-0.0052506123479074875,0.9999861810667233,0.39069123349504103,0.006674973231499329,0.0001433743161367724,-0.002118416562558565,-0.0008095555305628497,0.004151256353361469,,7.0,0.0,393.0,393.0,1.5533430342749532,-3.229,-8.470329472498718e-24,1.504632769052528e-35
2025/04/05 15:58:49.711463010,1743861529,707940797,world_ned,246.01827813004385,10.491043987528448,0.4336687871886403,-0.0003736160438766731,4.7631252376390096e-05,-0.005043028510914285,0.9999872129211221,0.3917954152956028,0.006752737317982479,0.00016016759161552183,-0.0025796954155497685,-0.00025408259342893857,0.004146681549709424,,4.0,0.0,394.0,394.0,1.5533430342749532,-3.229,-8.470329472498718e-24,1.504632769052528e-35
2025/04/05 15:58:49.804010907,1743861529,802525306,world_ned,246.05749631327012,10.491310244149926,0.433683303805915,-0.0004973295410548932,5.600206169319335e-05,-0.004837546669483362,0.9999881737647287,0.3979183817327126,0.00628504004449283,0.00021282079972706198,-0.002285815064356119,-0.0010459727182767556,0.004078495753257475,,4.0,0.0,394.0,394.0,1.5533430342749532,-3.229,-8.470329472498718e-24,-5.421010862427372e-22
2025/04/05 15:58:49.905047689,1743861529,903868185,world_ned,246.09693693428488,10.491532378925504,0.4336992506531893,-0.0005931394558587945,7.861413895146049e-05,-0.004634466100805218,0.9999890818050783,0.3998700060432034,0.0056336572596905185,0.0002081184196713254,-0.0015478857579554505,-0.0007279639436141744,0.004046929809988112,,7.0,0.0,395.0,395.0,1.5533430342749532,-3.229,-8.470329472498624e-24,1.504632769052528e-35
2025/04/05 15:58:50.6092814,1743861530,5133616,world_ned,246.1364627831896,10.491693352773341,0.43371139881408577,-0.0006415120958049779,0.0001289958958649213,-0.004432991757417217,0.999989960152785,0.39698824280613276,0.004794574068533442,0.0002045494025365834,-0.0004555643714811779,0.000843758227662226,0.004017422589024024,,7.0,0.0,396.0,396.0,1.5533430342749532,-3.229,-8.470329472498624e-24,1.504632769052528e-35
2025/04/05 15:58:50.109163743,1743861530,106777825,world_ned,246.1762826817872,10.491779998532493,0.4337159984376228,-0.0006317983151677984,0.000169946341618051,-0.0042332783798610125,0.9999908256095595,0.39886911576057005,0.003942821574338997,0.00013314183665869085,0.0006860958170842657,0.0008239227729994087,0.003980298363420108,,6.0,0.0,396.0,396.0,1.5533430342749532,-3.229,5.336307567702536e-22,1.504632769052528e-35
2025/04/05 15:58:50.209409389,1743861530,207876381,world_ned,246.21616422828572,10.491810735401108,0.4337106620479446,-0.0005715113176633757,0.00022272637118567616,-0.004033953096418556,0.9999916754604476,0.401235497412225,0.003344745349662261,8.892263982468987e-05,0.0015733701146056329,0.0005120299082753082,0.00399275329761954,,10.0,0.0,397.0,397.0,1.5533430342749532,-3.229,-8.470329472498624e-24,5.421010862427673e-22
2025/04/05 15:58:50.309889171,1743861530,308728081,world_ned,246.25619524545687,10.491806127005777,0.4336978342527943,-0.0004762118052513581,0.00026523488750481366,-0.0038347589343314956,0.9999924987202087,0.4031291681941811,0.0029191139330812924,5.6406350055655065e-05,0.0021139418694171024,0.00010615790509858428,0.003973612035693424,,8.0,0.0,397.0,397.0,1.5533430342749532,-3.229,-8.470329472498624e-24,5.421010862427673e-22
2025/04/05 15:58:50.411603678,1743861530,409438093,world_ned,246.29632101467624,10.491781397319182,0.4336803565516848,-0.0003640562019015271,0.00029720549442570116,-0.00363815954884837,0.9999932714408998,0.3986691279807993,0.0026619957584114603,6.192341130116597e-05,0.0022501146724306217,0.0013552839159750242,0.0039041869305647806,,6.0,0.0,398.0,398.0,1.5533430342749532,-3.229,-8.470329472498624e-24,1.504632769052528e-35
2025/04/05 15:58:50.502131501,1743861530,500764911,world_ned,246.3366778611829,10.491769438722807,0.43366428365360726,-0.00026237595584370114,0.0002926912054824127,-0.0034437373091457785,0.9999939930639892,0.40618094939842264,0.002832743840803122,9.560332141592229e-05,0.0017779990705277346,-0.0008809331164277773,0.0038747295090474925,,6.0,0.0,399.0,399.0,1.5533430342749532,-3.229,-8.470329472498624e-24,1.504632769052528e-35
2025/04/05 15:58:50.603558577,1743861530,601532010,world_ned,246.37708831435694,10.491803353207954,0.4336538066541938,-0.00019591206854217965,0.00027567224413189165,-0.0032507810120804962,0.9999946590087803,0.40852505171209685,0.003227421387125017,0.0001473802727044306,0.0009179745884078346,-0.0016162166765128403,0.003848571988882503,,6.0,0.0,399.0,399.0,1.5533430342749532,-3.229,-8.470329472498624e-24,1.504632769052528e-35
2025/04/05 15:58:50.704340241,1743861530,702279530,world_ned,246.4175695278299,10.491896309199426,0.4336504287602035,-0.00017874772110556224,0.0002450021860600494,-0.003059746562147772,0.9999952729759058,0.40496767529090694,0.0036748333377019772,0.000211978673637016,-0.0001214016542663056,-0.0006555075123237786,0.0037969820718712502,,4.0,0.0,400.0,400.0,1.5533430342749532,-3.229,-8.470329472498624e-24,1.504632769052528e-35
2025/04/05 15:58:50.809240893,1743861530,804542386,world_ned,246.45820857852183,10.49201643592592,0.43365619024344915,-0.0002021051803848115,0.00019396502994066607,-0.002877619400771889,0.9999958204100893,0.40895463273417565,0.0035014075234445874,0.00025635806565654106,-0.0006949211752617391,-0.0016712790347046074,0.0035031696191231603,,0.0,2.0,400.99999999999994,400.99999999999994,1.5983430342749523,-3.184000000000001,-5.5057141571525085e-22,1.504632769052528e-35
2025/04/05 15:58:50.908474101,1743861530,906348612,world_ned,246.49891015490434,10.492161427258987,0.43367001046923714,-0.0002607087242369903,0.00014752000748802596,-0.002703018784921777,0.9999963019722907,0.40625416741623177,0.00390953759587973,0.0002818216861270839,-0.0015406692610785311,-0.0005214223292376025,0.0035082659957273383,,2.0,0.0,400.0,400.0,1.5533430342749532,-3.229,-8.470329472498624e-24,1.504632769052528e-35
2025/04/05 15:58:51.10341321,1743861531,9137711,world_ned,246.5398139383303,10.492319996041333,0.433686902389921,-0.00034345528511253503,9.448280385868847e-05,-0.0025348663747303915,0.9999967237765978,0.4054243876512807,0.003472282460622031,0.0002589684505680962,-0.0016428811217241192,0.0001728270753044347,0.003217542431382906,,0.0,1.0,402.0,402.0,1.5933430342749524,-3.189000000000001,-8.470329472498624e-24,1.504632769052528e-35
2025/04/05 15:58:51.111068009,1743861531,109993951,world_ned,246.5808493000502,10.492461254419549,0.433704043502128,-0.00042792112809628076,5.5366621442132086e-05,-0.0023747328696489345,0.9999970872266795,0.41541435130447174,0.003386141750235547,0.0001948298551350894,-0.0016965580982609462,-0.0018559841701645105,0.0032073377766041336,,5.0,0.0,402.0,402.0,1.5533430342749532,-3.229,5.336307567702536e-22,1.504632769052528e-35
2025/04/05 15:58:51.205874497,1743861531,202136076,world_ned,246.62196879599034,10.492596788671568,0.4337151879475828,-0.0005062759802403205,4.483344853692374e-05,-0.002215014325303576,0.999997417689732,0.4147035523265836,0.0030724809684020095,0.00011749147050129646,-0.0013919249171389602,-0.000815844299043879,0.0031829263986194282,,5.0,0.0,402.0,402.0,1.5533430342749532,-3.229,-8.470329472498624e-24,1.504632769052528e-35
2025/04/05 15:58:51.304670346,1743861531,303592091,world_ned,246.66325243562142,10.4927019174378,0.43371904258753985,-0.0005593127617551948,5.479544824973742e-05,-0.00205667246363645,0.9999977271299524,0.4109402953095829,0.0025737539637636655,5.7684564618900826e-05,-0.000756550831407651,0.001111587832811319,0.0031540320690085603,,5.0,0.0,402.0,402.0,1.5533430342749532,-3.229,-8.470329472498624e-24,1.504632769052528e-35
2025/04/05 15:58:51.406623304,1743861531,405176286,world_ned,246.70476379797896,10.492761890261729,0.43371584425813015,-0.0005745731220370911,7.417034596202181e-05,-0.0018999408656668432,0.9999980272926513,0.41727276361718085,0.0019615652627985405,-1.2060826618508048e-05,6.319270257053093e-05,0.00011374058237442328,0.0031191459352622607,,4.0,0.0,402.0,402.99999999999994,1.5533430342749532,-3.229,-8.470329472498624e-24,1.504632769052528e-35
2025/04/05 15:58:51.507657668,1743861531,506309015,world_ned,246.74629360299832,10.49278127407283,0.43370595072116314,-0.0005513913609721092,0.0001262026972874777,-0.0017440095101509284,0.9999983192342249,0.4197635471036372,0.0014971220777673822,-1.3495621635075574e-05,0.0007740647044347737,5.505173820866991e-05,0.003119562981780241,,7.0,0.0,402.99999999999994,402.99999999999994,1.5533430342749532,-3.229,-8.470329472498624e-24,1.504632769052528e-35
2025/04/05 15:58:51.611973169,1743861531,609741211,world_ned,246.78799745916044,10.492771599999767,0.433691331253364,-0.0004971984033970525,0.00017935833771777748,-0.0015884314968660684,0.9999985987538753,0.4148872740915625,0.0011317753950825986,1.7539010025482407e-07,0.0012986650788287593,0.001835176033944987,0.0031035265441247107,,3.0,0.0,404.0,404.0,1.5533430342749532,-3.229,-8.470329472498624e-24,1.504632769052528e-35
2025/04/05 15:58:51.703554558,1743861531,700758739,world_ned,246.82986158253345,10.49274189283166,0.43367640760887405,-0.0004224966656019676,0.0002249577458549196,-0.0014346393863563442,0.9999988563495517,0.42089186082924734,0.0008622739456840443,3.957049585295665e-05,0.0015878433333980431,0.00034684941667058284,0.0030547889483592376,,3.0,0.0,404.0,404.0,1.5533430342749532,-3.229,-8.470329472498624e-24,1.504632769052528e-35
2025/04/05 15:58:51.802729528,1743861531,801634018,world_ned,246.87174903955042,10.4927198183221,0.43366462194738015,-0.000347272796952453,0.0002710637529342982,-0.001281674950630963,0.9999990816172619,0.4187196658293196,0.0009898872095173306,0.0001258642166669848,0.001365488339238503,0.0009275374294606095,0.003064545531520763,,7.0,0.0,405.0,405.0,1.5533430342749532,-3.229,-8.470329472498624e-24,1.504632769052528e-35
2025/04/05 15:58:51.904667378,1743861531,903267456,world_ned,246.91375995461723,10.49272666544505,0.4336562590385634,-0.00029034568016014626,0.0002928455316789207,-0.0011298346559393331,0.9999992767070038,0.42142174702082996,0.0011696936193839097,0.00018430234763097122,0.000907661580334092,-3.918539987773178e-05,0.0030165138722684803,,3.0,0.0,406.0,406.0,1.5533430342749532,-3.229,-5.5057141571525085e-22,1.504632769052528e-35
2025/04/05 15:58:52.7449685,1743861532,5977925,world_ned,246.95579416794922,10.492746654026696,0.4336546012283504,-0.00025450949028828435,0.00029557911446868716,-0.0009857436386744316,0.9999994380835348,0.4194195747435172,0.0009903668746309823,0.0002712594659057772,0.0005473737590473924,0.00011565982885961653,0.002748502027497874,,0.0,1.0,405.0,405.0,1.5983430342749523,-3.184000000000001,-8.470329472498624e-24,1.504632769052528e-35
2025/04/05 15:58:52.109995326,1743861532,107508710,world_ned,246.9979393811522,10.492794268455413,0.433662128488684,-0.00025036465956599426,0.00026646071390361856,-0.0008485741529925599,0.9999995731189749,0.42167536352175494,0.001488226934530987,0.00033307753935499056,-0.0003158046346174638,-0.0007175842691170068,0.0027610085038585197,,1.0,0.0,407.00000000000006,407.00000000000006,1.5533430342749532,-3.229,-8.470329472498624e-24,1.504632769052528e-35
2025/04/05 15:58:52.211276498,1743861532,208500431,world_ned,247.0401248399958,10.492892488419574,0.4336755130630554,-0.0002845441044617001,0.00022548632072723015,-0.0007119980237879972,0.999999680624642,0.42198663819772114,0.0017230712945437232,0.0003418574436580288,-0.0009525556976172331,-0.0008834482970395366,0.0027003919693833443,,1.0,0.0,406.0,406.0,1.5533430342749532,-3.229,-8.470329472498624e-24,1.504632769052528e-35
2025/04/05 15:58:52.310709363,1743861532,309241501,world_ned,247.08242596716914,10.49301837874644,0.4336913977898811,-0.00034523333003641624,0.00016793403906305594,-0.0005785092839752592,0.9999997589695283,0.41972627670750173,0.0018306592713262678,0.0003000149125124663,-0.0013773461120802936,-0.00016816999587843882,0.0026439126478703962,,1.0,0.0,408.0,408.0,1.5533430342749532,-3.229,-8.470329472498624e-24,1.504632769052528e-35
2025/04/05 15:58:52.411342948,1743861532,410213104,world_ned,247.12478769278988,10.493154872428821,0.4337052883555843,-0.0004178373546409422,0.00011408358381747146,-0.00044786348440972225,0.9999998059075713,0.4247260377392133,0.0017274429884673842,0.00021695127367145887,-0.001454256899889369,-0.0012049341730408307,0.0025847941991888244,,0.0,0.0,407.00000000000006,407.00000000000006,1.5533430342749532,-3.229,-8.470329472498624e-24,1.504632769052528e-35
2025/04/05 15:58:52.502364739,1743861532,501035573,world_ned,247.16733091798156,10.493279107191686,0.4337143678807721,-0.00048429900341642924,5.840268649252398e-05,-0.00032057932698049,0.9999998296362338,0.42814496436618976,0.0014008116192679866,0.00011230240226033905,-0.0011761866648074568,-0.001607484878414927,0.0025134199007812814,,0.0,0.0,407.00000000000006,407.00000000000006,1.5533430342749532,-3.229,-5.5057141571525085e-22,1.504632769052528e-35
2025/04/05 15:58:52.604078214,1743861532,601976332,world_ned,247.20987204623393,10.493374853676672,0.43371606099886567,-0.0005298259503019203,3.5948883167390344e-05,-0.00019634932322536538,0.9999998397195289,0.424676776755739,0.0009652550722512304,1.123578224208846e-05,-0.0006573164321085256,9.993765899313877e-05,0.002460740585224657,,1.0,0.0,407.00000000000006,407.00000000000006,1.5533430342749532,-3.229,-8.470329472498624e-24,1.504632769052528e-35
2025/04/05 15:58:52.706318904,1743861532,702889496,world_ned,247.25265814597753,10.493411450427983,0.43370986826206864,-0.0005380891463156468,1.4832128223222578e-05,-7.940950326477177e-05,0.9999998519670937,0.4256244870592936,4.562492669023283e-05,-7.734362972485648e-05,0.00025733628853311487,0.0005003271204885363,0.0022163770762783784,,0.0,5.0,408.0,408.0,1.5983430342749523,-3.184000000000001,-8.470329472498624e-24,-2.7105054312136107e-22
2025/04/05 15:58:52.808848588,1743861532,805661967,world_ned,247.295390840787,10.49340615382664,0.43369712462757026,-0.0005136980599494677,3.985633975414343e-05,3.2979259073324355e-05,0.999999866719063,0.4313989390075912,-3.748255275289457e-05,-0.00011110330371396455,0.0006149511102789513,-0.0002659093179105161,0.002298710669006654,,5.0,0.0,408.0,408.0,1.5533430342749532,-3.229,-8.470329472498624e-24,1.504632769052528e-35
2025/04/05 15:58:52.907199832,1743861532,905471189,world_ned,247.3383369088865,10.493399160696386,0.43368221002546303,-0.00047370262103801317,7.425547029844941e-05,0.00014760615313930573,0.9999998741521798,0.42652033888644303,-0.00025540551766724143,-8.315631082668985e-05,0.0009505232692957875,0.0018395881676114018,0.002281582821868232,,3.0,0.0,410.00000000000006,410.00000000000006,1.5533430342749532,-3.229,-8.470329472498624e-24,1.504632769052528e-35
2025/04/05 15:58:53.8626334,1743861533,7199409,world_ned,247.38140248372633,10.493356352018974,0.43366620260387406,-0.0004119065219873345,0.00012081648363765658,0.0002546874094753266,0.9999998754353512,0.43227926342767753,-0.0008994583570166568,-5.502931575448815e-05,0.00144673512530901,0.0006332899065408079,0.0020090282656486575,,0.0,0.0,409.0,409.0,1.6033430342749522,-3.179000000000001,-8.470329472498624e-24,1.504632769052528e-35
2025/04/05 15:58:53.113461122,1743861533,110411816,world_ned,247.4244539957314,10.493268421769192,0.4336553105290517,-0.0003341968525520125,0.00018367604099914887,0.0003474114525716344,0.9999998669404203,0.4315664102401131,-0.0013160000896995999,8.02730562147443e-05,0.0015843349411735577,0.0010036771155988208,0.0017196313132530265,,0.0,0.0,409.0,409.0,1.6483430342749512,-3.134000000000002,-8.470329472498624e-24,-2.7105054312136107e-22
2025/04/05 15:58:53.212329221,1743861533,209643038,world_ned,247.46757957055618,10.493158193851578,0.4336532568765161,-0.0002598467798036169,0.00023737204713373405,0.00042521396373582375,0.999999847663612,0.4326858727794838,-0.001503945614512132,0.0002128831084574786,0.0013423142572943712,0.0006031407879908225,0.001419137048659513,,0.0,0.0,409.0,409.0,1.70334303427495,-3.0790000000000033,-8.470329472498624e-24,1.504632769052528e-35
2025/04/05 15:58:53.309525415,1743861533,301756194,world_ned,247.5107254804956,10.493050578216442,0.433658578308769,-0.00020753191918278309,0.00028099191442371515,0.000489290457270603,0.9999998192844312,0.4305263046626889,-0.00141281445829414,0.0003365387317976228,0.0007555018553424633,0.0010491782494959868,0.0011769737580740484,,0.0,0.0,411.00000000000006,411.00000000000006,1.753343034274949,-3.0290000000000044,-8.470329472498624e-24,1.355252715607031e-22
