time,header_stamp_secs,header_stamp_nsecs,header_frame_id,child_frame_id,pose_position_x,pose_position_y,pose_position_z,pose_orientation_x,pose_orientation_y,pose_orientation_z,pose_orientation_w,twist_linear_x,twist_linear_y,twist_linear_z,twist_angular_x,twist_angular_y,twist_angular_z,gps_status
2025/05/06 15:20:05.947716727,1746537605,911856557,piren,vessel_center,-475.2037617974988,-325.2391343058503,2.331561105336005,0.0003149464390725422,0.0008492538818438465,-0.9945499740721446,0.10425703165581342,5.526975792431919e-06,-0.0001599774368057096,6.604235075271947e-05,2.1923283717962742e-05,3.6608450936547757e-06,2.3514043126426995e-08,0
2025/05/06 15:20:06.979958900,1746537606,945742044,piren,vessel_center,-475.203756805708,-325.23925000512867,2.3316080671342925,0.00031924049356847937,0.0008128781088322484,-0.9945500034510767,0.10425702830097684,5.651123729162797e-06,-6.748269797724602e-05,2.5183056959003702e-05,-2.5393926708664744e-05,-6.319475985891524e-06,1.886557788319602e-08,0
2025/05/06 15:20:08.107006596,1746537607,942371332,piren,vessel_center,-475.2037627973169,-325.239205642132,2.3315865535396147,0.0003174230668997938,0.0008299343523085561,-0.9945499896111546,0.1042570314943783,-1.8964191030849752e-05,0.00016604098073032402,-7.298252852003381e-05,2.5456271490905107e-05,-5.48179819151329e-08,8.770507127616852e-09,0
2025/05/06 15:20:08.934840351,1746537608,920104540,piren,vessel_center,-475.20378898476184,-325.23899361225034,2.3315024902818076,-1.9738313814804823e-05,0.0008100072400893014,-0.9945503478130394,0.10425425249663631,-1.5999730976349956e-05,0.00010173682489978275,-2.4418189425508193e-05,2.0568558440029554e-05,0.0006746851750767684,-1.2330921856769617e-06,0
2025/05/06 15:20:09.449566849,1746537609,440502316,piren,vessel_center,-475.2033352073975,-325.23874667507414,2.331517817993449,8.089433681758709e-05,0.0007875058837372297,-0.9945499935794062,0.10425777458680273,0.0011275688258594666,0.0006013121480921854,4.074410073342951e-05,-2.151293736651022e-05,-0.0001071324728330928,4.892984957600418e-06,0
2025/05/06 15:20:09.917730593,1746537609,899909234,piren,vessel_center,-475.20300998466604,-325.237296051592,2.3315286800778665,0.00012098684122531611,0.0008249525482475465,-0.9945492169866978,0.10426485412939289,0.0004633863055462054,0.003086546352188017,1.4766321551600088e-05,7.12856519529754e-07,-0.0004644067460876627,1.0692282410030635e-05,0
2025/05/06 15:20:10.454965950,1746537610,446632171,piren,vessel_center,-475.2033157112419,-325.23412350939566,2.3315508685516684,0.00021509123890445372,0.0008054647707396903,-0.9945480219407246,0.10427625336601881,-0.0009331392888723574,0.005362678237179645,4.1238675549019963e-05,1.5252099399410313e-06,0.00021814748672731717,1.7180580493622522e-05,0
2025/05/06 15:20:10.994449359,1746537610,969119115,piren,vessel_center,-475.2046378088465,-325.2296720890118,2.3315538362602157,0.0003238079819085935,0.000821271493440641,-0.9945474026365717,0.1042817556928052,-0.0026271061599798346,0.00810457085763148,-7.1588363861298845e-06,-2.168801106114003e-05,-0.0007986091478678862,1.9126982062409675e-05,0
2025/05/06 15:20:11.416687220,1746537611,410636617,piren,vessel_center,-475.2065166692702,-325.22510303986485,2.3315402876000078,0.00036215051623355454,-0.0008731102989808835,-0.994546721976528,0.10428769980756082,-0.0035547727415630873,0.008238169171363843,-2.842509623079545e-05,0.0011312383945936704,0.0009144789987234984,2.0994810670331956e-05,0
2025/05/06 15:20:11.871238316,1746537611,859569337,piren,vessel_center,-475.2096014891841,-325.2191218448712,2.330340856000236,7.558635091566417e-05,0.00233055131896565,-0.9945426584437098,0.10430466601725699,-0.006539266886966092,0.012556011598053664,-0.0026663608461783683,-0.0009822426612053976,-0.00037507267951814,4.683105850190903e-05,0
2025/05/06 15:20:12.303059292,1746537612,288149342,piren,vessel_center,-475.21314856050753,-325.21966358003505,2.331226654397032,-0.0030719626577785358,0.03152304654310837,-0.9940435302077395,0.10428001071252871,-0.009281519406704122,0.00147933267176115,0.0013989910787676457,-0.0010061954691990998,-0.0007498252418541219,5.775653377117245e-05,0
2025/05/06 15:20:12.765826809,1746537612,759696313,piren,vessel_center,-475.2101676804656,-325.2706078868596,2.3517704339181953,0.00018837008784883746,0.001812879879743949,-0.994539783044087,0.10434221545411128,0.007709874437387238,-0.11340442602458976,0.04549827059065464,0.00014536828657933483,0.000439818779790238,3.4464934003793124e-05,0
2025/05/06 15:20:13.200492121,1746537613,192790248,piren,vessel_center,-475.2173420077846,-325.2864380499537,2.358267438977452,-0.0029207554926444558,0.032082563748109555,-0.9940273145611922,0.10426828950819764,-0.01603180415886507,-0.03520801519580316,0.014451382008329856,0.0004764275399993157,2.3757744162826704e-05,-1.0828820093732849e-05,0
2025/05/06 15:20:13.625522551,1746537613,618502785,piren,vessel_center,-475.22301274803283,-325.3242167408307,2.373051120246063,0.0005837839877896405,0.00026572210626884835,-0.9945479890891928,0.1042779266511415,-0.01271832608654202,-0.08436482042902724,0.03301735420164796,-0.0009680721177762946,-0.000999758153775744,-6.104511573710349e-05,0
2025/05/06 15:20:14.44519058,1746537614,40009220,piren,vessel_center,-475.24187300020935,-325.30673443427673,2.36609312507819,0.0012684183281936197,-0.007057683053679642,-0.9945238109082672,0.10426394276717037,-0.04340642809966064,0.028992289574262323,-0.011604473815647005,0.0006294595551098533,0.00040539538382875173,-2.9456992424218583e-05,0
2025/05/06 15:20:14.466065337,1746537614,462151423,piren,vessel_center,-475.27158163193116,-325.25441035617655,2.3446124557326895,0.003670907137428809,-0.028745391075875436,-0.9941304158340127,0.104235038477358,-0.06547681622314465,0.11592743018927677,-0.04759564138817949,-5.8192011304813295e-05,0.0004299853842879584,2.1846894932396487e-05,0
2025/05/06 15:20:14.888782047,1746537614,882670275,piren,vessel_center,-475.3084125637288,-325.16528964506625,2.3055173053695617,0.0006884723333602318,-0.0013728202317117653,-0.9945413721622518,0.10433168467959682,-0.08953138251658836,0.21165748910957544,-0.0924670481623748,-9.357821205435548e-05,-0.0009068745808919129,8.721428708585778e-05,0
2025/05/06 15:20:15.312622035,1746537615,304032869,piren,vessel_center,-475.33600327362905,-325.12887983230036,2.2895617489115816,0.0005700816277826739,-0.0006121377391878587,-0.9945375977688421,0.10437560499708227,-0.07097533590781475,0.10374742012022606,-0.04543350903262342,-0.0004237938727894057,0.0004373926561858562,0.00013977542362637592,0
2025/05/06 15:20:15.779937631,1746537615,773120026,piren,vessel_center,-475.36239218003885,-325.1303494835077,2.2890403853973513,0.0022388452326406903,-0.02564096307364189,-0.9941922413721204,0.10449552995300743,-0.050548040529656446,-0.015350923503728797,0.004126360369968801,-0.002622392985465449,0.005483713913681347,0.00017415920331900387,0
2025/05/06 15:20:16.215439312,1746537616,196564923,piren,vessel_center,-475.38343901103843,-325.1284603254228,2.2856874097060027,-0.0007830358903488632,0.005958343157431196,-0.9944747499620402,0.10480389634717978,-0.051771288535564765,0.002686837155215737,-0.0070473353830097715,-0.003064183715767901,0.00014909668073468445,0.000915944563545743,0
2025/05/06 15:20:16.626496294,1746537616,619431919,piren,vessel_center,-475.3938073821907,-325.17162222931034,2.303779155513116,-0.00018350169266080098,0.006081354599632826,-0.9943144148911232,0.10631005499521591,-0.023456642755490777,-0.0959148613899285,0.04015669327812482,-0.002187805699809016,-0.001151444522045154,0.0040202361900034895,0
2025/05/06 15:20:17.49512325,1746537617,45334901,piren,vessel_center,-475.3954878013682,-325.2223951110208,2.32761106169931,-0.0011410151429047696,0.032270419632995144,-0.9934515621083695,0.10959613061415348,-0.006504546756877776,-0.12417049850387202,0.05770912316125966,0.001909268093320197,0.0012820983849450125,0.008775490905851918,0
2025/05/06 15:20:17.471952763,1746537617,465065856,piren,vessel_center,-475.3891597503262,-325.30853468062605,2.3658874607091414,0.0010267874328470951,-0.0013668838260643067,-0.993717436079301,0.1119050247672295,0.014047323812656227,-0.1917670526062008,0.08521886843887373,0.0019415389546414696,-0.0009670478750001369,0.007202557552315513,0
2025/05/06 15:20:17.889714353,1746537617,886039622,piren,vessel_center,-475.3932591583159,-325.3189216125841,2.3742001585870574,0.0011724767656229387,-0.003945037026632588,-0.9935947445114519,0.112927169717102,-0.007811235884127913,-0.040826469149942285,0.026359002837822637,-0.000495629985676791,-0.0013127347389115523,0.007988563135099314,0
2025/05/06 15:20:18.315986318,1746537618,310304738,piren,vessel_center,-475.40622449237003,-325.2785570503628,2.3620656228671213,-0.00021270771215598733,0.00798635673597499,-0.993396132404857,0.1144565287984342,-0.02978427092493783,0.08464214904870487,-0.0236974407307516,-8.72654195827963e-05,-0.0012237777099563091,0.008188851718399854,0
2025/05/06 15:20:18.740974974,1746537618,732812021,piren,vessel_center,-475.42077147627754,-325.2348654100926,2.349108024093051,-0.0016087894514373992,0.02948856286715574,-0.9926934988164454,0.11699339239501849,-0.032023086817980384,0.09623088750472589,-0.028553728418980233,0.0007705266696419877,0.00034606760956117495,0.007958479477244328,0
2025/05/06 15:20:19.215678606,1746537619,204332470,piren,vessel_center,-475.42831422775384,-325.2380514540189,2.3533028799423454,-0.005227367425788421,-0.014010856200870966,-0.9928858712749741,0.11812712288399325,-0.017072897949401325,-0.006154432331504436,0.00904844287799677,-0.0013928553026326096,0.00010629174905777664,0.0074726405664936,0
2025/05/06 15:20:19.644419026,1746537619,639084332,piren,vessel_center,-475.43514375401355,-325.1930007374873,2.337839660310638,0.00011793461309720202,0.002875517352640841,-0.9927735262589665,0.11996850857920516,-0.015019993514942856,0.10018861674361715,-0.03445357391506276,-0.00029620540900012865,-0.0012032783603554361,0.007521342036835402,0
2025/05/06 15:20:20.74099095,1746537620,68406390,piren,vessel_center,-475.4488797636333,-325.1607438841754,2.327159199816735,-0.0030069237153619657,0.03101248639185037,-0.9922508339906507,0.12028078209931703,-0.03065515742982805,0.07252443144620911,-0.02402389071405138,0.0009307398671816016,-0.0002892762036388878,0.005288426206931755,0
2025/05/06 15:20:20.510775762,1746537620,505653396,piren,vessel_center,-475.45295184394064,-325.19495968721407,2.342244002012546,0.0014104305528108826,-0.00423563878011537,-0.9926627336484748,0.12083363470208691,-0.012580478212112015,-0.06793372271413291,0.030859839984793573,0.00014445515431413895,0.0007271531564942657,0.006073020103647701,0
2025/05/06 15:20:20.941420434,1746537620,937438105,piren,vessel_center,-475.47011910856037,-325.19516620745696,2.3437280135740544,-0.0023935380424239643,0.030533234044451595,-0.9920175178364254,0.12232431033970134,-0.03799995087510959,0.00037474535374740214,0.0029194875818516486,0.0008109800938286351,-0.0006713744395615952,0.00485050867785642,0
2025/05/06 15:20:21.393511789,1746537621,364193395,piren,vessel_center,-475.47977231582695,-325.23248096462015,2.3594258125747336,-0.001496490601119129,0.02659378050116351,-0.9920949168263906,0.122630368839753,-0.025690283059293304,-0.08289243643062008,0.03521467187366071,-0.002223338298200052,0.002417428986771668,0.004527756585422685,0
2025/05/06 15:20:21.798296280,1746537621,788965691,piren,vessel_center,-475.4910837111314,-325.2724458933466,2.37638682271864,-0.0015487478050542802,0.02869941819526014,-0.991847947286374,0.12414344219207149,-0.025254486504763717,-0.08919273136571036,0.03785331799568802,0.00041213909549394593,-0.001131567217137433,0.005840206132618127,0
2025/05/06 15:20:22.239379868,1746537622,219522235,piren,vessel_center,-475.50014870136624,-325.30116743457506,2.389374976238229,-0.001938219963033825,0.027678377731900267,-0.9915752089182485,0.12652571188591308,-0.020012771054189013,-0.0633553374240816,0.02866426119384628,0.0043591310962525906,0.00212713743966726,0.008787046559149376,0
2025/05/06 15:20:22.696008297,1746537622,687281820,piren,vessel_center,-475.5074449612666,-325.3075838982351,2.3943092829082033,0.0017281079104232747,-0.005719886572245284,-0.9915192522896771,0.12982245136943898,-0.016440510013535255,-0.014970014748723497,0.011287650381546194,-0.0015785352610147073,-0.002456746054388815,0.010843077801888765,0
2025/05/06 15:20:23.117866281,1746537623,111719802,piren,vessel_center,-475.52953531402744,-325.2392740558352,2.369881335865077,0.002518686197023316,-0.005335794421391461,-0.9914113101599089,0.130647616146436,-0.0507757514309558,0.15029124348379835,-0.05313873561580443,-0.000821236436054327,-0.00327506631902609,0.007831287647056954,0
2025/05/06 15:20:23.542771115,1746537623,537084479,piren,vessel_center,-475.5571235081875,-325.1475822638403,2.336304563074335,0.0043465520996699,-0.027039570746766113,-0.9908906421972592,0.1318548607544628,-0.061588960518110775,0.20459746181468316,-0.07491173659170214,0.0020142176309016786,0.004343172611275834,0.0065720305830578455,0
2025/05/06 15:20:23.966877363,1746537623,961233514,piren,vessel_center,-475.58754272032667,-325.0382415314989,2.292188809474319,0.001239783499816786,0.0008054482562307112,-0.9913412921528086,0.13130215787556507,-0.0681523886823468,0.2448236534513401,-0.09871194227724323,-0.001208348248121046,-0.0008552262961345867,0.003068021731932404,0
2025/05/06 15:20:24.402693312,1746537624,387560289,piren,vessel_center,-475.5989953526586,-325.0057662551237,2.280610046205178,0.00448999537299976,-0.021801849351283827,-0.9912308797116064,0.13025307064545316,-0.032151095383460206,0.09623479695615086,-0.03543385708171541,-0.0027557707541652023,-0.005465538265759998,0.0014634535379513425,0
2025/05/06 15:20:24.835864858,1746537624,818895858,piren,vessel_center,-475.60951240788773,-324.98477647225184,2.271836124369885,-0.00235129663512255,0.01712875932130415,-0.991356986194756,0.1300476948319227,-0.02356930572746002,0.04723285399413752,-0.019714831796433283,0.00276244727482586,0.008061848288925796,0.000999583452067271,0
2025/05/06 15:20:25.269495328,1746537625,257932388,piren,vessel_center,-475.59366732678734,-325.05221186702016,2.2993770455736495,0.0005164748043881626,-0.00047838969736450676,-0.9915911277302868,0.12940842246025575,0.03250970093181443,-0.14446224173498168,0.05895019385129614,0.002068577906837338,0.0007070508177100088,-0.0010783817851943676,0
2025/05/06 15:20:25.714209445,1746537625,692063447,piren,vessel_center,-475.58108535105185,-325.11776432844107,2.3270091515969704,-0.0006198486011253614,-0.001506877637217405,-0.99177498511685,0.12798329580054676,0.027936151681615434,-0.14556884325129404,0.06136275292518874,-0.0024504579864354807,-0.004821331094136751,-0.0029340980078525355,0
2025/05/06 15:20:26.180919130,1746537626,175435946,piren,vessel_center,-475.5779018831034,-325.1628478694868,2.346807839080099,-0.0034918257696087756,0.026213150086363428,-0.9917785031332307,0.1252041478472373,0.003835335564645201,-0.08331501614043164,0.036885678765413266,0.0018171493769407953,0.0048658146251826205,-0.005977506809277208,0
2025/05/06 15:20:26.605897967,1746537626,601275553,piren,vessel_center,-475.57720955382723,-325.2123493554792,2.367742096928274,-0.00087553991493335,-0.0008922597290537081,-0.9923915643761869,0.1231154752962349,0.0019068700062236795,-0.11801311239769322,0.05006649456959607,0.0022059205996519987,0.0008694384644318596,-0.008387803674781178,0
2025/05/06 15:20:27.38682236,1746537627,30860121,piren,vessel_center,-475.59636522380174,-325.20720497443443,2.3676905582743064,-0.00029413474496581184,-0.005141872440273293,-0.9928859680321551,0.11895767784136511,-0.04253053524362237,0.008692273921269839,0.001048510137477407,-0.000619281871568754,-0.003888184304937563,-0.011550016757868813,0
2025/05/06 15:20:27.468740147,1746537627,458942565,piren,vessel_center,-475.6316493783671,-325.15817573279384,2.3507917609990043,0.0028753837116027373,-0.016248499083040224,-0.9931032711983976,0.11607588544181618,-0.08274603232534879,0.1098534105459296,-0.037451574670700295,-0.002001005201357025,-0.001167145179971137,-0.011932841762400295,0
2025/05/06 15:20:27.892592850,1746537627,884654073,piren,vessel_center,-475.68816059333426,-325.0766160162304,2.3203983014131992,0.003816657824169519,-0.027620328161128613,-0.9931687309672533,0.1133067624823006,-0.12476934906658221,0.18016927119783782,-0.06717559875784275,0.002046075779069992,0.0001595134478182303,-0.011747458409011948,0
2025/05/06 15:20:28.326481244,1746537628,313292293,piren,vessel_center,-475.75526310007086,-324.98633861974054,2.284012078244671,0.00171398969901952,-0.0023367967910867056,-0.9937932619917675,0.11120500905908363,-0.15147478454277893,0.20401836943519835,-0.08212799752554559,-0.00010735213918684488,0.0010258368066071296,-0.012951498014140672,0
2025/05/06 15:20:28.762539144,1746537628,757015103,piren,vessel_center,-475.81270609758514,-324.96770848900377,2.27754151280479,0.0019342258795518122,-0.007945998687306482,-0.9940795754313161,0.10834628551732857,-0.14307581470607125,0.06213470823527156,-0.022725000066219747,-0.0013305592018876956,-0.0020655882942555988,-0.012511531396817885,0
2025/05/06 15:20:29.195441542,1746537629,187429334,piren,vessel_center,-475.8757871897978,-324.9827349400477,2.2840905435993784,0.003962387117267033,-0.028320003978244943,-0.9938004865363931,0.10743774859440032,-0.14084159227859325,-0.0332293662731897,0.014496969744971153,0.0003744511423118738,0.0019083668419450186,-0.008242394830232078,0
2025/05/06 15:20:29.665827603,1746537629,661421319,piren,vessel_center,-475.9564976028621,-324.9921243701603,2.283837796778867,-0.0020337479133275696,0.020682701095408235,-0.9941166015289697,0.10630273895490466,-0.16342993258022012,-0.017105406970676747,-0.0022031015052226613,0.0019051745943828157,0.0023733686367380796,-0.007649931280748657,0
2025/05/06 15:20:30.121758468,1746537630,92069744,piren,vessel_center,-476.0136759401199,-325.0742418225437,2.313741624679656,3.37481248284539e-05,0.002205262990378236,-0.9943366940251942,0.10625288039039106,-0.14346068460695258,-0.18422603216731634,0.06624259497539894,-0.0029547002455564617,-0.004313296143081325,-0.006406111686824902,0
2025/05/06 15:20:30.548757781,1746537630,523477943,piren,vessel_center,-476.0891550140128,-325.14579267977246,2.3400733926153516,0.0032948389608604477,0.0008349004958894924,-0.9943770312085899,0.10584312345247145,-0.1686813607503607,-0.16020241726623657,0.058947176226589224,-0.000342819154613494,-0.007352342465947315,-0.004936102044564722,0
2025/05/06 15:20:30.969678118,1746537630,958639052,piren,vessel_center,-476.18430258415117,-325.1866331534159,2.3534051051057805,0.0025065223148184423,-9.47926990243955e-05,-0.9942592188941045,0.1069687524668522,-0.20797654486736952,-0.09851709537124384,0.032859848941717604,0.0012401143557799748,0.0050418121068827254,-0.00022319683040104198,0
2025/05/06 15:20:31.395940086,1746537631,390961012,piren,vessel_center,-476.27727926153364,-325.20245743533076,2.353241058128251,0.0028391393092946013,-0.017388663444745916,-0.9938211026298156,0.10958644824632843,-0.2273728209795079,-0.04494491867617376,0.002887231987251715,-0.0015576191031725392,0.006835257401387448,0.004137513422757421,0
2025/05/06 15:20:31.824419579,1746537631,819981664,piren,vessel_center,-476.3870508524413,-325.1817481353791,2.3328303476501606,0.0004977126170646886,0.001117341366001521,-0.9936874964993407,0.11217692780289233,-0.24606855401989358,0.04561232861533448,-0.0453367671458841,-0.00169288033071529,-0.004232248127278298,0.006539256912280666,0
2025/05/06 15:20:32.254836637,1746537632,250684814,piren,vessel_center,-476.47682620196315,-325.1823999969853,2.320787544976638,-0.0032411938476009897,-0.01830684600834683,-0.9933404485542665,0.11370623253664543,-0.22389924045137358,0.0030607843385953293,-0.03125362209209102,-0.005582449228459882,0.006157319057619578,0.00556955359322671,0
2025/05/06 15:20:32.748905666,1746537632,730251720,piren,vessel_center,-476.56325337848506,-325.15375229014467,2.3010663839296877,-0.0015846962232691757,-0.0223410528988747,-0.9930435196529628,0.11559815815360257,-0.16838109175305344,0.06335009230952003,-0.040522867182412846,0.006213019928734686,-0.01961862598368129,0.006341564780082987,0
2025/05/06 15:20:33.188151522,1746537633,160184928,piren,vessel_center,-476.6116239704292,-325.0969131289446,2.282869403000005,-0.059322101572907036,0.10875912813709827,-0.9861874871889693,0.10993898500413035,-0.11497989363283503,0.12039364292754746,-0.040758439923314294,-0.0007468629102892808,0.015336017943049464,0.007437203992513935,0
2025/05/06 15:20:33.612005010,1746537633,595358926,piren,vessel_center,-476.50807364500383,-325.26789050024746,2.3434963309047347,0.0009198842515836989,0.022429444171124482,-0.9923803389409698,0.12115005873108009,0.21757411495855214,-0.366848624653903,0.13029240529411165,-0.006774317800963063,0.00538235019585208,0.016539540750174397,0
2025/05/06 15:20:34.29431963,1746537634,24196759,piren,vessel_center,-476.48938467078943,-325.3701723901223,2.3908169857374926,0.0004210738650506623,-0.022293468434803055,-0.9916206739858101,0.12724489335872952,0.041731274194171636,-0.22767851969542766,0.10530133485730257,-0.001476647485840358,-0.0050255185017663295,0.0139975176813697,0
2025/05/06 15:20:34.457944726,1746537634,453114055,piren,vessel_center,-476.54605660166476,-325.3108411455889,2.3799360913566288,-0.002551119178973536,0.032988167800252745,-0.9911620113764519,0.12846454678355237,-0.12193370593608938,0.10991279434538251,-0.01402914855523131,0.006323615037727579,0.0038336398648148536,0.012759781539802745,0
2025/05/06 15:20:34.890890095,1746537634,883050142,piren,vessel_center,-476.6145296155705,-325.2699362936728,2.379327110551517,-0.0027834740335823346,0.031912924602058614,-0.9909493632662517,0.13035788030594114,-0.15422662624528105,0.09269137790320224,-0.0015666626269949784,0.0010932583987930517,-0.002394115900812698,0.011337445119086114,0
2025/05/06 15:20:35.318687095,1746537635,313158915,piren,vessel_center,-476.6710309318426,-325.245729494677,2.381894844640629,0.004997028677094721,-0.029766108773923508,-0.9909559759939509,0.1307488512941332,-0.14054453626822555,0.06279621009125572,0.005554943384348239,-0.006022862479977614,1.9002223633446714e-05,0.008863669648129558,0
2025/05/06 15:20:35.745840940,1746537635,740854164,piren,vessel_center,-476.7402153859784,-325.1335845666081,2.342107331889907,-0.002241216332782706,0.02902993677545465,-0.9908269382385576,0.13196294245343418,-0.15522494434803752,0.24989661677864228,-0.08837049864964813,0.0026863888058106487,0.0002863777021656277,0.006716040910160808,0
2025/05/06 15:20:36.234426790,1746537636,219831749,piren,vessel_center,-476.7738706596844,-325.09448590310035,2.3281159047537323,0.0013422355526025638,-0.002433073541142895,-0.9912116110643937,0.13225664689532235,-0.055519596993962986,0.05581231878818496,-0.020104115978697712,0.004168769938181121,0.002507599390109712,0.005203490852186862,0
2025/05/06 15:20:36.655818503,1746537636,650974158,piren,vessel_center,-476.77658706557446,-325.08395208054174,2.32189604901875,0.0002944086927668248,0.0030693213432026437,-0.9911270624121491,0.13288204823932317,-0.01295049620107399,0.03036300257840619,-0.016328228283162237,-0.003931750696447838,-0.002618390223524911,0.005684844091305335,0
2025/05/06 15:20:37.86917380,1746537637,81002637,piren,vessel_center,-476.77127883153366,-325.0885784043124,2.3221299819238372,-0.0016092818489083646,0.02300679914512282,-0.9907298395703389,0.1338748758727991,0.012020472274525882,-0.01077046126115394,0.0007727350113566969,0.0013412908734545064,-0.00016246320333629014,0.004549458952595695,0
2025/05/06 15:20:37.518329459,1746537637,511175075,piren,vessel_center,-476.75719432302134,-325.13655637898006,2.34041888920123,0.0009167162360761287,-0.0032888889351717116,-0.9908362771423586,0.13502523741725453,0.032627849030950735,-0.10781829173761226,0.040732277833706594,0.002329363114767835,0.0038467702058523545,0.006669981906238212,0
2025/05/06 15:20:37.944604221,1746537637,938214471,piren,vessel_center,-476.75555919237985,-325.1491269374461,2.3458680580651596,-0.00093158501884322,-0.020639021900945152,-0.9902215911586553,0.1379650801019806,0.0040124691436633185,-0.029188827411735216,0.012583334669105758,-0.0010999734330068356,-0.00311184179240292,0.007979800999471565,0
2025/05/06 15:20:38.409699269,1746537638,385638574,piren,vessel_center,-476.76884646008165,-325.1031900434488,2.3288108175941225,-0.00011802261430747485,-1.2416421916135526e-05,-0.9902480442600193,0.1393154577055313,-0.029533702580647306,0.10210769773375457,-0.03791491808796105,-0.0008377645932448986,0.00039899633340616724,0.0069985096711087415,0
2025/05/06 15:20:38.854697226,1746537638,838496757,piren,vessel_center,-476.78677439146503,-325.06794603480535,2.318303751092953,-0.0011210553553452321,0.030748442780257942,-0.9895077050706381,0.1411657823529429,-0.03979150883201307,0.07814319861745414,-0.023282443465521274,0.0011031678984991954,-0.0009028130747198359,0.007501597182032093,0
2025/05/06 15:20:39.275745173,1746537639,271776389,piren,vessel_center,-476.79414982764683,-325.10213572020257,2.3357239756743984,-0.0002039358707536024,-0.012256935946622168,-0.9898325878096549,0.14170805919707943,-0.016606378893356828,-0.07556992662489367,0.03859298409092927,0.0007016122577609533,0.00024145019312483276,0.005494824013318313,0
2025/05/06 15:20:39.750621314,1746537639,747038364,piren,vessel_center,-476.80572875107936,-325.0950521753601,2.3361848877757803,0.0037773905368523744,-0.0031883258984101307,-0.9898323184928852,0.14215325239225876,-0.02550195068738483,0.016800582073438153,0.00048441768576926864,-0.0006727184400636913,-0.0018479396391739465,0.004230968891467223,0
2025/05/06 15:20:40.186670109,1746537640,179992614,piren,vessel_center,-476.8210333476254,-325.0784235048453,2.3314644621214855,-0.0013590754577908733,0.03196958671631176,-0.9894026686737972,0.14162788447285657,-0.03410077552198325,0.03701376540311709,-0.0104892651708243,0.0011748504553176714,-0.0009509843199582513,0.0018735352956679903,0
2025/05/06 15:20:40.623476396,1746537640,609536360,piren,vessel_center,-476.81379774039675,-325.12132990224694,2.348873600170114,-0.0026617822074874228,0.027404775157461196,-0.9896142728836055,0.1410867964024343,0.01205084052553522,-0.09108297787747663,0.03749459303259796,0.0029421039690689975,0.0049594053554030855,0.001342799492455574,0
2025/05/06 15:20:41.63759481,1746537641,41397454,piren,vessel_center,-476.7963859468705,-325.1781337378647,2.3710278472495894,-0.004825126151820462,0.016392256737660083,-0.9898461691701029,0.1411119181923969,0.038592977709004314,-0.12507244242146928,0.04874821381046436,-0.002547083199019236,-0.00037243814727841207,0.0008053632772787255,0
2025/05/06 15:20:41.482963215,1746537641,477774088,piren,vessel_center,-476.78003287547926,-325.2034347323035,2.38141256074115,-0.005754492625652265,0.026212805864078658,-0.9896647913788876,0.14086651599417196,0.037067303025924245,-0.058555456969315606,0.02398616305315619,0.0012236174163347553,0.002932989659986508,0.00022441418874331054,0
2025/05/06 15:20:41.915620303,1746537641,910732808,piren,vessel_center,-476.76952162223296,-325.2168343393698,2.3867373114296653,-0.0011317800052776839,0.00031892608037146684,-0.9901467401667758,0.14002874811010224,0.02681452533684043,-0.035222490366731765,0.01406273728316711,0.002562615291173166,0.003871601724764637,-0.0019952323879952947,0
2025/05/06 15:20:42.346288851,1746537642,341038722,piren,vessel_center,-476.7862973323839,-325.1745314135982,2.370681888516202,-0.0020442956423930687,0.01359531845682269,-0.9903504555560685,0.13790200633519314,-0.037191947547989705,0.09390261700637008,-0.03563679120268781,-0.0027662617831692984,-0.006824425527492243,-0.004645720091240498,0
2025/05/06 15:20:42.777162060,1746537642,773080511,piren,vessel_center,-476.8219350029058,-325.12797923847364,2.355211230050806,-0.004160953889549262,0.027063612086645997,-0.9903369723790756,0.13595193453054924,-0.07958064394601913,0.10440985076738822,-0.03474310069058064,-0.0012949422962657473,0.0008980533028131474,-0.005671500720879186,0
2025/05/06 15:20:43.252537334,1746537643,244601982,piren,vessel_center,-476.86001622294026,-325.11602038948473,2.3540241775604582,-0.002013726897554183,0.01595724474625945,-0.9909336643493226,0.13338584671288786,-0.08416720613040504,0.02595825703206199,-0.0024313889373301922,0.005142022614264673,0.004349217313610405,-0.007591271523952896,0
2025/05/06 15:20:43.702007476,1746537643,674676924,piren,vessel_center,-476.9023046289591,-325.10726100321205,2.355534250515485,0.006292544425579734,-0.03227314064443305,-0.9907592981425961,0.13158594690006659,-0.09450688361071095,0.019627823232849805,0.0033414502031150926,-0.0011646122630107135,-0.012812477847338643,-0.006892401408900947,0
2025/05/06 15:20:44.145700461,1746537644,124388194,piren,vessel_center,-476.9694876429816,-325.0240218826792,2.3224895796583778,0.0012944652781132085,0.003029799107283333,-0.9913622899408499,0.13111046777526103,-0.1483061073380211,0.1848444281467894,-0.07350547088755825,-0.0031511264064564976,0.009239449555505593,-0.006167968347456754,0
2025/05/06 15:20:44.561331979,1746537644,554699360,piren,vessel_center,-477.0150470732033,-324.991428397248,2.308619133132911,0.0019543254707040493,0.004728220628393471,-0.9914260330324367,0.13056893032880995,-0.11962601965524278,0.09533146694398081,-0.039930642598382214,0.0017089720555519693,0.004067744633618796,-0.005268178631155186,0
2025/05/06 15:20:45.20274240,1746537645,13842034,piren,vessel_center,-477.0516158142923,-324.991900565388,2.307827758288914,0.0037319749645000687,-0.025080899111421227,-0.9911110317987968,0.1305984054625151,-0.08069252380478226,-0.0015161875078772147,-0.0015634219381992498,-0.00028753729875865555,-0.007562141413630171,-0.002304008549060729,0
2025/05/06 15:20:45.460028907,1746537645,455236390,piren,vessel_center,-477.0835075403424,-324.9747588955678,2.2964924419333386,-0.0037549594597262623,0.03202104214607882,-0.9908611306687368,0.13097623016871213,-0.0712915667082141,0.038090767192534514,-0.02520142257265001,-0.00287341289162376,0.008487430769791074,-0.0013372390624532408,0
2025/05/06 15:20:45.888803810,1746537645,884459529,piren,vessel_center,-477.08655129082774,-325.05133651471147,2.3221577765319665,-0.0015503288734051261,0.02160541220718296,-0.9910794820616381,0.13150004897404854,-0.006643966307046667,-0.17024963734797866,0.057080940796218504,0.002178528644978318,-0.0024937911229046712,-0.0004374041963190011,0
2025/05/06 15:20:46.321791316,1746537646,316082880,piren,vessel_center,-477.0843226635288,-325.1482523986535,2.3579905303607105,0.0006548677080832647,-0.0019785858326943954,-0.9912317727859468,0.13211823858202432,0.003968710232766369,-0.20824975438981683,0.07654071129170581,0.002040166885567357,-0.005287319939501899,0.0005263343007388025,0
2025/05/06 15:20:46.827478619,1746537646,818770934,piren,vessel_center,-477.09980280050917,-325.1887843912994,2.370919941896542,0.001154304681692806,0.0035829428431389003,-0.991100403650689,0.13306321800079168,-0.034841173880249494,-0.06732705926465288,0.020371718538382447,-0.001386046641392703,0.008291347588327839,0.0020085492968632004,0
2025/05/06 15:20:47.261732483,1746537647,253434905,piren,vessel_center,-477.1279378005241,-325.1786319321657,2.3637138741918946,0.004542579361485633,-0.02384984553819833,-0.9906535755185237,0.13422385463438805,-0.06671023978210522,0.014485040421232304,-0.013570951728372763,-0.0029189564140107388,-0.0060290872878528,0.0037310114783873603,0
2025/05/06 15:20:47.692551984,1746537647,687214077,piren,vessel_center,-477.1741439136163,-325.10747087928934,2.329700057661616,0.005628490335188859,-0.027146379078073508,-0.9903743635195267,0.13560978682524621,-0.10308671942202616,0.1582762739086777,-0.07569002386064326,3.540607528438954e-05,0.003495730581250168,0.004145077851803829,0
2025/05/06 15:20:48.135401509,1746537648,125578146,piren,vessel_center,-477.2178994473493,-325.0148008454174,2.2870101917011176,-0.00020223345178665102,0.0028803973217108167,-0.9906284230744364,0.13655398130393534,-0.0957702533964946,0.20370863591520016,-0.09380095590390154,0.001647077128259687,-0.0001615879661178798,0.004238605004266248,0
2025/05/06 15:20:48.567980439,1746537648,561018511,piren,vessel_center,-477.22498785995793,-324.9956620978733,2.2804360398593535,-0.0020023320551086675,0.02981033557856285,-0.9901537367808781,0.13675859058171785,-0.026221777378532152,0.06480604796238393,-0.02486316637595272,-0.0005848494955834839,-0.0028466972423488537,0.002576949182018717,0
2025/05/06 15:20:48.997354923,1746537648,993023131,piren,vessel_center,-477.2038937291781,-325.06128044518334,2.3105048764629172,-0.0023137659874427263,0.02852543134183281,-0.9902643266635932,0.13622595050583478,0.046974423353913344,-0.14606595822910975,0.06691592802563641,0.0015421102170148917,0.0009340516653992113,0.0007973514937690469,0
2025/05/06 15:20:49.430987999,1746537649,426623972,piren,vessel_center,-477.16734683324216,-325.1616211117605,2.355272465388981,0.0015695004138606018,1.5419974510482668e-05,-0.9907124048313509,0.1359649489536069,0.08169845321581325,-0.2244780766603523,0.10016985879316473,0.001636394371055074,0.0012652349625668375,0.0006414635130400667,0
2025/05/06 15:20:49.868101628,1746537649,859302403,piren,vessel_center,-477.1486100787764,-325.19450959392066,2.371689170404859,0.0005237459428848248,-0.0006756166465447782,-0.9907437468004702,0.1357427618994844,0.050670398406009745,-0.09789162398328671,0.047552199158834595,-0.001115612542561025,-0.0008215896463062313,-0.00010712705929630424,0
2025/05/06 15:20:50.355363508,1746537650,341399562,piren,vessel_center,-477.13994790817003,-325.18870770553315,2.371495531494249,0.0012363483892567327,-0.0029909192920763643,-0.9907849119729517,0.13540599710204546,0.013189267392863455,0.024621017207482776,-0.00612493201021122,0.00024432218866423825,0.0014261685537722748,-0.00039129417378406053,0
2025/05/06 15:20:50.810421488,1746537650,802359346,piren,vessel_center,-477.1480391055437,-325.14353611256445,2.3526484763583615,0.002656890652933485,-0.027339287506584153,-0.9904159363440401,0.13535795996707795,-0.017772078156622028,0.10103992346053045,-0.04208022819377019,0.0007573682964817797,0.0007964042756315921,-0.00019847349562099006,0
2025/05/06 15:20:51.246843020,1746537651,241910362,piren,vessel_center,-477.1698467543908,-325.0527335996341,2.3116332981566194,-6.044466977938332e-06,-0.0036289555151986417,-0.9907939920341093,0.13532958285033816,-0.048137802946484745,0.19990084289920584,-0.09036492488584305,0.0011531336707582631,0.0025259258542502014,-0.00028543541072057995,0
2025/05/06 15:20:51.683305626,1746537651,678254678,piren,vessel_center,-477.18526215835703,-325.0050646384885,2.289952677240925,-0.000578331253990946,0.0009566088429480657,-0.9908944299555673,0.13463647022821731,-0.03476783334540393,0.10803721566853736,-0.049131399024248,-0.0017060122425149667,-0.002394307138536509,-0.0017448702377213462,0
2025/05/06 15:20:52.119400464,1746537652,113026829,piren,vessel_center,-477.193638601941,-325.00626783630713,2.2910363256272688,-3.78969600004222e-05,-0.007936644157601544,-0.991026526731526,0.13342950032801595,-0.018858053596613692,-0.0019215251473721912,0.0020661136445591158,-0.0002967458644490581,0.001453664142945624,-0.00330891505497123,0
2025/05/06 15:20:52.549003807,1746537652,542700351,piren,vessel_center,-477.2007497298135,-325.02290440267745,2.29997824647331,-0.004288855891544788,0.02793873688785361,-0.9909491481613797,0.1312281160974619,-0.017560703683784387,-0.03715310097986704,0.020065516850002556,0.0018633411003150795,0.0015618049142329079,-0.006030640083104371,0
2025/05/06 15:20:52.993741161,1746537652,976602566,piren,vessel_center,-477.19649501468655,-325.099055801155,2.3349014323172197,0.0039670528512603135,-0.029293754930129805,-0.9912038312343656,0.12900040061985882,0.009334198371471054,-0.17004758802613623,0.07800986082572495,-0.001724802186561848,-0.003804983954944394,-0.006809790319083409,0
2025/05/06 15:20:53.463867386,1746537653,456942106,piren,vessel_center,-477.2201842788751,-325.08851541224965,2.3333274043746806,-7.168102921006493e-05,0.00036831427163792777,-0.9919714554319207,0.12646142026208815,-0.05276389190498755,0.022943958659971286,-0.003257239670501566,-0.0008492277795153569,0.0003124299191229359,-0.008419992236939866,0
2025/05/06 15:20:53.893667861,1746537653,889278966,piren,vessel_center,-477.24730421462624,-325.07164311504124,2.3314416945181313,0.0003147086017621225,0.00030736139299628837,-0.9921755891101867,0.12484953688870576,-0.0595638060272902,0.03719018700899167,-0.004147159396452526,0.001425203944942754,0.0024377159938250167,-0.00771535786864282,0
2025/05/06 15:20:54.330586583,1746537654,322267160,piren,vessel_center,-477.2752032963143,-325.05197146143854,2.329914006693026,0.0019486153722455043,-0.003985756658011352,-0.9923222982377217,0.12359924377681446,-0.06196658818739686,0.04369803461490872,-0.003392155235297356,-0.0005754547129209571,-0.006646657026371757,-0.00827043751472986,0
2025/05/06 15:20:54.798140943,1746537654,767024054,piren,vessel_center,-477.3047820872385,-325.0286518536981,2.326005666183624,-0.0012893624941224312,0.021253565225602233,-0.9922592845437652,0.12234433270999936,-0.06672493760756859,0.05252361592511104,-0.008740657372808346,0.0005627380594387639,0.005625946227532855,-0.006586968390720878,0
2025/05/06 15:20:55.206606164,1746537655,198410617,piren,vessel_center,-477.3175365075811,-325.05464770589566,2.339335086290888,0.0034828873245145824,-0.006630749303526756,-0.9923996590591718,0.12282841429733608,-0.0351626602469876,-0.052418300950239166,0.02873502939584805,0.0001268119993184676,-0.0015154207898775544,-0.0037680888845301897,0
2025/05/06 15:20:55.642923382,1746537655,634021122,piren,vessel_center,-477.3381470605216,-325.05238863445624,2.3391802208681476,0.001491690648416012,0.001817888144573798,-0.9922990248850596,0.12384310781736352,-0.0460482979895003,0.004665671061502764,-0.00014936560899646636,0.00019728490157803525,-0.0031294138913859006,-0.0003088130535777538,0
2025/05/06 15:20:56.78780101,1746537656,67778134,piren,vessel_center,-477.35432958312464,-325.05138702811354,2.336959526836603,-0.00017824735220037705,0.012100182810516776,-0.9920068965740299,0.12560203403367196,-0.03535328410689525,0.0021639402788426036,-0.004933789851785353,0.00021471509457506838,0.007561766545808833,0.0021389031136766594,0
2025/05/06 15:20:56.506186497,1746537656,501939068,piren,vessel_center,-477.35933989201754,-325.07221851954984,2.341400720783733,-0.002532539998940722,0.02998378968635119,-0.9914632829780858,0.1268665326377082,-0.015437861877717101,-0.04604736755613859,0.00927321239763844,0.0010915622642316287,-0.002005113906594337,0.003499545551479629,0
2025/05/06 15:20:56.984706090,1746537656,979262513,piren,vessel_center,-477.3554799191998,-325.13157812472673,2.359826481773286,-0.002786813753608836,0.028239986869491692,-0.9912916349246429,0.12859094578990515,0.010239753968835624,-0.1269823296672709,0.039956431344393355,0.001518769459871598,-0.0018551715151832147,0.004006701834280437,0
2025/05/06 15:20:57.418461112,1746537657,413368488,piren,vessel_center,-477.34836043604844,-325.1936219420948,2.3792857501644793,0.000558212275014202,0.0043944504683725485,-0.9915599627323028,0.12957321293558846,0.015699007710509444,-0.1363497995009763,0.04276282176454858,-0.0013731438267360224,0.004554194359999667,0.0050741455658093486,0
2025/05/06 15:20:57.849297715,1746537657,845617554,piren,vessel_center,-477.35538759522007,-325.1956179084187,2.3753843437674282,0.0007683912364137685,0.0018391553280253901,-0.9913152339049601,0.1314919545468144,-0.013773237750728896,-0.02049834036520197,-0.0036362874665867434,0.0003165764550727941,-0.0017784960549473417,0.006972843513661174,0
2025/05/06 15:20:58.302037665,1746537658,283021539,piren,vessel_center,-477.3708846833942,-325.16710748056465,2.3592038924621193,0.000910471820900267,-0.0017454889607864557,-0.9910867301949151,0.13320366939729075,-0.0344043237068943,0.06345257202556266,-0.03595845344996908,0.0012542856535905245,-0.001163543461414572,0.006305512172415564,0
2025/05/06 15:20:58.730262624,1746537658,724960771,piren,vessel_center,-477.38905973614277,-325.1241027216211,2.336943430553427,0.0020744320895495004,-0.008311219122876495,-0.9908675109418116,0.13456669769365776,-0.04010008609511695,0.09503744717849284,-0.0491671595989816,-0.001270356792856861,0.00290607409494632,0.007519073028320336,0
2025/05/06 15:20:59.166794837,1746537659,162570339,piren,vessel_center,-477.4042318653777,-325.0800333595174,2.3143342347817937,0.0032955502589223215,-0.018218107872776695,-0.990922400910736,0.13315417855752573,-0.034139602468803584,0.09893823464130973,-0.05076322446889013,0.000620970916086315,-0.0021650726489061073,-0.00012188008631299459,0
2025/05/06 15:20:59.601314432,1746537659,596498534,piren,vessel_center,-477.4141228023414,-325.03579327427576,2.29340106068763,0.003781247485244384,-0.02559478201289274,-0.9911389720149308,0.130284870396965,-0.025718251203261187,0.10915126530599108,-0.052079261702652785,-0.002618955964979716,-0.0044715465987223615,-0.0034197284109604167,0
2025/05/06 15:21:00.38550365,1746537660,34234227,piren,vessel_center,-477.41884229454195,-324.99039980822613,2.272399021388528,-0.00027910918661989796,0.003050888458966142,-0.9916105737640183,0.12922493635930868,-0.010652904646394545,0.10158275671601612,-0.04700899690594672,-0.0008352677229812127,0.005607640513970521,-0.0023057689644016767,0
2025/05/06 15:21:00.521477004,1746537660,512897916,piren,vessel_center,-477.40288998844585,-325.01127184816914,2.2814665975629973,-0.0015436783652264994,0.01577015629312497,-0.9914481547295093,0.12953561560839635,0.03566145958993749,-0.04835584943671138,0.021063243150493863,0.0013499167159232127,-0.00030845883626108144,-0.0012562415934158724,0
2025/05/06 15:21:00.964660123,1746537660,953712326,piren,vessel_center,-477.3749322082803,-325.0883220161917,2.315687335634237,0.0038822363527054554,-0.028166852085054168,-0.9911921795885599,0.12934303153630078,0.06217902703247111,-0.17130603891255275,0.07608268047884664,-0.0023383679130595364,-0.002842049601544739,-0.001306615644389235,0
2025/05/06 15:21:01.396027006,1746537661,391535401,piren,vessel_center,-477.36866263677996,-325.100855793441,2.3211785576343344,0.0032200498046452445,-0.022508306633946762,-0.9913506710638817,0.12925499755490794,0.014685180365359173,-0.029924747154381925,0.013122885597183553,0.000336531284987215,0.0018434871664375276,-0.001052142694464742,0
2025/05/06 15:21:01.831423497,1746537661,827023260,piren,vessel_center,-477.37614544388134,-325.07878290329523,2.3113560138559475,0.0038711458574019753,-0.026680608664654083,-0.9912699092274708,0.12906249033393122,-0.01680432363377784,0.04941123396506582,-0.02198594853421467,-0.000658541315400766,0.00023278671516324047,-0.0012453530367148853,0
2025/05/06 15:21:02.266234504,1746537662,261257300,piren,vessel_center,-477.39275237657665,-325.0369809141273,2.29238155455797,-0.0013113613735776725,0.0024287887304760905,-0.9917104220984246,0.1284633022229112,-0.038977957605129426,0.09898884516014758,-0.044877823462232964,-0.0011452220157471583,0.002062371680824138,-0.0021625819867012175,0
2025/05/06 15:21:02.711568632,1746537662,704439780,piren,vessel_center,-477.3985871054747,-325.04019967216317,2.2947395119836362,-0.0019424160291071195,0.00952651334599527,-0.991830395572791,0.12719252722294513,-0.012801443352964067,-0.0075806819952046745,0.005434381952451314,0.00040936864839240055,-0.001475796025631273,-0.0034899535422575336,0
2025/05/06 15:21:03.147007791,1746537663,141116720,piren,vessel_center,-477.39610024356625,-325.0820673933826,2.3156350601640967,-0.00483641202584379,0.026425942142666373,-0.9917999733742178,0.1249443536759053,0.00548040078711003,-0.09309135111375298,0.04646659970444255,0.0006303566918340356,0.0010621166409883775,-0.005763294150713465,0
2025/05/06 15:21:03.611581756,1746537663,580316175,piren,vessel_center,-477.3849794025713,-325.1585832183993,2.351729444134526,-0.0008706371103757721,0.00021666114492949852,-0.992429141062892,0.12281528821014381,0.02476222063351108,-0.17037186855695807,0.08036847614149864,-3.607309495752656e-05,0.0005653334809806669,-0.007208378785782257,0
2025/05/06 15:21:04.71694486,1746537664,64696405,piren,vessel_center,-477.3911663407697,-325.1816840715745,2.3675694412245822,-0.00036643612050388545,0.022803139992256218,-0.9925685453131241,0.11953060439089208,-0.014065861372728049,-0.049176922101105164,0.034183637945709375,-0.0017669592940971388,-0.007323191339031987,-0.009831942108128645,0
2025/05/06 15:21:04.507261099,1746537664,503160037,piren,vessel_center,-477.40892477169234,-325.1916215576771,2.3788543900792045,0.0017717571635715715,-0.0035658202216616716,-0.9929867442664979,0.1181586709205923,-0.03958570152294649,-0.022484823812237383,0.025359020494226822,-0.0006719474882985794,-0.00035764411307284054,-0.0076716236360239625,0
2025/05/06 15:21:04.947152327,1746537664,942249271,piren,vessel_center,-477.4401087060474,-325.1463576487725,2.3659863546191713,-0.0011163049820148243,0.030775300951447107,-0.99263119565441,0.11719617795914414,-0.06890696949026258,0.10082623362413898,-0.028855217661196364,0.0034071332388765497,0.007457844606102806,-0.005975514133779985,0
2025/05/06 15:21:05.386669680,1746537665,380576777,piren,vessel_center,-477.4603469337848,-325.13670229809424,2.3646856006469075,0.002586409518535226,-0.008089075822436927,-0.9930179444331982,0.1176572962965197,-0.04513412788000985,0.021684174687061672,-0.002955278506417105,-0.0009489661136120185,-0.007134681033837129,-0.003269299015515035,0
2025/05/06 15:21:05.845990372,1746537665,817178159,piren,vessel_center,-477.48511030518137,-325.0866508347329,2.3453863589747734,0.000552923301174546,0.0052815038432645674,-0.9929367471439203,0.11852601471502845,-0.055542526558656186,0.11148357516640345,-0.04292621453418041,-0.00204339862909624,0.0032024034456173307,-0.0015304546476478489,0
2025/05/06 15:21:06.275837266,1746537666,261522713,piren,vessel_center,-477.498267883812,-325.05656294716056,2.3324388431367966,-0.0013477260349689677,0.023012476786765546,-0.9925913489600799,0.1192938536400012,-0.03537277214109033,0.07917448643220296,-0.033513534393991955,0.003740140047130307,0.005089795259968357,0.00048163768963119404,0
2025/05/06 15:21:06.718162842,1746537666,704136238,piren,vessel_center,-477.4977539450026,-325.07257163345923,2.3372167753925224,0.003927924522716537,-0.025279226700802196,-0.9924147437318563,0.12024353841262017,0.0009506894162770729,-0.035153071031754454,0.010438200554491121,-0.0013745015997479184,-0.005611533756318656,0.00177803910572025,0
2025/05/06 15:21:07.150502440,1746537667,145762427,piren,vessel_center,-477.5081804563531,-325.0366022132239,2.3186176379900227,-0.0029119824335637028,0.024542330935086974,-0.9922808636221987,0.12152317490817527,-0.023185341943326217,0.08028762118156037,-0.04144177442674516,0.0009492248585833073,0.004027972955289291,0.002907168992774896,0
2025/05/06 15:21:07.634252852,1746537667,629597292,piren,vessel_center,-477.50279768950116,-325.0626517242366,2.3258320198144307,0.0038737585887761087,-0.027342438530779455,-0.9920673220413149,0.12263691771795525,0.014423548847480764,-0.06641467857516518,0.0204316913017651,0.00022450075579889678,0.00030297053322450606,0.0028198205523273525,0
2025/05/06 15:21:08.76862568,1746537668,69780213,piren,vessel_center,-477.51154345252456,-325.0381017038288,2.3126742452844886,0.004381810664165675,-0.028814834481671214,-0.9919693144327711,0.12307471012712333,-0.019704094928465362,0.05577707935826791,-0.02962149879793953,-0.0007632562525155543,-0.006497757408976529,0.0030752801055562947,0
2025/05/06 15:21:08.516760544,1746537668,507755102,piren,vessel_center,-477.52836955102373,-324.9876025724975,2.2895937351217786,-0.001767367859080421,0.02128920244357789,-0.9920379224543353,0.12411449022033424,-0.0398887363335232,0.11929081541716212,-0.055043622992443114,-0.00046125372501969566,0.005127140314352593,0.0046800338416928995,0
2025/05/06 15:21:08.962301437,1746537668,948655243,piren,vessel_center,-477.5248984171845,-325.0204239024532,2.3023412809415533,0.004809593592432628,-0.027685595710197488,-0.9916069612637629,0.12619829623609582,0.008113783083809015,-0.07414090750412443,0.028882872575812762,0.00021836937400231975,0.0004006494708160175,0.005406932560743504,0
2025/05/06 15:21:09.394879483,1746537669,388104690,piren,vessel_center,-477.53023547089947,-325.0182102732354,2.2995398780397296,0.004311339324994944,-0.028623072410250534,-0.9914425897018407,0.12729384668682883,-0.011808873620975442,0.004436108973459599,-0.006037769147066843,-0.00012288463589231512,-0.0040035074418467665,0.00539872185756364,0
2025/05/06 15:21:09.833558716,1746537669,827648122,piren,vessel_center,-477.5381987313765,-324.995908135706,2.2870724696730376,0.004021768740169121,-0.0268230270119736,-0.9912580440237455,0.12911948248166813,-0.017784078259637476,0.049615931164044266,-0.027760137880996738,-0.0022006253312144473,0.004770001683812289,0.006302561128683727,0
2025/05/06 15:21:10.273783401,1746537670,269683068,piren,vessel_center,-477.54390351572505,-324.97589957863505,2.2741091050843005,-0.0014902525751160208,0.01757533785388692,-0.9913441077300603,0.13009898814162543,-0.01232206506110722,0.04347386637709885,-0.028254435934429466,0.0008636378519390726,-0.0009851589811063148,0.00499223206994609,0
2025/05/06 15:21:10.777120394,1746537670,759726557,piren,vessel_center,-477.52669759732845,-325.0385179162517,2.29718208834894,0.00014805189033978859,-0.004490355080716956,-0.9913575359242937,0.1311108338696678,0.03938013988554323,-0.14319135138789507,0.05389304977326235,0.0015863264935284027,-0.0011100661757002864,0.005006530027924924,0
2025/05/06 15:21:11.208771952,1746537671,202993362,piren,vessel_center,-477.5085057302478,-325.0972695874689,2.3198681574131346,-0.0034205154012081898,0.030388754831092248,-0.9908745494892908,0.13127242981144546,0.04412355151221183,-0.14395935074535346,0.05546024897616009,0.002677170538100706,0.0047202088576270874,0.004524985225196687,0
2025/05/06 15:21:11.665191851,1746537671,645560982,piren,vessel_center,-477.4788165804246,-325.1974490569597,2.359220393809343,-0.0021832347919719278,0.020482345391407118,-0.9913991495276485,0.1292417630991068,0.06638902451118175,-0.22397029304074723,0.08796951715697873,0.0009390323657323966,-0.004604177473351669,-0.002906826136329644,0
2025/05/06 15:21:12.90154730,1746537672,84655893,piren,vessel_center,-477.4558935557501,-325.2674115644189,2.387777487401005,-0.0006210130858486752,0.0027289566489508044,-0.9918943843016654,0.1270342376258285,0.0509359038284858,-0.1554553706834665,0.06345400143495483,-0.0019644083268740694,0.0016530838598101708,-0.0030808053026222574,0
2025/05/06 15:21:12.528561798,1746537672,523599222,piren,vessel_center,-477.4500158091357,-325.2636613446629,2.387048800057582,0.00030309081061741976,-0.001317832834849921,-0.9920243721697554,0.12603894824133813,0.013472118169284127,0.007092679476682212,-0.001112266066309986,0.0014372265059310883,0.0016851441948057128,-0.0034241118129945737,0
2025/05/06 15:21:12.972152596,1746537672,966128845,piren,vessel_center,-477.458772066511,-325.2069049026784,2.365245784388765,-0.0036426993345701625,0.030307751718485095,-0.9916238474582487,0.12550026326437955,-0.01947782544448253,0.12613338297805993,-0.0484562223118518,0.0006957676322305427,-0.004166332060352252,-0.003048062605845405,0
2025/05/06 15:21:13.409788425,1746537673,404567048,piren,vessel_center,-477.4606600877393,-325.1914919161098,2.359894697078901,0.003732252225903591,-0.027500248557461807,-0.9917567291828754,0.12509355196445918,-0.006201126714358707,0.047239141257978456,-0.016880739243725372,-0.0023442339521098487,0.001393385091737997,-0.0032540259749647056,0
2025/05/06 15:21:13.845896085,1746537673,841654716,piren,vessel_center,-477.4836572750002,-325.10712530422865,2.3235547660820357,-0.002270312856225198,0.006209971504471293,-0.9922412714657255,0.1241512832536542,-0.05116898904125244,0.18793715316301157,-0.08092050950916399,0.0012525338076353274,0.004251555227012476,-0.003107604813992905,0
2025/05/06 15:21:14.344928385,1746537674,338233232,piren,vessel_center,-477.49694363277035,-325.06012641471136,2.304398443439193,-0.0005935602873676448,-0.0027402899135620202,-0.9924605205153552,0.12253266387280237,-0.02376734410972838,0.08329315772884938,-0.033463029474660476,0.0016534930186213358,-0.0025133951288660293,-0.0044686433598501675,0
2025/05/06 15:21:14.783201972,1746537674,779337393,piren,vessel_center,-477.5043559300822,-325.046776931934,2.3019661448880715,0.0004038116899822002,0.004920638818036884,-0.9926571825205037,0.1208608383232421,-0.016127248567772562,0.02845491675143448,-0.004918003638379364,-0.0019042361743527886,-0.004277355423989534,-0.006139364599147703,0
2025/05/06 15:21:15.231299208,1746537675,223765319,piren,vessel_center,-477.5110577840703,-325.06341817756686,2.314003004742191,0.0009516606866797423,-0.0007767119462161192,-0.9928629542522102,0.11925453925978578,-0.014993683316333568,-0.03681029004596867,0.026721524400931947,0.00021589816523944876,0.0008779924650235913,-0.007054218809027306,0
2025/05/06 15:21:15.674129040,1746537675,669656218,piren,vessel_center,-477.51856959245316,-325.0823094606249,2.3268660278176023,0.0005099400045879599,0.004998329467920662,-0.9930296052823312,0.11775805576069621,-0.016629761050944377,-0.041825728085586614,0.02847180880660199,0.0015078744194429998,0.002891844511597143,-0.00627702326559533,0
2025/05/06 15:21:16.114785865,1746537676,107091747,piren,vessel_center,-477.52278352232315,-325.101153573017,2.3386127152670544,0.004936667840782932,-0.026905822988672216,-0.9926709540452788,0.11771186429059813,-0.011352486009036308,-0.04687858931401906,0.02950897480491877,-0.002016633231468427,-0.0059538016541430434,-0.004381567241148372,0
2025/05/06 15:21:16.552649605,1746537676,545700691,piren,vessel_center,-477.54106598827065,-325.06329204466243,2.323573333136076,-1.5838674298695883e-05,0.012658139705716125,-0.9929636285951496,0.11774125672626735,-0.04067563053558822,0.0840010247988178,-0.033330600292802805,-0.00034452583098469234,0.0037407935911969088,-0.002253689134082326,0
2025/05/06 15:21:16.996659222,1746537676,986733327,piren,vessel_center,-477.5457276898538,-325.06857063602007,2.3248237305122283,0.0005334607921964439,0.009053999739477262,-0.9928974167886536,0.11862740089338318,-0.01027712828340534,-0.011905223684516103,0.0028478097453413856,0.0026132507358630395,0.002027319180102481,-0.0005217824942296255,0
2025/05/06 15:21:17.449007744,1746537677,428824820,piren,vessel_center,-477.54187664585555,-325.0938963624997,2.33363075192657,-0.0021920099074955787,0.026796162903653255,-0.9924447198320772,0.11971064624182881,0.008515941855239566,-0.056339123219140384,0.019586476156837822,0.0019821422508515753,-0.003993626873197942,0.0012956882327100766,0
2025/05/06 15:21:17.921499722,1746537677,917729866,piren,vessel_center,-477.52616078979025,-325.15679196481693,2.356280352123832,-0.0020176664175165495,0.02506973379297597,-0.9923442327554526,0.12091468557114672,0.03390470296540136,-0.13300816914224894,0.04798266440384624,0.0008539064112247912,0.003817544348491925,0.00251701214788092,0
2025/05/06 15:21:18.364826124,1746537678,360269337,piren,vessel_center,-477.5085956268357,-325.21951645158134,2.37773229402142,0.0030913806728758444,-0.016914997946191238,-0.9923349936784716,0.12237477898310388,0.03897400190517166,-0.14023512189264664,0.04818234256618348,0.0007129034517638778,-0.0005905353543921664,0.0044487217744105835,0
2025/05/06 15:21:18.809793760,1746537678,802444452,piren,vessel_center,-477.51330754727314,-325.18873697620484,2.3604433054472675,-0.00022068163476998974,-0.0022842589559634273,-0.9923220341430941,0.12365967012227658,-0.006430779705169497,0.053865297505172105,-0.03342826775792124,0.0018739864902461512,-0.0012382364375225308,0.005000781899753216,0
2025/05/06 15:21:19.272211352,1746537679,245582582,piren,vessel_center,-477.5184651081537,-325.1450165437596,2.338288102643218,-0.00012400286727855058,0.0006085078824898083,-0.9921412216010046,0.12512158383553298,-0.011469148697278594,0.09722289543656215,-0.04927317874300404,-0.0010937537303953768,0.00401421376891238,0.004696185626477791,0
2025/05/06 15:21:19.720876083,1746537679,688383865,piren,vessel_center,-477.5225917713492,-325.1120779656341,2.3216369380211734,-1.920423464663043e-05,-0.0012342832638066556,-0.9921095378278268,0.1253680227453472,-0.009241503117527625,0.0737989194132754,-0.03730770543295013,0.0001956242556510479,-0.0036616589429959373,0.0035064377848321383,0
2025/05/06 15:21:20.140511624,1746537680,134179087,piren,vessel_center,-477.5241561118234,-325.09420108840504,2.312860010889864,0.0007994726703019308,-0.003046064182341562,-0.9920118171530842,0.1261056579423874,-0.00330110651225348,0.03838226146399419,-0.018822121473290043,0.0019387295140500104,-0.0017740389467771377,0.0035835026698672664,0
2025/05/06 15:21:20.584754160,1746537680,579165962,piren,vessel_center,-477.52297476827215,-325.09364700249944,2.3114470325350482,0.0013696346045040909,-0.001668645059828299,-0.9921535193923365,0.12500693453610923,0.002597671737930997,0.0015561451921715097,-0.00329962403066927,0.0020115288199934337,0.0028012997292009103,-0.00045926335972033627,0
2025/05/06 15:21:21.27360092,1746537681,21619490,piren,vessel_center,-477.5192218651559,-325.10765801424816,2.315885118908422,0.0025172501306378343,-0.02822834074245617,-0.9920358897510518,0.12272578244422261,0.008341297098513879,-0.031139672721019182,0.009863322159091035,-0.002941850066708871,0.002015770429011408,-0.003930677385932918,0
2025/05/06 15:21:21.552983221,1746537681,547419213,piren,vessel_center,-477.52165051555215,-325.08303348005035,2.3028822711514203,-9.857706147522658e-05,-0.005092674477854951,-0.9927748140231785,0.1198842090955644,-0.006265658857046018,0.057970430733621736,-0.02992652977139426,0.0005055605389402138,-0.0025030384599918683,-0.005662097590145413,0
2025/05/06 15:21:21.999765364,1746537681,990620071,piren,vessel_center,-477.51791641269443,-325.0755763030703,2.300370346708122,0.0027303715720896223,-0.026846784936440556,-0.9925648927934438,0.11868752589718225,0.008350660972701207,0.016093885189048064,-0.005335185196723748,-0.00011077062347923268,-8.995870457477481e-05,-0.0054783787886142086,0
2025/05/06 15:21:22.460390834,1746537682,437459217,piren,vessel_center,-477.5216568746024,-325.0465074454237,2.2893753134451402,-7.297975625961385e-05,-0.0006864193548163349,-0.9931500737822362,0.11684371805434568,-0.008256993749273332,0.0648331933637567,-0.024516401386800456,-0.0008348080351931664,0.0008066059793367902,-0.006754592200886598,0
2025/05/06 15:21:22.903673461,1746537682,883637697,piren,vessel_center,-477.52154206888576,-325.0533336545915,2.2963462757318007,0.003767382190446718,-0.02649568192493203,-0.9929618937888641,0.11537098055402137,0.0003930453837712976,-0.01625593714416,0.015904607710930375,-0.002149932980826634,-0.0029735050585203426,-0.006280253310250347,0
2025/05/06 15:21:23.332001680,1746537683,326167693,piren,vessel_center,-477.53249858549896,-325.0361858673339,2.2930380580564917,-0.0030695214873961534,0.03072057650155652,-0.9930182512449593,0.11384892143385976,-0.02435133513285998,0.0380120071474269,-0.007252036141646032,0.0016898806987035377,0.0002683591817013417,-0.006507751214486411,0
2025/05/06 15:21:23.773780504,1746537683,769971294,piren,vessel_center,-477.52555922169523,-325.1024677709465,2.324323967982359,-0.0025077232421958097,0.028112688028723392,-0.993169972713039,0.11321127769406082,0.015297428430858621,-0.1471167179216988,0.06949603349535084,0.001465989214287584,0.002062986953625477,-0.005212399092753934,0
