time,header_stamp_secs,header_stamp_nsecs,header_frame_id,pose_position_x,pose_position_y,pose_position_z,pose_orientation_x,pose_orientation_y,pose_orientation_z,pose_orientation_w
2025/05/06 15:20:05.913190495,1746537605,911856557,piren,-475.2037617974988,-325.2391343058503,2.331561105336005,0.0003149464390725422,0.0008492538818438465,-0.9945499740721446,0.10425703165581342
2025/05/06 15:20:06.975178373,1746537606,945742044,piren,-475.203756805708,-325.23925000512867,2.3316080671342925,0.00031924049356847937,0.0008128781088322484,-0.9945500034510767,0.10425702830097684
2025/05/06 15:20:07.946142500,1746537607,942371332,piren,-475.2037627973169,-325.239205642132,2.3315865535396147,0.0003174230668997938,0.0008299343523085561,-0.9945499896111546,0.1042570314943783
2025/05/06 15:20:08.922198623,1746537608,920104540,piren,-475.20378898476184,-325.23899361225034,2.3315024902818076,-1.9738313814804823e-05,0.0008100072400893014,-0.9945503478130394,0.10425425249663631
2025/05/06 15:20:09.444882481,1746537609,440502316,piren,-475.2033352073975,-325.23874667507414,2.331517817993449,8.089433681758709e-05,0.0007875058837372297,-0.9945499935794062,0.10425777458680273
2025/05/06 15:20:09.900299246,1746537609,899909234,piren,-475.20300998466604,-325.237296051592,2.3315286800778665,0.00012098684122531611,0.0008249525482475465,-0.9945492169866978,0.10426485412939289
2025/05/06 15:20:10.447129606,1746537610,446632171,piren,-475.2033157112419,-325.23412350939566,2.3315508685516684,0.00021509123890445372,0.0008054647707396903,-0.9945480219407246,0.10427625336601881
2025/05/06 15:20:10.972533576,1746537610,969119115,piren,-475.2046378088465,-325.2296720890118,2.3315538362602157,0.0003238079819085935,0.000821271493440641,-0.9945474026365717,0.1042817556928052
2025/05/06 15:20:11.415526537,1746537611,410636617,piren,-475.2065166692702,-325.22510303986485,2.3315402876000078,0.00036215051623355454,-0.0008731102989808835,-0.994546721976528,0.10428769980756082
2025/05/06 15:20:11.859944074,1746537611,859569337,piren,-475.2096014891841,-325.2191218448712,2.330340856000236,7.558635091566417e-05,0.00233055131896565,-0.9945426584437098,0.10430466601725699
2025/05/06 15:20:12.290449101,1746537612,288149342,piren,-475.21314856050753,-325.21966358003505,2.331226654397032,-0.0030719626577785358,0.03152304654310837,-0.9940435302077395,0.10428001071252871
2025/05/06 15:20:12.760311904,1746537612,759696313,piren,-475.2101676804656,-325.2706078868596,2.3517704339181953,0.00018837008784883746,0.001812879879743949,-0.994539783044087,0.10434221545411128
2025/05/06 15:20:13.194089164,1746537613,192790248,piren,-475.2173420077846,-325.2864380499537,2.358267438977452,-0.0029207554926444558,0.032082563748109555,-0.9940273145611922,0.10426828950819764
2025/05/06 15:20:13.624241347,1746537613,618502785,piren,-475.22301274803283,-325.3242167408307,2.373051120246063,0.0005837839877896405,0.00026572210626884835,-0.9945479890891928,0.1042779266511415
2025/05/06 15:20:14.40430974,1746537614,40009220,piren,-475.24187300020935,-325.30673443427673,2.36609312507819,0.0012684183281936197,-0.007057683053679642,-0.9945238109082672,0.10426394276717037
2025/05/06 15:20:14.465044247,1746537614,462151423,piren,-475.27158163193116,-325.25441035617655,2.3446124557326895,0.003670907137428809,-0.028745391075875436,-0.9941304158340127,0.104235038477358
2025/05/06 15:20:14.883192069,1746537614,882670275,piren,-475.3084125637288,-325.16528964506625,2.3055173053695617,0.0006884723333602318,-0.0013728202317117653,-0.9945413721622518,0.10433168467959682
2025/05/06 15:20:15.304497786,1746537615,304032869,piren,-475.33600327362905,-325.12887983230036,2.2895617489115816,0.0005700816277826739,-0.0006121377391878587,-0.9945375977688421,0.10437560499708227
2025/05/06 15:20:15.773903446,1746537615,773120026,piren,-475.36239218003885,-325.1303494835077,2.2890403853973513,0.0022388452326406903,-0.02564096307364189,-0.9941922413721204,0.10449552995300743
2025/05/06 15:20:16.197318058,1746537616,196564923,piren,-475.38343901103843,-325.1284603254228,2.2856874097060027,-0.0007830358903488632,0.005958343157431196,-0.9944747499620402,0.10480389634717978
2025/05/06 15:20:16.619959785,1746537616,619431919,piren,-475.3938073821907,-325.17162222931034,2.303779155513116,-0.00018350169266080098,0.006081354599632826,-0.9943144148911232,0.10631005499521591
2025/05/06 15:20:17.45811763,1746537617,45334901,piren,-475.3954878013682,-325.2223951110208,2.32761106169931,-0.0011410151429047696,0.032270419632995144,-0.9934515621083695,0.10959613061415348
2025/05/06 15:20:17.465570534,1746537617,465065856,piren,-475.3891597503262,-325.30853468062605,2.3658874607091414,0.0010267874328470951,-0.0013668838260643067,-0.993717436079301,0.1119050247672295
2025/05/06 15:20:17.888052277,1746537617,886039622,piren,-475.3932591583159,-325.3189216125841,2.3742001585870574,0.0011724767656229387,-0.003945037026632588,-0.9935947445114519,0.112927169717102
2025/05/06 15:20:18.314009986,1746537618,310304738,piren,-475.40622449237003,-325.2785570503628,2.3620656228671213,-0.00021270771215598733,0.00798635673597499,-0.993396132404857,0.1144565287984342
2025/05/06 15:20:18.738090044,1746537618,732812021,piren,-475.42077147627754,-325.2348654100926,2.349108024093051,-0.0016087894514373992,0.02948856286715574,-0.9926934988164454,0.11699339239501849
2025/05/06 15:20:19.208705110,1746537619,204332470,piren,-475.42831422775384,-325.2380514540189,2.3533028799423454,-0.005227367425788421,-0.014010856200870966,-0.9928858712749741,0.11812712288399325
2025/05/06 15:20:19.643355431,1746537619,639084332,piren,-475.43514375401355,-325.1930007374873,2.337839660310638,0.00011793461309720202,0.002875517352640841,-0.9927735262589665,0.11996850857920516
2025/05/06 15:20:20.69752702,1746537620,68406390,piren,-475.4488797636333,-325.1607438841754,2.327159199816735,-0.0030069237153619657,0.03101248639185037,-0.9922508339906507,0.12028078209931703
2025/05/06 15:20:20.506649488,1746537620,505653396,piren,-475.45295184394064,-325.19495968721407,2.342244002012546,0.0014104305528108826,-0.00423563878011537,-0.9926627336484748,0.12083363470208691
2025/05/06 15:20:20.938828449,1746537620,937438105,piren,-475.47011910856037,-325.19516620745696,2.3437280135740544,-0.0023935380424239643,0.030533234044451595,-0.9920175178364254,0.12232431033970134
2025/05/06 15:20:21.365664942,1746537621,364193395,piren,-475.47977231582695,-325.23248096462015,2.3594258125747336,-0.001496490601119129,0.02659378050116351,-0.9920949168263906,0.122630368839753
2025/05/06 15:20:21.792664216,1746537621,788965691,piren,-475.4910837111314,-325.2724458933466,2.37638682271864,-0.0015487478050542802,0.02869941819526014,-0.991847947286374,0.12414344219207149
2025/05/06 15:20:22.220189767,1746537622,219522235,piren,-475.50014870136624,-325.30116743457506,2.389374976238229,-0.001938219963033825,0.027678377731900267,-0.9915752089182485,0.12652571188591308
2025/05/06 15:20:22.687948037,1746537622,687281820,piren,-475.5074449612666,-325.3075838982351,2.3943092829082033,0.0017281079104232747,-0.005719886572245284,-0.9915192522896771,0.12982245136943898
2025/05/06 15:20:23.117853405,1746537623,111719802,piren,-475.52953531402744,-325.2392740558352,2.369881335865077,0.002518686197023316,-0.005335794421391461,-0.9914113101599089,0.130647616146436
2025/05/06 15:20:23.537613462,1746537623,537084479,piren,-475.5571235081875,-325.1475822638403,2.336304563074335,0.0043465520996699,-0.027039570746766113,-0.9908906421972592,0.1318548607544628
2025/05/06 15:20:23.966861019,1746537623,961233514,piren,-475.58754272032667,-325.0382415314989,2.292188809474319,0.001239783499816786,0.0008054482562307112,-0.9913412921528086,0.13130215787556507
2025/05/06 15:20:24.388975825,1746537624,387560289,piren,-475.5989953526586,-325.0057662551237,2.280610046205178,0.00448999537299976,-0.021801849351283827,-0.9912308797116064,0.13025307064545316
2025/05/06 15:20:24.823721751,1746537624,818895858,piren,-475.60951240788773,-324.98477647225184,2.271836124369885,-0.00235129663512255,0.01712875932130415,-0.991356986194756,0.1300476948319227
2025/05/06 15:20:25.262223820,1746537625,257932388,piren,-475.59366732678734,-325.05221186702016,2.2993770455736495,0.0005164748043881626,-0.00047838969736450676,-0.9915911277302868,0.12940842246025575
2025/05/06 15:20:25.694987945,1746537625,692063447,piren,-475.58108535105185,-325.11776432844107,2.3270091515969704,-0.0006198486011253614,-0.001506877637217405,-0.99177498511685,0.12798329580054676
2025/05/06 15:20:26.176921693,1746537626,175435946,piren,-475.5779018831034,-325.1628478694868,2.346807839080099,-0.0034918257696087756,0.026213150086363428,-0.9917785031332307,0.1252041478472373
2025/05/06 15:20:26.601821528,1746537626,601275553,piren,-475.57720955382723,-325.2123493554792,2.367742096928274,-0.00087553991493335,-0.0008922597290537081,-0.9923915643761869,0.1231154752962349
2025/05/06 15:20:27.31389860,1746537627,30860121,piren,-475.59636522380174,-325.20720497443443,2.3676905582743064,-0.00029413474496581184,-0.005141872440273293,-0.9928859680321551,0.11895767784136511
2025/05/06 15:20:27.460503133,1746537627,458942565,piren,-475.6316493783671,-325.15817573279384,2.3507917609990043,0.0028753837116027373,-0.016248499083040224,-0.9931032711983976,0.11607588544181618
2025/05/06 15:20:27.885246511,1746537627,884654073,piren,-475.68816059333426,-325.0766160162304,2.3203983014131992,0.003816657824169519,-0.027620328161128613,-0.9931687309672533,0.1133067624823006
2025/05/06 15:20:28.314121746,1746537628,313292293,piren,-475.75526310007086,-324.98633861974054,2.284012078244671,0.00171398969901952,-0.0023367967910867056,-0.9937932619917675,0.11120500905908363
2025/05/06 15:20:28.758405212,1746537628,757015103,piren,-475.81270609758514,-324.96770848900377,2.27754151280479,0.0019342258795518122,-0.007945998687306482,-0.9940795754313161,0.10834628551732857
2025/05/06 15:20:29.189081327,1746537629,187429334,piren,-475.8757871897978,-324.9827349400477,2.2840905435993784,0.003962387117267033,-0.028320003978244943,-0.9938004865363931,0.10743774859440032
2025/05/06 15:20:29.661845770,1746537629,661421319,piren,-475.9564976028621,-324.9921243701603,2.283837796778867,-0.0020337479133275696,0.020682701095408235,-0.9941166015289697,0.10630273895490466
2025/05/06 15:20:30.93109810,1746537630,92069744,piren,-476.0136759401199,-325.0742418225437,2.313741624679656,3.37481248284539e-05,0.002205262990378236,-0.9943366940251942,0.10625288039039106
2025/05/06 15:20:30.526812795,1746537630,523477943,piren,-476.0891550140128,-325.14579267977246,2.3400733926153516,0.0032948389608604477,0.0008349004958894924,-0.9943770312085899,0.10584312345247145
2025/05/06 15:20:30.965463961,1746537630,958639052,piren,-476.18430258415117,-325.1866331534159,2.3534051051057805,0.0025065223148184423,-9.47926990243955e-05,-0.9942592188941045,0.1069687524668522
2025/05/06 15:20:31.392322948,1746537631,390961012,piren,-476.27727926153364,-325.20245743533076,2.353241058128251,0.0028391393092946013,-0.017388663444745916,-0.9938211026298156,0.10958644824632843
2025/05/06 15:20:31.820860359,1746537631,819981664,piren,-476.3870508524413,-325.1817481353791,2.3328303476501606,0.0004977126170646886,0.001117341366001521,-0.9936874964993407,0.11217692780289233
2025/05/06 15:20:32.251222528,1746537632,250684814,piren,-476.47682620196315,-325.1823999969853,2.320787544976638,-0.0032411938476009897,-0.01830684600834683,-0.9933404485542665,0.11370623253664543
2025/05/06 15:20:32.730757501,1746537632,730251720,piren,-476.56325337848506,-325.15375229014467,2.3010663839296877,-0.0015846962232691757,-0.0223410528988747,-0.9930435196529628,0.11559815815360257
2025/05/06 15:20:33.160621479,1746537633,160184928,piren,-476.6116239704292,-325.0969131289446,2.282869403000005,-0.059322101572907036,0.10875912813709827,-0.9861874871889693,0.10993898500413035
2025/05/06 15:20:33.595993827,1746537633,595358926,piren,-476.50807364500383,-325.26789050024746,2.3434963309047347,0.0009198842515836989,0.022429444171124482,-0.9923803389409698,0.12115005873108009
2025/05/06 15:20:34.24651292,1746537634,24196759,piren,-476.48938467078943,-325.3701723901223,2.3908169857374926,0.0004210738650506623,-0.022293468434803055,-0.9916206739858101,0.12724489335872952
2025/05/06 15:20:34.454106480,1746537634,453114055,piren,-476.54605660166476,-325.3108411455889,2.3799360913566288,-0.002551119178973536,0.032988167800252745,-0.9911620113764519,0.12846454678355237
2025/05/06 15:20:34.884092490,1746537634,883050142,piren,-476.6145296155705,-325.2699362936728,2.379327110551517,-0.0027834740335823346,0.031912924602058614,-0.9909493632662517,0.13035788030594114
2025/05/06 15:20:35.314411797,1746537635,313158915,piren,-476.6710309318426,-325.245729494677,2.381894844640629,0.004997028677094721,-0.029766108773923508,-0.9909559759939509,0.1307488512941332
2025/05/06 15:20:35.742579202,1746537635,740854164,piren,-476.7402153859784,-325.1335845666081,2.342107331889907,-0.002241216332782706,0.02902993677545465,-0.9908269382385576,0.13196294245343418
2025/05/06 15:20:36.221378803,1746537636,219831749,piren,-476.7738706596844,-325.09448590310035,2.3281159047537323,0.0013422355526025638,-0.002433073541142895,-0.9912116110643937,0.13225664689532235
2025/05/06 15:20:36.655375796,1746537636,650974158,piren,-476.77658706557446,-325.08395208054174,2.32189604901875,0.0002944086927668248,0.0030693213432026437,-0.9911270624121491,0.13288204823932317
2025/05/06 15:20:37.81544551,1746537637,81002637,piren,-476.77127883153366,-325.0885784043124,2.3221299819238372,-0.0016092818489083646,0.02300679914512282,-0.9907298395703389,0.1338748758727991
2025/05/06 15:20:37.511710895,1746537637,511175075,piren,-476.75719432302134,-325.13655637898006,2.34041888920123,0.0009167162360761287,-0.0032888889351717116,-0.9908362771423586,0.13502523741725453
2025/05/06 15:20:37.940142973,1746537637,938214471,piren,-476.75555919237985,-325.1491269374461,2.3458680580651596,-0.00093158501884322,-0.020639021900945152,-0.9902215911586553,0.1379650801019806
2025/05/06 15:20:38.386242766,1746537638,385638574,piren,-476.76884646008165,-325.1031900434488,2.3288108175941225,-0.00011802261430747485,-1.2416421916135526e-05,-0.9902480442600193,0.1393154577055313
2025/05/06 15:20:38.839402597,1746537638,838496757,piren,-476.78677439146503,-325.06794603480535,2.318303751092953,-0.0011210553553452321,0.030748442780257942,-0.9895077050706381,0.1411657823529429
2025/05/06 15:20:39.272333606,1746537639,271776389,piren,-476.79414982764683,-325.10213572020257,2.3357239756743984,-0.0002039358707536024,-0.012256935946622168,-0.9898325878096549,0.14170805919707943
2025/05/06 15:20:39.747503662,1746537639,747038364,piren,-476.80572875107936,-325.0950521753601,2.3361848877757803,0.0037773905368523744,-0.0031883258984101307,-0.9898323184928852,0.14215325239225876
2025/05/06 15:20:40.182296742,1746537640,179992614,piren,-476.8210333476254,-325.0784235048453,2.3314644621214855,-0.0013590754577908733,0.03196958671631176,-0.9894026686737972,0.14162788447285657
2025/05/06 15:20:40.610845707,1746537640,609536360,piren,-476.81379774039675,-325.12132990224694,2.348873600170114,-0.0026617822074874228,0.027404775157461196,-0.9896142728836055,0.1410867964024343
2025/05/06 15:20:41.43619960,1746537641,41397454,piren,-476.7963859468705,-325.1781337378647,2.3710278472495894,-0.004825126151820462,0.016392256737660083,-0.9898461691701029,0.1411119181923969
2025/05/06 15:20:41.478430939,1746537641,477774088,piren,-476.78003287547926,-325.2034347323035,2.38141256074115,-0.005754492625652265,0.026212805864078658,-0.9896647913788876,0.14086651599417196
2025/05/06 15:20:41.912039267,1746537641,910732808,piren,-476.76952162223296,-325.2168343393698,2.3867373114296653,-0.0011317800052776839,0.00031892608037146684,-0.9901467401667758,0.14002874811010224
2025/05/06 15:20:42.342468475,1746537642,341038722,piren,-476.7862973323839,-325.1745314135982,2.370681888516202,-0.0020442956423930687,0.01359531845682269,-0.9903504555560685,0.13790200633519314
2025/05/06 15:20:42.774430368,1746537642,773080511,piren,-476.8219350029058,-325.12797923847364,2.355211230050806,-0.004160953889549262,0.027063612086645997,-0.9903369723790756,0.13595193453054924
2025/05/06 15:20:43.248069519,1746537643,244601982,piren,-476.86001622294026,-325.11602038948473,2.3540241775604582,-0.002013726897554183,0.01595724474625945,-0.9909336643493226,0.13338584671288786
2025/05/06 15:20:43.675784511,1746537643,674676924,piren,-476.9023046289591,-325.10726100321205,2.355534250515485,0.006292544425579734,-0.03227314064443305,-0.9907592981425961,0.13158594690006659
2025/05/06 15:20:44.126199610,1746537644,124388194,piren,-476.9694876429816,-325.0240218826792,2.3224895796583778,0.0012944652781132085,0.003029799107283333,-0.9913622899408499,0.13111046777526103
2025/05/06 15:20:44.557206572,1746537644,554699360,piren,-477.0150470732033,-324.991428397248,2.308619133132911,0.0019543254707040493,0.004728220628393471,-0.9914260330324367,0.13056893032880995
2025/05/06 15:20:45.15058127,1746537645,13842034,piren,-477.0516158142923,-324.991900565388,2.307827758288914,0.0037319749645000687,-0.025080899111421227,-0.9911110317987968,0.1305984054625151
2025/05/06 15:20:45.455785746,1746537645,455236390,piren,-477.0835075403424,-324.9747588955678,2.2964924419333386,-0.0037549594597262623,0.03202104214607882,-0.9908611306687368,0.13097623016871213
2025/05/06 15:20:45.886042937,1746537645,884459529,piren,-477.08655129082774,-325.05133651471147,2.3221577765319665,-0.0015503288734051261,0.02160541220718296,-0.9910794820616381,0.13150004897404854
2025/05/06 15:20:46.316990409,1746537646,316082880,piren,-477.0843226635288,-325.1482523986535,2.3579905303607105,0.0006548677080832647,-0.0019785858326943954,-0.9912317727859468,0.13211823858202432
2025/05/06 15:20:46.819289767,1746537646,818770934,piren,-477.09980280050917,-325.1887843912994,2.370919941896542,0.001154304681692806,0.0035829428431389003,-0.991100403650689,0.13306321800079168
2025/05/06 15:20:47.254570295,1746537647,253434905,piren,-477.1279378005241,-325.1786319321657,2.3637138741918946,0.004542579361485633,-0.02384984553819833,-0.9906535755185237,0.13422385463438805
2025/05/06 15:20:47.690044582,1746537647,687214077,piren,-477.1741439136163,-325.10747087928934,2.329700057661616,0.005628490335188859,-0.027146379078073508,-0.9903743635195267,0.13560978682524621
2025/05/06 15:20:48.125971256,1746537648,125578146,piren,-477.2178994473493,-325.0148008454174,2.2870101917011176,-0.00020223345178665102,0.0028803973217108167,-0.9906284230744364,0.13655398130393534
2025/05/06 15:20:48.561638955,1746537648,561018511,piren,-477.22498785995793,-324.9956620978733,2.2804360398593535,-0.0020023320551086675,0.02981033557856285,-0.9901537367808781,0.13675859058171785
2025/05/06 15:20:48.993588485,1746537648,993023131,piren,-477.2038937291781,-325.06128044518334,2.3105048764629172,-0.0023137659874427263,0.02852543134183281,-0.9902643266635932,0.13622595050583478
2025/05/06 15:20:49.427314790,1746537649,426623972,piren,-477.16734683324216,-325.1616211117605,2.355272465388981,0.0015695004138606018,1.5419974510482668e-05,-0.9907124048313509,0.1359649489536069
2025/05/06 15:20:49.860011834,1746537649,859302403,piren,-477.1486100787764,-325.19450959392066,2.371689170404859,0.0005237459428848248,-0.0006756166465447782,-0.9907437468004702,0.1357427618994844
2025/05/06 15:20:50.344593746,1746537650,341399562,piren,-477.13994790817003,-325.18870770553315,2.371495531494249,0.0012363483892567327,-0.0029909192920763643,-0.9907849119729517,0.13540599710204546
2025/05/06 15:20:50.803504658,1746537650,802359346,piren,-477.1480391055437,-325.14353611256445,2.3526484763583615,0.002656890652933485,-0.027339287506584153,-0.9904159363440401,0.13535795996707795
2025/05/06 15:20:51.246829705,1746537651,241910362,piren,-477.1698467543908,-325.0527335996341,2.3116332981566194,-6.044466977938332e-06,-0.0036289555151986417,-0.9907939920341093,0.13532958285033816
2025/05/06 15:20:51.680012396,1746537651,678254678,piren,-477.18526215835703,-325.0050646384885,2.289952677240925,-0.000578331253990946,0.0009566088429480657,-0.9908944299555673,0.13463647022821731
2025/05/06 15:20:52.113618343,1746537652,113026829,piren,-477.193638601941,-325.00626783630713,2.2910363256272688,-3.78969600004222e-05,-0.007936644157601544,-0.991026526731526,0.13342950032801595
2025/05/06 15:20:52.543289301,1746537652,542700351,piren,-477.2007497298135,-325.02290440267745,2.29997824647331,-0.004288855891544788,0.02793873688785361,-0.9909491481613797,0.1312281160974619
2025/05/06 15:20:52.977220357,1746537652,976602566,piren,-477.19649501468655,-325.099055801155,2.3349014323172197,0.0039670528512603135,-0.029293754930129805,-0.9912038312343656,0.12900040061985882
2025/05/06 15:20:53.457804328,1746537653,456942106,piren,-477.2201842788751,-325.08851541224965,2.3333274043746806,-7.168102921006493e-05,0.00036831427163792777,-0.9919714554319207,0.12646142026208815
2025/05/06 15:20:53.889947391,1746537653,889278966,piren,-477.24730421462624,-325.07164311504124,2.3314416945181313,0.0003147086017621225,0.00030736139299628837,-0.9921755891101867,0.12484953688870576
2025/05/06 15:20:54.324035745,1746537654,322267160,piren,-477.2752032963143,-325.05197146143854,2.329914006693026,0.0019486153722455043,-0.003985756658011352,-0.9923222982377217,0.12359924377681446
2025/05/06 15:20:54.771107991,1746537654,767024054,piren,-477.3047820872385,-325.0286518536981,2.326005666183624,-0.0012893624941224312,0.021253565225602233,-0.9922592845437652,0.12234433270999936
2025/05/06 15:20:55.200187144,1746537655,198410617,piren,-477.3175365075811,-325.05464770589566,2.339335086290888,0.0034828873245145824,-0.006630749303526756,-0.9923996590591718,0.12282841429733608
2025/05/06 15:20:55.634581189,1746537655,634021122,piren,-477.3381470605216,-325.05238863445624,2.3391802208681476,0.001491690648416012,0.001817888144573798,-0.9922990248850596,0.12384310781736352
2025/05/06 15:20:56.68401141,1746537656,67778134,piren,-477.35432958312464,-325.05138702811354,2.336959526836603,-0.00017824735220037705,0.012100182810516776,-0.9920068965740299,0.12560203403367196
2025/05/06 15:20:56.502513135,1746537656,501939068,piren,-477.35933989201754,-325.07221851954984,2.341400720783733,-0.002532539998940722,0.02998378968635119,-0.9914632829780858,0.1268665326377082
2025/05/06 15:20:56.979809340,1746537656,979262513,piren,-477.3554799191998,-325.13157812472673,2.359826481773286,-0.002786813753608836,0.028239986869491692,-0.9912916349246429,0.12859094578990515
2025/05/06 15:20:57.414943996,1746537657,413368488,piren,-477.34836043604844,-325.1936219420948,2.3792857501644793,0.000558212275014202,0.0043944504683725485,-0.9915599627323028,0.12957321293558846
2025/05/06 15:20:57.845984096,1746537657,845617554,piren,-477.35538759522007,-325.1956179084187,2.3753843437674282,0.0007683912364137685,0.0018391553280253901,-0.9913152339049601,0.1314919545468144
2025/05/06 15:20:58.283511057,1746537658,283021539,piren,-477.3708846833942,-325.16710748056465,2.3592038924621193,0.000910471820900267,-0.0017454889607864557,-0.9910867301949151,0.13320366939729075
2025/05/06 15:20:58.729554155,1746537658,724960771,piren,-477.38905973614277,-325.1241027216211,2.336943430553427,0.0020744320895495004,-0.008311219122876495,-0.9908675109418116,0.13456669769365776
2025/05/06 15:20:59.163359627,1746537659,162570339,piren,-477.4042318653777,-325.0800333595174,2.3143342347817937,0.0032955502589223215,-0.018218107872776695,-0.990922400910736,0.13315417855752573
2025/05/06 15:20:59.597079148,1746537659,596498534,piren,-477.4141228023414,-325.03579327427576,2.29340106068763,0.003781247485244384,-0.02559478201289274,-0.9911389720149308,0.130284870396965
2025/05/06 15:21:00.35535332,1746537660,34234227,piren,-477.41884229454195,-324.99039980822613,2.272399021388528,-0.00027910918661989796,0.003050888458966142,-0.9916105737640183,0.12922493635930868
2025/05/06 15:21:00.518261991,1746537660,512897916,piren,-477.40288998844585,-325.01127184816914,2.2814665975629973,-0.0015436783652264994,0.01577015629312497,-0.9914481547295093,0.12953561560839635
2025/05/06 15:21:00.956432385,1746537660,953712326,piren,-477.3749322082803,-325.0883220161917,2.315687335634237,0.0038822363527054554,-0.028166852085054168,-0.9911921795885599,0.12934303153630078
2025/05/06 15:21:01.391905075,1746537661,391535401,piren,-477.36866263677996,-325.100855793441,2.3211785576343344,0.0032200498046452445,-0.022508306633946762,-0.9913506710638817,0.12925499755490794
2025/05/06 15:21:01.827501245,1746537661,827023260,piren,-477.37614544388134,-325.07878290329523,2.3113560138559475,0.0038711458574019753,-0.026680608664654083,-0.9912699092274708,0.12906249033393122
2025/05/06 15:21:02.266221530,1746537662,261257300,piren,-477.39275237657665,-325.0369809141273,2.29238155455797,-0.0013113613735776725,0.0024287887304760905,-0.9917104220984246,0.1284633022229112
2025/05/06 15:21:02.707903094,1746537662,704439780,piren,-477.3985871054747,-325.04019967216317,2.2947395119836362,-0.0019424160291071195,0.00952651334599527,-0.991830395572791,0.12719252722294513
2025/05/06 15:21:03.142564938,1746537663,141116720,piren,-477.39610024356625,-325.0820673933826,2.3156350601640967,-0.00483641202584379,0.026425942142666373,-0.9917999733742178,0.1249443536759053
2025/05/06 15:21:03.582542114,1746537663,580316175,piren,-477.3849794025713,-325.1585832183993,2.351729444134526,-0.0008706371103757721,0.00021666114492949852,-0.992429141062892,0.12281528821014381
2025/05/06 15:21:04.70112484,1746537664,64696405,piren,-477.3911663407697,-325.1816840715745,2.3675694412245822,-0.00036643612050388545,0.022803139992256218,-0.9925685453131241,0.11953060439089208
2025/05/06 15:21:04.504660690,1746537664,503160037,piren,-477.40892477169234,-325.1916215576771,2.3788543900792045,0.0017717571635715715,-0.0035658202216616716,-0.9929867442664979,0.1181586709205923
2025/05/06 15:21:04.942834743,1746537664,942249271,piren,-477.4401087060474,-325.1463576487725,2.3659863546191713,-0.0011163049820148243,0.030775300951447107,-0.99263119565441,0.11719617795914414
2025/05/06 15:21:05.383665314,1746537665,380576777,piren,-477.4603469337848,-325.13670229809424,2.3646856006469075,0.002586409518535226,-0.008089075822436927,-0.9930179444331982,0.1176572962965197
2025/05/06 15:21:05.821797009,1746537665,817178159,piren,-477.48511030518137,-325.0866508347329,2.3453863589747734,0.000552923301174546,0.0052815038432645674,-0.9929367471439203,0.11852601471502845
2025/05/06 15:21:06.263655811,1746537666,261522713,piren,-477.498267883812,-325.05656294716056,2.3324388431367966,-0.0013477260349689677,0.023012476786765546,-0.9925913489600799,0.1192938536400012
2025/05/06 15:21:06.705527635,1746537666,704136238,piren,-477.4977539450026,-325.07257163345923,2.3372167753925224,0.003927924522716537,-0.025279226700802196,-0.9924147437318563,0.12024353841262017
2025/05/06 15:21:07.146121562,1746537667,145762427,piren,-477.5081804563531,-325.0366022132239,2.3186176379900227,-0.0029119824335637028,0.024542330935086974,-0.9922808636221987,0.12152317490817527
2025/05/06 15:21:07.630006029,1746537667,629597292,piren,-477.50279768950116,-325.0626517242366,2.3258320198144307,0.0038737585887761087,-0.027342438530779455,-0.9920673220413149,0.12263691771795525
2025/05/06 15:21:08.71700222,1746537668,69780213,piren,-477.51154345252456,-325.0381017038288,2.3126742452844886,0.004381810664165675,-0.028814834481671214,-0.9919693144327711,0.12307471012712333
2025/05/06 15:21:08.508164168,1746537668,507755102,piren,-477.52836955102373,-324.9876025724975,2.2895937351217786,-0.001767367859080421,0.02128920244357789,-0.9920379224543353,0.12411449022033424
2025/05/06 15:21:08.949927378,1746537668,948655243,piren,-477.5248984171845,-325.0204239024532,2.3023412809415533,0.004809593592432628,-0.027685595710197488,-0.9916069612637629,0.12619829623609582
2025/05/06 15:21:09.390400928,1746537669,388104690,piren,-477.53023547089947,-325.0182102732354,2.2995398780397296,0.004311339324994944,-0.028623072410250534,-0.9914425897018407,0.12729384668682883
2025/05/06 15:21:09.828197191,1746537669,827648122,piren,-477.5381987313765,-324.995908135706,2.2870724696730376,0.004021768740169121,-0.0268230270119736,-0.9912580440237455,0.12911948248166813
2025/05/06 15:21:10.270200200,1746537670,269683068,piren,-477.54390351572505,-324.97589957863505,2.2741091050843005,-0.0014902525751160208,0.01757533785388692,-0.9913441077300603,0.13009898814162543
2025/05/06 15:21:10.760182542,1746537670,759726557,piren,-477.52669759732845,-325.0385179162517,2.29718208834894,0.00014805189033978859,-0.004490355080716956,-0.9913575359242937,0.1311108338696678
2025/05/06 15:21:11.205936442,1746537671,202993362,piren,-477.5085057302478,-325.0972695874689,2.3198681574131346,-0.0034205154012081898,0.030388754831092248,-0.9908745494892908,0.13127242981144546
2025/05/06 15:21:11.647161974,1746537671,645560982,piren,-477.4788165804246,-325.1974490569597,2.359220393809343,-0.0021832347919719278,0.020482345391407118,-0.9913991495276485,0.1292417630991068
2025/05/06 15:21:12.84951356,1746537672,84655893,piren,-477.4558935557501,-325.2674115644189,2.387777487401005,-0.0006210130858486752,0.0027289566489508044,-0.9918943843016654,0.1270342376258285
2025/05/06 15:21:12.524009488,1746537672,523599222,piren,-477.4500158091357,-325.2636613446629,2.387048800057582,0.00030309081061741976,-0.001317832834849921,-0.9920243721697554,0.12603894824133813
2025/05/06 15:21:12.967129678,1746537672,966128845,piren,-477.458772066511,-325.2069049026784,2.365245784388765,-0.0036426993345701625,0.030307751718485095,-0.9916238474582487,0.12550026326437955
2025/05/06 15:21:13.405072793,1746537673,404567048,piren,-477.4606600877393,-325.1914919161098,2.359894697078901,0.003732252225903591,-0.027500248557461807,-0.9917567291828754,0.12509355196445918
2025/05/06 15:21:13.842203661,1746537673,841654716,piren,-477.4836572750002,-325.10712530422865,2.3235547660820357,-0.002270312856225198,0.006209971504471293,-0.9922412714657255,0.1241512832536542
2025/05/06 15:21:14.344257747,1746537674,338233232,piren,-477.49694363277035,-325.06012641471136,2.304398443439193,-0.0005935602873676448,-0.0027402899135620202,-0.9924605205153552,0.12253266387280237
2025/05/06 15:21:14.779790482,1746537674,779337393,piren,-477.5043559300822,-325.046776931934,2.3019661448880715,0.0004038116899822002,0.004920638818036884,-0.9926571825205037,0.1208608383232421
2025/05/06 15:21:15.231284859,1746537675,223765319,piren,-477.5110577840703,-325.06341817756686,2.314003004742191,0.0009516606866797423,-0.0007767119462161192,-0.9928629542522102,0.11925453925978578
2025/05/06 15:21:15.670099581,1746537675,669656218,piren,-477.51856959245316,-325.0823094606249,2.3268660278176023,0.0005099400045879599,0.004998329467920662,-0.9930296052823312,0.11775805576069621
2025/05/06 15:21:16.107783252,1746537676,107091747,piren,-477.52278352232315,-325.101153573017,2.3386127152670544,0.004936667840782932,-0.026905822988672216,-0.9926709540452788,0.11771186429059813
2025/05/06 15:21:16.547194596,1746537676,545700691,piren,-477.54106598827065,-325.06329204466243,2.323573333136076,-1.5838674298695883e-05,0.012658139705716125,-0.9929636285951496,0.11774125672626735
2025/05/06 15:21:16.987107477,1746537676,986733327,piren,-477.5457276898538,-325.06857063602007,2.3248237305122283,0.0005334607921964439,0.009053999739477262,-0.9928974167886536,0.11862740089338318
2025/05/06 15:21:17.430117578,1746537677,428824820,piren,-477.54187664585555,-325.0938963624997,2.33363075192657,-0.0021920099074955787,0.026796162903653255,-0.9924447198320772,0.11971064624182881
2025/05/06 15:21:17.918269032,1746537677,917729866,piren,-477.52616078979025,-325.15679196481693,2.356280352123832,-0.0020176664175165495,0.02506973379297597,-0.9923442327554526,0.12091468557114672
2025/05/06 15:21:18.360971969,1746537678,360269337,piren,-477.5085956268357,-325.21951645158134,2.37773229402142,0.0030913806728758444,-0.016914997946191238,-0.9923349936784716,0.12237477898310388
2025/05/06 15:21:18.803914555,1746537678,802444452,piren,-477.51330754727314,-325.18873697620484,2.3604433054472675,-0.00022068163476998974,-0.0022842589559634273,-0.9923220341430941,0.12365967012227658
2025/05/06 15:21:19.246147651,1746537679,245582582,piren,-477.5184651081537,-325.1450165437596,2.338288102643218,-0.00012400286727855058,0.0006085078824898083,-0.9921412216010046,0.12512158383553298
2025/05/06 15:21:19.690680590,1746537679,688383865,piren,-477.5225917713492,-325.1120779656341,2.3216369380211734,-1.920423464663043e-05,-0.0012342832638066556,-0.9921095378278268,0.1253680227453472
2025/05/06 15:21:20.136020417,1746537680,134179087,piren,-477.5241561118234,-325.09420108840504,2.312860010889864,0.0007994726703019308,-0.003046064182341562,-0.9920118171530842,0.1261056579423874
2025/05/06 15:21:20.584679304,1746537680,579165962,piren,-477.52297476827215,-325.09364700249944,2.3114470325350482,0.0013696346045040909,-0.001668645059828299,-0.9921535193923365,0.12500693453610923
2025/05/06 15:21:21.26014832,1746537681,21619490,piren,-477.5192218651559,-325.10765801424816,2.315885118908422,0.0025172501306378343,-0.02822834074245617,-0.9920358897510518,0.12272578244422261
2025/05/06 15:21:21.548772926,1746537681,547419213,piren,-477.52165051555215,-325.08303348005035,2.3028822711514203,-9.857706147522658e-05,-0.005092674477854951,-0.9927748140231785,0.1198842090955644
2025/05/06 15:21:21.994592902,1746537681,990620071,piren,-477.51791641269443,-325.0755763030703,2.300370346708122,0.0027303715720896223,-0.026846784936440556,-0.9925648927934438,0.11868752589718225
2025/05/06 15:21:22.454260006,1746537682,437459217,piren,-477.5216568746024,-325.0465074454237,2.2893753134451402,-7.297975625961385e-05,-0.0006864193548163349,-0.9931500737822362,0.11684371805434568
2025/05/06 15:21:22.884066954,1746537682,883637697,piren,-477.52154206888576,-325.0533336545915,2.2963462757318007,0.003767382190446718,-0.02649568192493203,-0.9929618937888641,0.11537098055402137
2025/05/06 15:21:23.326741022,1746537683,326167693,piren,-477.53249858549896,-325.0361858673339,2.2930380580564917,-0.0030695214873961534,0.03072057650155652,-0.9930182512449593,0.11384892143385976
2025/05/06 15:21:23.770369085,1746537683,769971294,piren,-477.52555922169523,-325.1024677709465,2.324323967982359,-0.0025077232421958097,0.028112688028723392,-0.993169972713039,0.11321127769406082
2025/05/06 15:21:24.212047132,1746537684,210715760,piren,-477.5141732939037,-325.1874931171683,2.362753997110253,0.0004794524744247509,0.002477386354681935,-0.9936136475618595,0.11280758866756858
2025/05/06 15:21:24.653541804,1746537684,653004161,piren,-477.51575302314905,-325.2172862329952,2.3790365984525703,-0.001831446422881265,0.021669082902054167,-0.9934994288313045,0.1117406889277842
2025/05/06 15:21:25.142117764,1746537685,139689840,piren,-477.5192231565837,-325.2308627889854,2.38774370301245,-0.00018134239985841434,0.010902902423497207,-0.9937238909452795,0.11132799467453032
2025/05/06 15:21:25.584373085,1746537685,582691525,piren,-477.52903092288284,-325.2046685965433,2.378688060476618,-0.0026228909457726873,0.029994932640832556,-0.9932820064708782,0.11173307513957116
2025/05/06 15:21:26.25779956,1746537686,23860269,piren,-477.5334807279021,-325.1962437379787,2.374970374812801,0.0005555839493704101,0.010853867068195184,-0.9936575858351177,0.11192178969471037
2025/05/06 15:21:26.467189353,1746537686,463203038,piren,-477.54268315206076,-325.16783332841715,2.3627102659621424,0.0026747266386113215,-0.011170275804020883,-0.9935597210441547,0.11272600185641479
2025/05/06 15:21:26.906249757,1746537686,905872124,piren,-477.55703031962634,-325.1079417667296,2.3362893997263705,0.0006601053444022965,0.0011858809154283246,-0.9934868641057097,0.11393861854872542
2025/05/06 15:21:27.352560055,1746537687,350955655,piren,-477.5649087938226,-325.06610604937765,2.316740899508213,0.0017614366589801475,-0.008742124705667927,-0.9932664982271291,0.11550816462979357
2025/05/06 15:21:27.797311651,1746537687,795830431,piren,-477.56814852904273,-325.0394167228999,2.302931197815179,0.00019608504105628316,0.0027590902619942926,-0.9932026917226731,0.11636478043815429
2025/05/06 15:21:28.239688697,1746537688,239193010,piren,-477.5611554003061,-325.0526803586757,2.3056756658605804,-0.003978848887453437,0.033377656240143466,-0.9925257750209839,0.1173144779830734
2025/05/06 15:21:28.730008179,1746537688,729579959,piren,-477.53561291104904,-325.1405172349918,2.338110462217631,-0.00029854043173379924,0.0020919888195120584,-0.9930144705034059,0.11797370820326934
2025/05/06 15:21:29.169609542,1746537689,169069861,piren,-477.5209891982416,-325.1901148466088,2.35703636850955,-0.0018603763908854366,0.014674594733446358,-0.9929349284364268,0.11773454531292614
2025/05/06 15:21:29.613345168,1746537689,611712176,piren,-477.5128589535484,-325.2178913294749,2.368275918132378,0.003057455372334951,-0.02415248024133958,-0.9927533340941437,0.11767806639216767
2025/05/06 15:21:30.57078580,1746537690,54216547,piren,-477.5253158125849,-325.16494450216464,2.3448646895468204,-0.0036515567324604046,0.027307916022617226,-0.9926682868045826,0.11768864103381552
2025/05/06 15:21:30.506434154,1746537690,504785199,piren,-477.5267975343109,-325.1598561189551,2.342377754169968,-0.0036524215430275907,0.02891006082077687,-0.9926884913307504,0.1171342280449644
2025/05/06 15:21:30.946922778,1746537690,946532686,piren,-477.52103930499044,-325.1903923300416,2.355658330312337,0.0034885255338289456,-0.02662216996162711,-0.9928525968794011,0.11628762241082914
2025/05/06 15:21:31.389382370,1746537691,388553136,piren,-477.5363689313511,-325.1396182229572,2.334949576136297,0.003630912312202575,-0.02872454047258805,-0.9928673131930376,0.11565559062690622
2025/05/06 15:21:31.875471723,1746537691,874848681,piren,-477.5624750761983,-325.047386778882,2.2966682790686366,-6.617133046806632e-06,-0.0005187240185688508,-0.9933846277996166,0.1148334103517934
2025/05/06 15:21:32.321116091,1746537692,318741218,piren,-477.5744128823632,-325.0127693890709,2.2853022876845066,-0.0012636461279634907,0.010112002730275451,-0.9934304958375177,0.11398245715578298
2025/05/06 15:21:32.773325926,1746537692,758315139,piren,-477.5711905462078,-325.0408171683725,2.30191076929729,0.0037682279801465038,-0.02595357986455332,-0.9932779730544381,0.11274342728057776
2025/05/06 15:21:33.202146108,1746537693,200220240,piren,-477.57732386717703,-325.03383679856495,2.30230757603282,0.000759637398204024,0.0013332615147018155,-0.99366170340254,0.11240135477795331
2025/05/06 15:21:33.648971338,1746537693,648444117,piren,-477.5772157019914,-325.0530745088007,2.3133263224989893,0.001370268613084471,0.005302972343618818,-0.9936405176847134,0.11246565014930383
2025/05/06 15:21:34.92012166,1746537694,91460936,piren,-477.574542879168,-325.08708928644285,2.329864855130097,0.001273046887780745,0.00013098126488540835,-0.993579092277245,0.11313244267254058
2025/05/06 15:21:34.537291062,1746537694,535653762,piren,-477.5713139166567,-325.11279476654244,2.3406605519292194,0.0004595444042828261,0.0005871389941420852,-0.9934377390604373,0.114371774040751
2025/05/06 15:21:34.980556538,1746537694,979911647,piren,-477.5666282247063,-325.126150791871,2.3439986274106652,-0.0027725076417193396,0.028503085446304057,-0.9929204995270882,0.1152769228436249
2025/05/06 15:21:35.467974195,1746537695,467295338,piren,-477.5517841250416,-325.1740404547256,2.359994728031774,-0.000513650502520633,0.003316766534650553,-0.9932221067307073,0.11618339779990623
2025/05/06 15:21:35.915438446,1746537695,913882005,piren,-477.54455141472533,-325.1855032693557,2.361501407674149,0.0006848023870095519,-0.0030735767948451838,-0.9931940204186638,0.11642904266542739
2025/05/06 15:21:36.365196778,1746537696,362075815,piren,-477.54667363735336,-325.160864519677,2.348971669326553,0.0030351258851302855,-0.02405723808861572,-0.9928618746938128,0.11677900104854705
2025/05/06 15:21:36.809596226,1746537696,806499956,piren,-477.56358823212855,-325.08074484268076,2.3134109945454733,-0.002883753447241707,0.02845431300384093,-0.9927253098484566,0.11695509917836402
2025/05/06 15:21:37.252150388,1746537697,251628783,piren,-477.559441937212,-325.0972760129762,2.31894106563864,-0.003199481201024465,0.03338431557788707,-0.9925070342204478,0.1174948416585649
2025/05/06 15:21:37.698659573,1746537697,696589937,piren,-477.5433070700036,-325.16622986644245,2.3458676510032355,-4.134731621112994e-05,0.005236160702585261,-0.992987817491973,0.11810069950692262
2025/05/06 15:21:38.144299341,1746537698,143759956,piren,-477.5342743401333,-325.2027754743749,2.361126937438095,0.0035456343928993287,-0.026661691249573287,-0.9925651468390086,0.11870556843266324
2025/05/06 15:21:38.598494070,1746537698,597038799,piren,-477.5448074943386,-325.15511810229475,2.3393735273507628,-0.004130188531456071,0.03322254816451528,-0.9923346581231094,0.11895852270368384
2025/05/06 15:21:39.96480753,1746537699,95994355,piren,-477.5384592152567,-325.1684780118918,2.3421172852482752,0.0021780954722622663,-0.026286919401848977,-0.9925143256812337,0.11924582628335695
2025/05/06 15:21:39.545140580,1746537699,543640462,piren,-477.5451945404587,-325.1225799090479,2.3214667047636848,0.0006630685213710785,-0.015859875835794235,-0.9927635374733785,0.11903185851675581
2025/05/06 15:21:39.994376715,1746537699,993314031,piren,-477.5554103376626,-325.0663177765951,2.299590026900179,-0.0028185209283372423,0.01676513145830608,-0.9928020244436612,0.11855431905894545
2025/05/06 15:21:40.450272099,1746537700,447101185,piren,-477.5525474782376,-325.0762405296326,2.3084182757472442,-0.0007442403934240298,0.0018250441197412786,-0.9929985570074735,0.11811003810546042
2025/05/06 15:21:40.895151945,1746537700,894723489,piren,-477.55069889881224,-325.0928434141388,2.322933809032479,0.0006937502798496755,-0.013309980922205478,-0.9929658203509132,0.1176488110149771
2025/05/06 15:21:41.342866963,1746537701,342160870,piren,-477.5575523956063,-325.07901476275777,2.325104602989315,-0.004343761640173779,0.03070529338654014,-0.9926654584397476,0.11684863847501806
2025/05/06 15:21:41.793573632,1746537701,788708785,piren,-477.55230886590067,-325.11755766035685,2.348451995645819,-0.00040810500663092034,-0.003716644017285566,-0.9931949219975613,0.11640389566423641
2025/05/06 15:21:42.242412527,1746537702,241362079,piren,-477.5569440822505,-325.10965992196,2.354012122831592,-0.00023682074182710192,-0.008532891376650456,-0.9932445007778682,0.11572594935974373
2025/05/06 15:21:42.742083124,1746537702,735541702,piren,-477.57059946997634,-325.0577179514665,2.3434099306521503,-0.0037342477831090832,0.026091714595717234,-0.9930410777431143,0.11478107743763302
2025/05/06 15:21:43.188464437,1746537703,187096772,piren,-477.57489190787624,-325.04311033778737,2.3486162872102048,0.00012263995664611526,-0.005115835350842798,-0.9933989948900469,0.11459603020850542
2025/05/06 15:21:43.636593206,1746537703,633532358,piren,-477.586517026228,-324.99377244681165,2.3416886394674736,0.0026929298164751823,-0.02803021231047736,-0.9930247781773076,0.1144938655681705
2025/05/06 15:21:44.81486670,1746537704,80821042,piren,-477.6085164527648,-324.8904725594782,2.3119633462726545,6.57093095031738e-05,0.0026043737199266856,-0.9933575610206274,0.11503898853416636
2025/05/06 15:21:44.531843602,1746537704,530390499,piren,-477.62005684810856,-324.82681872575847,2.3014060524682716,-0.0006501239340110969,0.0031801250197573874,-0.9932287486149985,0.1161297423936404
2025/05/06 15:21:44.977941686,1746537704,977382494,piren,-477.62001787641003,-324.7982142216274,2.307107544750354,-0.003373047460004739,0.028781639871826022,-0.9927391104598534,0.11674458582949401
2025/05/06 15:21:45.430186622,1746537705,429648003,piren,-477.60375644798324,-324.83224926659227,2.3378828943194385,0.0002596642257051814,0.00017213092879076307,-0.9931135859013587,0.11715506153631684
2025/05/06 15:21:45.925770092,1746537705,924127702,piren,-477.5958094489422,-324.83270590759173,2.3569752591961803,0.0012095622673470752,-0.008469336661336363,-0.9930556330560976,0.117334210489489
2025/05/06 15:21:46.372476180,1746537706,372099204,piren,-477.6021415642393,-324.77969039355395,2.3513825835746616,-0.003119277507169987,0.03255749932628754,-0.9925699664083378,0.11719701843307831
2025/05/06 15:21:46.823843597,1746537706,821626901,piren,-477.5994837120147,-324.7684770501403,2.361118841154711,0.0012436333910347945,-0.0007531827134499279,-0.9930540434791295,0.1176501288632526
2025/05/06 15:21:47.271373921,1746537707,270839741,piren,-477.6068715063701,-324.71803785748295,2.355450211713588,3.919466778009228e-05,0.010789482711329308,-0.9928502739071747,0.11887774867084339
2025/05/06 15:21:47.723004997,1746537707,720326156,piren,-477.61262413729247,-324.66837307945923,2.3499762164706,0.003993527119815663,-0.028121728178032865,-0.9923179142498009,0.12040920730720336
2025/05/06 15:21:48.170693439,1746537708,170160639,piren,-477.6273668945444,-324.5631220433097,2.318048421210231,0.0029189411839279427,-0.026520970293026174,-0.9921001430384049,0.12257823665014014
2025/05/06 15:21:48.622983258,1746537708,616677156,piren,-477.6402163574729,-324.44985155761606,2.2822388385277317,-0.000348890422105442,-0.002682698017212465,-0.9923583745450887,0.12335938503839715
2025/05/06 15:21:49.66801705,1746537709,66310227,piren,-477.6367931066004,-324.3941852480785,2.2740429626602876,-0.005347762515683597,0.029039862347433942,-0.9918847143582078,0.12366406613666933
2025/05/06 15:21:49.555211687,1746537709,553952393,piren,-477.60779726468223,-324.4371134335611,2.3085896980495084,0.0024320220019091086,-0.01519374013046921,-0.9922886179514812,0.12298997607028667
2025/05/06 15:21:49.998808579,1746537709,998314981,piren,-477.59632303015474,-324.4332725379116,2.3270565270911594,0.0002617166640374851,-0.013485680810517943,-0.9924722804496988,0.12172444477769871
2025/05/06 15:21:50.452294603,1746537710,450522439,piren,-477.5960945179527,-324.38750221438454,2.330518697828168,-0.005050273660702985,0.027566151693596615,-0.992406686532439,0.11976464646323179
2025/05/06 15:21:50.903198341,1746537710,901872115,piren,-477.58662543831844,-324.3803959033619,2.3506654602033703,-0.0016462129061164702,-0.0008724741830673001,-0.9930499517249445,0.11767889424596566
2025/05/06 15:21:51.354271901,1746537711,350908444,piren,-477.59016041641064,-324.3274508547772,2.3556955049788177,-0.002593079388245416,0.00015815203370560048,-0.9934624941607906,0.11412941611627431
2025/05/06 15:21:51.850798398,1746537711,845693950,piren,-477.60386764030636,-324.23709511907833,2.3502228843224175,-0.001272527377901132,0.0015093593658152711,-0.9939752767128988,0.10958673182413026
2025/05/06 15:21:52.294326134,1746537712,293826583,piren,-477.62590161194925,-324.13519018315856,2.3402548092507316,-0.0003540546682452238,-0.0023405935929266355,-0.9943254120028994,0.10635493083157471
2025/05/06 15:21:52.786020711,1746537712,784499263,piren,-477.66010133339904,-324.0142903996508,2.3279414865795784,-0.0017423871050005516,0.020924146852883727,-0.9948260218224507,0.0993998514615196
2025/05/06 15:21:53.238451464,1746537713,237835653,piren,-477.6896781155666,-323.9518359202409,2.3355106624713025,0.002686115770076917,-0.02805600594585228,-0.9953375406359115,0.0922432952213401
2025/05/06 15:21:53.686438819,1746537713,684979347,piren,-477.7339692730671,-323.83023554125,2.3172759820847633,-0.0020481993124901957,0.028988655417079852,-0.9957615449589723,0.0872605771102096
2025/05/06 15:21:54.131782058,1746537714,131044856,piren,-477.76812082319697,-323.78118999365387,2.3291667619561873,-0.0003077704173791506,-0.0013812378271297813,-0.9967854723112295,0.08010442964477317
2025/05/06 15:21:54.581581259,1746537714,581073176,piren,-477.80473299544377,-323.7168324547879,2.3360587510351816,0.0045392865545457765,-0.029603794369658605,-0.9967082391157811,0.07533721733123565
2025/05/06 15:21:55.29719703,1746537715,28261409,piren,-477.8571168436286,-323.5873152452832,2.315854794648706,-0.000631387144363255,0.02732480745955356,-0.9972305394604128,0.0691679652372855
2025/05/06 15:21:55.482244518,1746537715,481060246,piren,-477.8987826296034,-323.5313535089036,2.3259910307158793,0.0008080198067205772,0.029065706463373017,-0.9974473621357102,0.0652172644342786
2025/05/06 15:21:55.946307871,1746537715,945057721,piren,-477.9391409024124,-323.5184006595772,2.3527972365865577,0.002398502803762601,0.000589511049773766,-0.9982965606770863,0.05829130811127381
2025/05/06 15:21:56.436063398,1746537716,435441713,piren,-477.9893029958221,-323.45976955891376,2.3636926572586514,-0.000830178861948006,0.01488149029279938,-0.9985520942972307,0.05168720368076816
2025/05/06 15:21:56.884414029,1746537716,883860834,piren,-478.03027633973636,-323.3964451943268,2.3668559762154113,0.00030008903943627604,0.0026545200172711433,-0.9987365413434575,0.050181515076319023
2025/05/06 15:21:57.332277849,1746537717,331717597,piren,-478.07499526349386,-323.3042328531685,2.3575180631919173,4.0057963584217e-05,-0.015217743108658794,-0.998840884128673,0.045665160495604026
2025/05/06 15:21:57.780220878,1746537717,779399907,piren,-478.12127466893133,-323.16890077490103,2.3305919923879643,-0.002130858941420759,0.03488886797766769,-0.9983883253986646,0.04470993221935148
2025/05/06 15:21:58.230452860,1746537718,229451823,piren,-478.16068811088365,-323.1134465925057,2.3357056947179458,-0.002015407139794899,0.032410807516472705,-0.9985591059872874,0.0427222370676036
2025/05/06 15:21:58.678102109,1746537718,677619404,piren,-478.1980416947782,-323.0911359400161,2.3578644125004136,0.003841378772115623,0.004517579215760261,-0.9990693332140482,0.04272356163050639
2025/05/06 15:21:59.125637868,1746537719,125260401,piren,-478.24639031179214,-323.02326766423226,2.3647521660074853,0.0019328803496114133,-0.008519687732092433,-0.999037067893266,0.04299553313691789
2025/05/06 15:21:59.623461103,1746537719,621846001,piren,-478.30098746035605,-322.9057124100283,2.3512611577334743,0.006647636369180048,-0.030263709686862587,-0.9985630410000751,0.0437237916399631
2025/05/06 15:22:00.72690074,1746537720,72304599,piren,-478.3543954304808,-322.7460199048925,2.3114347621137843,0.002559374167448828,-0.01145030824704577,-0.9988846478526382,0.0457362037037365
2025/05/06 15:22:00.523425160,1746537720,521667404,piren,-478.3950033430029,-322.62696351532105,2.2844542286700076,0.0027064658158079753,0.00034143256395906317,-0.998800066594807,0.04889770379886294
2025/05/06 15:22:00.973122100,1746537720,972564421,piren,-478.42252733651424,-322.5843251273142,2.283416764098601,0.002888522547633715,0.0010916083495022585,-0.9986770936346778,0.05132764828137174
2025/05/06 15:22:01.421828133,1746537721,420974375,piren,-478.4428238032323,-322.586796738667,2.3002297784076777,-0.0017382479096619437,0.007167459673071148,-0.9985513071221765,0.053300028711363655
2025/05/06 15:22:01.873097514,1746537721,871448599,piren,-478.45056192913137,-322.6194032490551,2.326613253696478,-0.0002720218576058295,0.005185598140744118,-0.9983507545920653,0.057173476206064916
2025/05/06 15:22:02.322500476,1746537722,321939492,piren,-478.4562661884093,-322.6418457479236,2.3483254133581095,-0.0015599425707613385,0.008883087156156416,-0.9980246815942505,0.06217227895490918
2025/05/06 15:22:02.818102389,1746537722,812566628,piren,-478.4630805578899,-322.63028784446027,2.3620583139949463,-0.0005144995530448988,-0.00043935904504223904,-0.9978656983115304,0.06529617436788669
2025/05/06 15:22:03.264069872,1746537723,262490559,piren,-478.4769753676834,-322.5670725579374,2.3583811592507464,0.0010240633399302306,-0.002432646886744448,-0.9975361814241503,0.07010421009557741
2025/05/06 15:22:03.713648428,1746537723,713125982,piren,-478.49572373558857,-322.4808936636454,2.3443799709475504,0.0019088702949512718,0.001474501432223994,-0.9973619789070505,0.07254836380191977
2025/05/06 15:22:04.164625265,1746537724,162239694,piren,-478.5161548600681,-322.38935856740284,2.331069684838141,0.0002721585974966873,0.0008216648895201846,-0.997071254741702,0.07647328791359284
2025/05/06 15:22:04.613058842,1746537724,612459000,piren,-478.53098692518125,-322.32055746410435,2.322898486753337,0.002215407421675937,-0.00021324784963943982,-0.9969767080305555,0.07766910672762381
2025/05/06 15:22:05.65181188,1746537725,63879232,piren,-478.5423601169216,-322.2747874618835,2.3203501816085494,0.0004609130480253851,0.00020295021017587662,-0.9968424931099418,0.07940270965609557
2025/05/06 15:22:05.530646344,1746537725,529987687,piren,-478.54964112114413,-322.22822080595364,2.3215886061788575,-0.000795365469468995,0.004459896152765676,-0.9967308622598522,0.08066638047419838
2025/05/06 15:22:06.4078958,1746537726,3504498,piren,-478.54889340931965,-322.2064544261775,2.328753155447371,0.00047415912651047987,0.0006937760279717532,-0.9968334818690358,0.07951291261676084
2025/05/06 15:22:06.502983880,1746537726,501540812,piren,-478.54975590454427,-322.17143497383023,2.3347772948668837,0.0016687672447463664,0.002735564425466987,-0.9968000148300623,0.07987153646916147
2025/05/06 15:22:06.952138603,1746537726,951529855,piren,-478.5551796920986,-322.12830345930735,2.338249202105503,0.003557334064150216,-0.029533813957168698,-0.9964100067595121,0.0792603156504476
2025/05/06 15:22:07.403946589,1746537727,403376235,piren,-478.5705379699692,-322.0306907900808,2.3151111061710377,0.0013218343265715966,0.00960692229427799,-0.9969049968783624,0.07801529976227096
2025/05/06 15:22:07.861130448,1746537727,856444928,piren,-478.58066677700225,-321.97974041433713,2.312350687612945,-0.0008400174734074199,0.023432230913230087,-0.9967581115978064,0.07696422473492721
2025/05/06 15:22:08.309214056,1746537728,308611996,piren,-478.57844933489486,-321.979161167532,2.3320501197941543,-0.0009706652018836216,0.030501119836046198,-0.9965469565632152,0.07721983464373885
2025/05/06 15:22:08.761478254,1746537728,760922225,piren,-478.5649553092098,-322.0217121265716,2.362718259057053,0.0028653722804886195,-0.026154875178673306,-0.9965725047555256,0.07842802376306686
2025/05/06 15:22:09.211813023,1746537729,209575577,piren,-478.5630102924779,-321.9629471000845,2.354334281157334,0.00031612666016378634,-0.00265675742664477,-0.9968035699408079,0.07984663209661177
2025/05/06 15:22:09.706323623,1746537729,705554270,piren,-478.5627100665286,-321.8789026044419,2.3360850160795623,0.001541169290705702,0.002558671309645736,-0.9966892911370215,0.0812498303452273
2025/05/06 15:22:10.156756635,1746537730,156070998,piren,-478.56140301316293,-321.81033822974626,2.324117410937571,0.004166927764578243,-0.031984449953620944,-0.9961032720146724,0.08208473156338411
2025/05/06 15:22:10.609986971,1746537730,609394184,piren,-478.56890038101636,-321.7040537866197,2.2940748951228347,-0.0020537146102148525,0.032330089274382925,-0.9961281257018171,0.08172701370780196
2025/05/06 15:22:11.62662587,1746537731,62227845,piren,-478.5591481253754,-321.7007410401756,2.306742483169225,0.001059215357030396,0.002819448301896316,-0.9966364146225141,0.08189496823664219
2025/05/06 15:22:11.514810160,1746537731,514312415,piren,-478.5457254309049,-321.7199684215134,2.328459800506588,0.003105283050787968,-0.025515597660345144,-0.9962108113881957,0.0830862850684923
2025/05/06 15:22:11.965873490,1746537731,965387538,piren,-478.53917805445434,-321.6772367117034,2.3231574101385526,-0.0019461488048119475,0.029497359892318973,-0.99588547519762,0.08566351939199829
2025/05/06 15:22:12.425993599,1746537732,416792535,piren,-478.5211659050525,-321.69751226293494,2.3419592681185395,0.0032054038620246148,-0.02766393069880457,-0.9957596595448828,0.08767629524239962
2025/05/06 15:22:12.870303004,1746537732,869799059,piren,-478.51179356838094,-321.638881046848,2.3297302142994525,-0.0011370818307784112,0.025202160370464095,-0.9955061377859189,0.0912747927312603
2025/05/06 15:22:13.366098981,1746537733,365812904,piren,-478.49304014352236,-321.6218451480656,2.33648371090267,0.0022615213855836642,-0.01424579682005122,-0.9954423236132228,0.09426835711675584
2025/05/06 15:22:13.819818507,1746537733,819249134,piren,-478.4819566573457,-321.5727206852962,2.3290161678467123,0.003159519249229484,-0.016908342079849703,-0.9952363169838705,0.09596248622563622
2025/05/06 15:22:14.268990475,1746537734,268312367,piren,-478.47511278185215,-321.5017970932572,2.312080127774128,0.0011315201664343529,-0.0029415912876441267,-0.9950373629072202,0.09945206444038474
2025/05/06 15:22:14.720563993,1746537734,720059707,piren,-478.4611110240522,-321.4537000177577,2.305269916978271,0.0028093586552745604,-0.020756208596997394,-0.9946093497750342,0.10155554464778274
2025/05/06 15:22:15.172975764,1746537735,172469173,piren,-478.4471790753198,-321.4036755817538,2.294628287676259,-0.0027672621001782736,0.024884477104966052,-0.9942389225349522,0.10422125491577414
2025/05/06 15:22:15.628110894,1746537735,626936263,piren,-478.4163822078976,-321.43370555243655,2.31711345309911,-0.0006747867674228486,0.00124539861731113,-0.9943779947285989,0.10587916341109437
2025/05/06 15:22:16.81935993,1746537736,80461901,piren,-478.3879200052799,-321.4525547095459,2.337160594934082,-0.0015259720214873631,-0.003473448272287919,-0.9944268487426853,0.1053605669412518
2025/05/06 15:22:16.577333658,1746537736,575752712,piren,-478.3642765603141,-321.4386928845534,2.346200824660071,-0.00195518397645744,0.0054414430694413735,-0.9944958006994109,0.10461677850219797
2025/05/06 15:22:17.30489270,1746537737,30018186,piren,-478.3519622980988,-321.40363719164594,2.348784500857192,-0.0036033076914256173,0.017393643412165996,-0.9945757082417861,0.10248725734393044
2025/05/06 15:22:17.483762241,1746537737,483088051,piren,-478.3425636527691,-321.3722234970896,2.355484750688409,-0.0015331872348719115,0.0010647578250969295,-0.9949818804943779,0.10003785841144529
2025/05/06 15:22:17.940688621,1746537737,940056339,piren,-478.34337061536206,-321.3093641716767,2.351513993534068,-0.0027780785668703144,0.030383540622954248,-0.994848262714547,0.09667500665910171
2025/05/06 15:22:18.393297829,1746537738,391764760,piren,-478.34502323222483,-321.2761683749857,2.361020981478457,-0.0007689607656983539,0.0005357608778787317,-0.9955477149143485,0.09425427835616688
2025/05/06 15:22:18.846935129,1746537738,846445160,piren,-478.35541268019614,-321.2052580030352,2.3563294560962387,-0.002967827686366624,0.030064568226586805,-0.9954166941432742,0.09073543275396047
2025/05/06 15:22:19.305243031,1746537739,301969991,piren,-478.3602055279578,-321.16354546769566,2.363511130852125,0.0012039112743309221,-0.0024085162886899715,-0.996050062980419,0.08875258691234936
2025/05/06 15:22:19.801449664,1746537739,801152108,piren,-478.3756590979525,-321.075358218779,2.3547689712691877,0.0027317203428474032,-0.0266820771390182,-0.9959099970402636,0.08627793610638917
2025/05/06 15:22:20.257468437,1746537740,252929873,piren,-478.39925100112924,-320.9363297630749,2.319763178038959,0.0004873411388120694,0.013563856153112975,-0.9963193166671386,0.08463807382495364
2025/05/06 15:22:20.704093680,1746537740,703599433,piren,-478.4122997933806,-320.85910400495555,2.310364403229352,0.003200953439713447,-0.02837959501892847,-0.9960378184671156,0.08422004907922817
2025/05/06 15:22:21.182591440,1746537741,157559008,piren,-478.42965011194053,-320.7492482841965,2.2878993413818853,-0.0003385024064273094,0.03211432633401839,-0.9959868433712594,0.08353899264168409
2025/05/06 15:22:21.614895352,1746537741,613837457,piren,-478.42759942473094,-320.7592009389266,2.3107581780231596,0.002000602116382504,0.002543928748407876,-0.9964014523318745,0.0846975313018416
2025/05/06 15:22:22.69564176,1746537742,66916134,piren,-478.42339408200337,-320.7720565731668,2.332531815496309,0.003007558354228318,-0.012255160824496387,-0.9962018826894322,0.08615436467145718
