time,header_stamp_secs,header_stamp_nsecs,header_frame_id,twist_linear_x,twist_linear_y,twist_linear_z,twist_angular_x,twist_angular_y,twist_angular_z
2025/05/06 15:20:05.943056868,1746537605,911856557,piren,5.526975792431919e-06,-0.0001599774368057096,6.604235075271947e-05,2.1923283717962742e-05,3.6608450936547757e-06,2.3514043126426995e-08
2025/05/06 15:20:06.979951895,1746537606,945742044,piren,5.651123729162797e-06,-6.748269797724602e-05,2.5183056959003702e-05,-2.5393926708664744e-05,-6.319475985891524e-06,1.886557788319602e-08
2025/05/06 15:20:08.106997630,1746537607,942371332,piren,-1.8964191030849752e-05,0.00016604098073032402,-7.298252852003381e-05,2.5456271490905107e-05,-5.48179819151329e-08,8.770507127616852e-09
2025/05/06 15:20:08.932416505,1746537608,920104540,piren,-1.5999730976349956e-05,0.00010173682489978275,-2.4418189425508193e-05,2.0568558440029554e-05,0.0006746851750767684,-1.2330921856769617e-06
2025/05/06 15:20:09.449559646,1746537609,440502316,piren,0.0011275688258594666,0.0006013121480921854,4.074410073342951e-05,-2.151293736651022e-05,-0.0001071324728330928,4.892984957600418e-06
2025/05/06 15:20:09.917723310,1746537609,899909234,piren,0.0004633863055462054,0.003086546352188017,1.4766321551600088e-05,7.12856519529754e-07,-0.0004644067460876627,1.0692282410030635e-05
2025/05/06 15:20:10.454602828,1746537610,446632171,piren,-0.0009331392888723574,0.005362678237179645,4.1238675549019963e-05,1.5252099399410313e-06,0.00021814748672731717,1.7180580493622522e-05
2025/05/06 15:20:10.994270214,1746537610,969119115,piren,-0.0026271061599798346,0.00810457085763148,-7.1588363861298845e-06,-2.168801106114003e-05,-0.0007986091478678862,1.9126982062409675e-05
2025/05/06 15:20:11.416680794,1746537611,410636617,piren,-0.0035547727415630873,0.008238169171363843,-2.842509623079545e-05,0.0011312383945936704,0.0009144789987234984,2.0994810670331956e-05
2025/05/06 15:20:11.870373401,1746537611,859569337,piren,-0.006539266886966092,0.012556011598053664,-0.0026663608461783683,-0.0009822426612053976,-0.00037507267951814,4.683105850190903e-05
2025/05/06 15:20:12.302246602,1746537612,288149342,piren,-0.009281519406704122,0.00147933267176115,0.0013989910787676457,-0.0010061954691990998,-0.0007498252418541219,5.775653377117245e-05
2025/05/06 15:20:12.765819968,1746537612,759696313,piren,0.007709874437387238,-0.11340442602458976,0.04549827059065464,0.00014536828657933483,0.000439818779790238,3.4464934003793124e-05
2025/05/06 15:20:13.199480799,1746537613,192790248,piren,-0.01603180415886507,-0.03520801519580316,0.014451382008329856,0.0004764275399993157,2.3757744162826704e-05,-1.0828820093732849e-05
2025/05/06 15:20:13.625390427,1746537613,618502785,piren,-0.01271832608654202,-0.08436482042902724,0.03301735420164796,-0.0009680721177762946,-0.000999758153775744,-6.104511573710349e-05
2025/05/06 15:20:14.43832087,1746537614,40009220,piren,-0.04340642809966064,0.028992289574262323,-0.011604473815647005,0.0006294595551098533,0.00040539538382875173,-2.9456992424218583e-05
2025/05/06 15:20:14.466058773,1746537614,462151423,piren,-0.06547681622314465,0.11592743018927677,-0.04759564138817949,-5.8192011304813295e-05,0.0004299853842879584,2.1846894932396487e-05
2025/05/06 15:20:14.886477568,1746537614,882670275,piren,-0.08953138251658836,0.21165748910957544,-0.0924670481623748,-9.357821205435548e-05,-0.0009068745808919129,8.721428708585778e-05
2025/05/06 15:20:15.311839995,1746537615,304032869,piren,-0.07097533590781475,0.10374742012022606,-0.04543350903262342,-0.0004237938727894057,0.0004373926561858562,0.00013977542362637592
2025/05/06 15:20:15.779930430,1746537615,773120026,piren,-0.050548040529656446,-0.015350923503728797,0.004126360369968801,-0.002622392985465449,0.005483713913681347,0.00017415920331900387
2025/05/06 15:20:16.215432398,1746537616,196564923,piren,-0.051771288535564765,0.002686837155215737,-0.0070473353830097715,-0.003064183715767901,0.00014909668073468445,0.000915944563545743
2025/05/06 15:20:16.623728185,1746537616,619431919,piren,-0.023456642755490777,-0.0959148613899285,0.04015669327812482,-0.002187805699809016,-0.001151444522045154,0.0040202361900034895
2025/05/06 15:20:17.49156410,1746537617,45334901,piren,-0.006504546756877776,-0.12417049850387202,0.05770912316125966,0.001909268093320197,0.0012820983849450125,0.008775490905851918
2025/05/06 15:20:17.471946297,1746537617,465065856,piren,0.014047323812656227,-0.1917670526062008,0.08521886843887373,0.0019415389546414696,-0.0009670478750001369,0.007202557552315513
2025/05/06 15:20:17.889707392,1746537617,886039622,piren,-0.007811235884127913,-0.040826469149942285,0.026359002837822637,-0.000495629985676791,-0.0013127347389115523,0.007988563135099314
2025/05/06 15:20:18.315799345,1746537618,310304738,piren,-0.02978427092493783,0.08464214904870487,-0.0236974407307516,-8.72654195827963e-05,-0.0012237777099563091,0.008188851718399854
2025/05/06 15:20:18.738875087,1746537618,732812021,piren,-0.032023086817980384,0.09623088750472589,-0.028553728418980233,0.0007705266696419877,0.00034606760956117495,0.007958479477244328
2025/05/06 15:20:19.208725109,1746537619,204332470,piren,-0.017072897949401325,-0.006154432331504436,0.00904844287799677,-0.0013928553026326096,0.00010629174905777664,0.0074726405664936
2025/05/06 15:20:19.644255991,1746537619,639084332,piren,-0.015019993514942856,0.10018861674361715,-0.03445357391506276,-0.00029620540900012865,-0.0012032783603554361,0.007521342036835402
2025/05/06 15:20:20.74009691,1746537620,68406390,piren,-0.03065515742982805,0.07252443144620911,-0.02402389071405138,0.0009307398671816016,-0.0002892762036388878,0.005288426206931755
2025/05/06 15:20:20.510694521,1746537620,505653396,piren,-0.012580478212112015,-0.06793372271413291,0.030859839984793573,0.00014445515431413895,0.0007271531564942657,0.006073020103647701
2025/05/06 15:20:20.941369042,1746537620,937438105,piren,-0.03799995087510959,0.00037474535374740214,0.0029194875818516486,0.0008109800938286351,-0.0006713744395615952,0.00485050867785642
2025/05/06 15:20:21.393108413,1746537621,364193395,piren,-0.025690283059293304,-0.08289243643062008,0.03521467187366071,-0.002223338298200052,0.002417428986771668,0.004527756585422685
2025/05/06 15:20:21.797277713,1746537621,788965691,piren,-0.025254486504763717,-0.08919273136571036,0.03785331799568802,0.00041213909549394593,-0.001131567217137433,0.005840206132618127
2025/05/06 15:20:22.239220793,1746537622,219522235,piren,-0.020012771054189013,-0.0633553374240816,0.02866426119384628,0.0043591310962525906,0.00212713743966726,0.008787046559149376
2025/05/06 15:20:22.695782410,1746537622,687281820,piren,-0.016440510013535255,-0.014970014748723497,0.011287650381546194,-0.0015785352610147073,-0.002456746054388815,0.010843077801888765
2025/05/06 15:20:23.117859951,1746537623,111719802,piren,-0.0507757514309558,0.15029124348379835,-0.05313873561580443,-0.000821236436054327,-0.00327506631902609,0.007831287647056954
2025/05/06 15:20:23.542763646,1746537623,537084479,piren,-0.061588960518110775,0.20459746181468316,-0.07491173659170214,0.0020142176309016786,0.004343172611275834,0.0065720305830578455
2025/05/06 15:20:23.966869889,1746537623,961233514,piren,-0.0681523886823468,0.2448236534513401,-0.09871194227724323,-0.001208348248121046,-0.0008552262961345867,0.003068021731932404
2025/05/06 15:20:24.399369266,1746537624,387560289,piren,-0.032151095383460206,0.09623479695615086,-0.03543385708171541,-0.0027557707541652023,-0.005465538265759998,0.0014634535379513425
2025/05/06 15:20:24.833314157,1746537624,818895858,piren,-0.02356930572746002,0.04723285399413752,-0.019714831796433283,0.00276244727482586,0.008061848288925796,0.000999583452067271
2025/05/06 15:20:25.267555407,1746537625,257932388,piren,0.03250970093181443,-0.14446224173498168,0.05895019385129614,0.002068577906837338,0.0007070508177100088,-0.0010783817851943676
2025/05/06 15:20:25.714202465,1746537625,692063447,piren,0.027936151681615434,-0.14556884325129404,0.06136275292518874,-0.0024504579864354807,-0.004821331094136751,-0.0029340980078525355
2025/05/06 15:20:26.179342801,1746537626,175435946,piren,0.003835335564645201,-0.08331501614043164,0.036885678765413266,0.0018171493769407953,0.0048658146251826205,-0.005977506809277208
2025/05/06 15:20:26.605891119,1746537626,601275553,piren,0.0019068700062236795,-0.11801311239769322,0.05006649456959607,0.0022059205996519987,0.0008694384644318596,-0.008387803674781178
2025/05/06 15:20:27.38674056,1746537627,30860121,piren,-0.04253053524362237,0.008692273921269839,0.001048510137477407,-0.000619281871568754,-0.003888184304937563,-0.011550016757868813
2025/05/06 15:20:27.468665790,1746537627,458942565,piren,-0.08274603232534879,0.1098534105459296,-0.037451574670700295,-0.002001005201357025,-0.001167145179971137,-0.011932841762400295
2025/05/06 15:20:27.892585936,1746537627,884654073,piren,-0.12476934906658221,0.18016927119783782,-0.06717559875784275,0.002046075779069992,0.0001595134478182303,-0.011747458409011948
2025/05/06 15:20:28.326474305,1746537628,313292293,piren,-0.15147478454277893,0.20401836943519835,-0.08212799752554559,-0.00010735213918684488,0.0010258368066071296,-0.012951498014140672
2025/05/06 15:20:28.761844151,1746537628,757015103,piren,-0.14307581470607125,0.06213470823527156,-0.022725000066219747,-0.0013305592018876956,-0.0020655882942555988,-0.012511531396817885
2025/05/06 15:20:29.194777295,1746537629,187429334,piren,-0.14084159227859325,-0.0332293662731897,0.014496969744971153,0.0003744511423118738,0.0019083668419450186,-0.008242394830232078
2025/05/06 15:20:29.665820943,1746537629,661421319,piren,-0.16342993258022012,-0.017105406970676747,-0.0022031015052226613,0.0019051745943828157,0.0023733686367380796,-0.007649931280748657
2025/05/06 15:20:30.121369708,1746537630,92069744,piren,-0.14346068460695258,-0.18422603216731634,0.06624259497539894,-0.0029547002455564617,-0.004313296143081325,-0.006406111686824902
2025/05/06 15:20:30.548494361,1746537630,523477943,piren,-0.1686813607503607,-0.16020241726623657,0.058947176226589224,-0.000342819154613494,-0.007352342465947315,-0.004936102044564722
2025/05/06 15:20:30.968330944,1746537630,958639052,piren,-0.20797654486736952,-0.09851709537124384,0.032859848941717604,0.0012401143557799748,0.0050418121068827254,-0.00022319683040104198
2025/05/06 15:20:31.395890276,1746537631,390961012,piren,-0.2273728209795079,-0.04494491867617376,0.002887231987251715,-0.0015576191031725392,0.006835257401387448,0.004137513422757421
2025/05/06 15:20:31.824412184,1746537631,819981664,piren,-0.24606855401989358,0.04561232861533448,-0.0453367671458841,-0.00169288033071529,-0.004232248127278298,0.006539256912280666
2025/05/06 15:20:32.254830258,1746537632,250684814,piren,-0.22389924045137358,0.0030607843385953293,-0.03125362209209102,-0.005582449228459882,0.006157319057619578,0.00556955359322671
2025/05/06 15:20:32.747307529,1746537632,730251720,piren,-0.16838109175305344,0.06335009230952003,-0.040522867182412846,0.006213019928734686,-0.01961862598368129,0.006341564780082987
2025/05/06 15:20:33.188143979,1746537633,160184928,piren,-0.11497989363283503,0.12039364292754746,-0.040758439923314294,-0.0007468629102892808,0.015336017943049464,0.007437203992513935
2025/05/06 15:20:33.611293215,1746537633,595358926,piren,0.21757411495855214,-0.366848624653903,0.13029240529411165,-0.006774317800963063,0.00538235019585208,0.016539540750174397
2025/05/06 15:20:34.29425509,1746537634,24196759,piren,0.041731274194171636,-0.22767851969542766,0.10530133485730257,-0.001476647485840358,-0.0050255185017663295,0.0139975176813697
2025/05/06 15:20:34.457937559,1746537634,453114055,piren,-0.12193370593608938,0.10991279434538251,-0.01402914855523131,0.006323615037727579,0.0038336398648148536,0.012759781539802745
2025/05/06 15:20:34.887343357,1746537634,883050142,piren,-0.15422662624528105,0.09269137790320224,-0.0015666626269949784,0.0010932583987930517,-0.002394115900812698,0.011337445119086114
2025/05/06 15:20:35.318680910,1746537635,313158915,piren,-0.14054453626822555,0.06279621009125572,0.005554943384348239,-0.006022862479977614,1.9002223633446714e-05,0.008863669648129558
2025/05/06 15:20:35.743984376,1746537635,740854164,piren,-0.15522494434803752,0.24989661677864228,-0.08837049864964813,0.0026863888058106487,0.0002863777021656277,0.006716040910160808
2025/05/06 15:20:36.232423260,1746537636,219831749,piren,-0.055519596993962986,0.05581231878818496,-0.020104115978697712,0.004168769938181121,0.002507599390109712,0.005203490852186862
2025/05/06 15:20:36.655383809,1746537636,650974158,piren,-0.01295049620107399,0.03036300257840619,-0.016328228283162237,-0.003931750696447838,-0.002618390223524911,0.005684844091305335
2025/05/06 15:20:37.86334792,1746537637,81002637,piren,0.012020472274525882,-0.01077046126115394,0.0007727350113566969,0.0013412908734545064,-0.00016246320333629014,0.004549458952595695
2025/05/06 15:20:37.518321771,1746537637,511175075,piren,0.032627849030950735,-0.10781829173761226,0.040732277833706594,0.002329363114767835,0.0038467702058523545,0.006669981906238212
2025/05/06 15:20:37.944597358,1746537637,938214471,piren,0.0040124691436633185,-0.029188827411735216,0.012583334669105758,-0.0010999734330068356,-0.00311184179240292,0.007979800999471565
2025/05/06 15:20:38.409692789,1746537638,385638574,piren,-0.029533702580647306,0.10210769773375457,-0.03791491808796105,-0.0008377645932448986,0.00039899633340616724,0.0069985096711087415
2025/05/06 15:20:38.854410366,1746537638,838496757,piren,-0.03979150883201307,0.07814319861745414,-0.023282443465521274,0.0011031678984991954,-0.0009028130747198359,0.007501597182032093
2025/05/06 15:20:39.275738305,1746537639,271776389,piren,-0.016606378893356828,-0.07556992662489367,0.03859298409092927,0.0007016122577609533,0.00024145019312483276,0.005494824013318313
2025/05/06 15:20:39.750613460,1746537639,747038364,piren,-0.02550195068738483,0.016800582073438153,0.00048441768576926864,-0.0006727184400636913,-0.0018479396391739465,0.004230968891467223
2025/05/06 15:20:40.185824574,1746537640,179992614,piren,-0.03410077552198325,0.03701376540311709,-0.0104892651708243,0.0011748504553176714,-0.0009509843199582513,0.0018735352956679903
2025/05/06 15:20:40.623468900,1746537640,609536360,piren,0.01205084052553522,-0.09108297787747663,0.03749459303259796,0.0029421039690689975,0.0049594053554030855,0.001342799492455574
2025/05/06 15:20:41.62567340,1746537641,41397454,piren,0.038592977709004314,-0.12507244242146928,0.04874821381046436,-0.002547083199019236,-0.00037243814727841207,0.0008053632772787255
2025/05/06 15:20:41.482542457,1746537641,477774088,piren,0.037067303025924245,-0.058555456969315606,0.02398616305315619,0.0012236174163347553,0.002932989659986508,0.00022441418874331054
2025/05/06 15:20:41.914430228,1746537641,910732808,piren,0.02681452533684043,-0.035222490366731765,0.01406273728316711,0.002562615291173166,0.003871601724764637,-0.0019952323879952947
2025/05/06 15:20:42.346027348,1746537642,341038722,piren,-0.037191947547989705,0.09390261700637008,-0.03563679120268781,-0.0027662617831692984,-0.006824425527492243,-0.004645720091240498
2025/05/06 15:20:42.776984731,1746537642,773080511,piren,-0.07958064394601913,0.10440985076738822,-0.03474310069058064,-0.0012949422962657473,0.0008980533028131474,-0.005671500720879186
2025/05/06 15:20:43.252245053,1746537643,244601982,piren,-0.08416720613040504,0.02595825703206199,-0.0024313889373301922,0.005142022614264673,0.004349217313610405,-0.007591271523952896
2025/05/06 15:20:43.701723879,1746537643,674676924,piren,-0.09450688361071095,0.019627823232849805,0.0033414502031150926,-0.0011646122630107135,-0.012812477847338643,-0.006892401408900947
2025/05/06 15:20:44.145694016,1746537644,124388194,piren,-0.1483061073380211,0.1848444281467894,-0.07350547088755825,-0.0031511264064564976,0.009239449555505593,-0.006167968347456754
2025/05/06 15:20:44.561325013,1746537644,554699360,piren,-0.11962601965524278,0.09533146694398081,-0.039930642598382214,0.0017089720555519693,0.004067744633618796,-0.005268178631155186
2025/05/06 15:20:45.19987547,1746537645,13842034,piren,-0.08069252380478226,-0.0015161875078772147,-0.0015634219381992498,-0.00028753729875865555,-0.007562141413630171,-0.002304008549060729
2025/05/06 15:20:45.460021736,1746537645,455236390,piren,-0.0712915667082141,0.038090767192534514,-0.02520142257265001,-0.00287341289162376,0.008487430769791074,-0.0013372390624532408
2025/05/06 15:20:45.888797087,1746537645,884459529,piren,-0.006643966307046667,-0.17024963734797866,0.057080940796218504,0.002178528644978318,-0.0024937911229046712,-0.0004374041963190011
2025/05/06 15:20:46.321086484,1746537646,316082880,piren,0.003968710232766369,-0.20824975438981683,0.07654071129170581,0.002040166885567357,-0.005287319939501899,0.0005263343007388025
2025/05/06 15:20:46.827471338,1746537646,818770934,piren,-0.034841173880249494,-0.06732705926465288,0.020371718538382447,-0.001386046641392703,0.008291347588327839,0.0020085492968632004
2025/05/06 15:20:47.261724391,1746537647,253434905,piren,-0.06671023978210522,0.014485040421232304,-0.013570951728372763,-0.0029189564140107388,-0.0060290872878528,0.0037310114783873603
2025/05/06 15:20:47.692545294,1746537647,687214077,piren,-0.10308671942202616,0.1582762739086777,-0.07569002386064326,3.540607528438954e-05,0.003495730581250168,0.004145077851803829
2025/05/06 15:20:48.135394441,1746537648,125578146,piren,-0.0957702533964946,0.20370863591520016,-0.09380095590390154,0.001647077128259687,-0.0001615879661178798,0.004238605004266248
2025/05/06 15:20:48.567930946,1746537648,561018511,piren,-0.026221777378532152,0.06480604796238393,-0.02486316637595272,-0.0005848494955834839,-0.0028466972423488537,0.002576949182018717
2025/05/06 15:20:48.997347966,1746537648,993023131,piren,0.046974423353913344,-0.14606595822910975,0.06691592802563641,0.0015421102170148917,0.0009340516653992113,0.0007973514937690469
2025/05/06 15:20:49.430904756,1746537649,426623972,piren,0.08169845321581325,-0.2244780766603523,0.10016985879316473,0.001636394371055074,0.0012652349625668375,0.0006414635130400667
2025/05/06 15:20:49.866513587,1746537649,859302403,piren,0.050670398406009745,-0.09789162398328671,0.047552199158834595,-0.001115612542561025,-0.0008215896463062313,-0.00010712705929630424
2025/05/06 15:20:50.355356351,1746537650,341399562,piren,0.013189267392863455,0.024621017207482776,-0.00612493201021122,0.00024432218866423825,0.0014261685537722748,-0.00039129417378406053
2025/05/06 15:20:50.810413833,1746537650,802359346,piren,-0.017772078156622028,0.10103992346053045,-0.04208022819377019,0.0007573682964817797,0.0007964042756315921,-0.00019847349562099006
2025/05/06 15:20:51.246836739,1746537651,241910362,piren,-0.048137802946484745,0.19990084289920584,-0.09036492488584305,0.0011531336707582631,0.0025259258542502014,-0.00028543541072057995
2025/05/06 15:20:51.682407624,1746537651,678254678,piren,-0.03476783334540393,0.10803721566853736,-0.049131399024248,-0.0017060122425149667,-0.002394307138536509,-0.0017448702377213462
2025/05/06 15:20:52.119394094,1746537652,113026829,piren,-0.018858053596613692,-0.0019215251473721912,0.0020661136445591158,-0.0002967458644490581,0.001453664142945624,-0.00330891505497123
2025/05/06 15:20:52.548820180,1746537652,542700351,piren,-0.017560703683784387,-0.03715310097986704,0.020065516850002556,0.0018633411003150795,0.0015618049142329079,-0.006030640083104371
2025/05/06 15:20:52.992869058,1746537652,976602566,piren,0.009334198371471054,-0.17004758802613623,0.07800986082572495,-0.001724802186561848,-0.003804983954944394,-0.006809790319083409
2025/05/06 15:20:53.462984529,1746537653,456942106,piren,-0.05276389190498755,0.022943958659971286,-0.003257239670501566,-0.0008492277795153569,0.0003124299191229359,-0.008419992236939866
2025/05/06 15:20:53.893661091,1746537653,889278966,piren,-0.0595638060272902,0.03719018700899167,-0.004147159396452526,0.001425203944942754,0.0024377159938250167,-0.00771535786864282
2025/05/06 15:20:54.330089497,1746537654,322267160,piren,-0.06196658818739686,0.04369803461490872,-0.003392155235297356,-0.0005754547129209571,-0.006646657026371757,-0.00827043751472986
2025/05/06 15:20:54.797708569,1746537654,767024054,piren,-0.06672493760756859,0.05252361592511104,-0.008740657372808346,0.0005627380594387639,0.005625946227532855,-0.006586968390720878
2025/05/06 15:20:55.206597543,1746537655,198410617,piren,-0.0351626602469876,-0.052418300950239166,0.02873502939584805,0.0001268119993184676,-0.0015154207898775544,-0.0037680888845301897
2025/05/06 15:20:55.638459502,1746537655,634021122,piren,-0.0460482979895003,0.004665671061502764,-0.00014936560899646636,0.00019728490157803525,-0.0031294138913859006,-0.0003088130535777538
2025/05/06 15:20:56.78639812,1746537656,67778134,piren,-0.03535328410689525,0.0021639402788426036,-0.004933789851785353,0.00021471509457506838,0.007561766545808833,0.0021389031136766594
2025/05/06 15:20:56.505878617,1746537656,501939068,piren,-0.015437861877717101,-0.04604736755613859,0.00927321239763844,0.0010915622642316287,-0.002005113906594337,0.003499545551479629
2025/05/06 15:20:56.984698719,1746537656,979262513,piren,0.010239753968835624,-0.1269823296672709,0.039956431344393355,0.001518769459871598,-0.0018551715151832147,0.004006701834280437
2025/05/06 15:20:57.418451057,1746537657,413368488,piren,0.015699007710509444,-0.1363497995009763,0.04276282176454858,-0.0013731438267360224,0.004554194359999667,0.0050741455658093486
2025/05/06 15:20:57.849290000,1746537657,845617554,piren,-0.013773237750728896,-0.02049834036520197,-0.0036362874665867434,0.0003165764550727941,-0.0017784960549473417,0.006972843513661174
2025/05/06 15:20:58.301526084,1746537658,283021539,piren,-0.0344043237068943,0.06345257202556266,-0.03595845344996908,0.0012542856535905245,-0.001163543461414572,0.006305512172415564
2025/05/06 15:20:58.730256622,1746537658,724960771,piren,-0.04010008609511695,0.09503744717849284,-0.0491671595989816,-0.001270356792856861,0.00290607409494632,0.007519073028320336
2025/05/06 15:20:59.166787380,1746537659,162570339,piren,-0.034139602468803584,0.09893823464130973,-0.05076322446889013,0.000620970916086315,-0.0021650726489061073,-0.00012188008631299459
2025/05/06 15:20:59.601307332,1746537659,596498534,piren,-0.025718251203261187,0.10915126530599108,-0.052079261702652785,-0.002618955964979716,-0.0044715465987223615,-0.0034197284109604167
2025/05/06 15:21:00.38543400,1746537660,34234227,piren,-0.010652904646394545,0.10158275671601612,-0.04700899690594672,-0.0008352677229812127,0.005607640513970521,-0.0023057689644016767
2025/05/06 15:21:00.521471066,1746537660,512897916,piren,0.03566145958993749,-0.04835584943671138,0.021063243150493863,0.0013499167159232127,-0.00030845883626108144,-0.0012562415934158724
2025/05/06 15:21:00.963175343,1746537660,953712326,piren,0.06217902703247111,-0.17130603891255275,0.07608268047884664,-0.0023383679130595364,-0.002842049601544739,-0.001306615644389235
2025/05/06 15:21:01.395770823,1746537661,391535401,piren,0.014685180365359173,-0.029924747154381925,0.013122885597183553,0.000336531284987215,0.0018434871664375276,-0.001052142694464742
2025/05/06 15:21:01.831416424,1746537661,827023260,piren,-0.01680432363377784,0.04941123396506582,-0.02198594853421467,-0.000658541315400766,0.00023278671516324047,-0.0012453530367148853
2025/05/06 15:21:02.266228053,1746537662,261257300,piren,-0.038977957605129426,0.09898884516014758,-0.044877823462232964,-0.0011452220157471583,0.002062371680824138,-0.0021625819867012175
2025/05/06 15:21:02.711560868,1746537662,704439780,piren,-0.012801443352964067,-0.0075806819952046745,0.005434381952451314,0.00040936864839240055,-0.001475796025631273,-0.0034899535422575336
2025/05/06 15:21:03.144562311,1746537663,141116720,piren,0.00548040078711003,-0.09309135111375298,0.04646659970444255,0.0006303566918340356,0.0010621166409883775,-0.005763294150713465
2025/05/06 15:21:03.611459053,1746537663,580316175,piren,0.02476222063351108,-0.17037186855695807,0.08036847614149864,-3.607309495752656e-05,0.0005653334809806669,-0.007208378785782257
2025/05/06 15:21:04.71050524,1746537664,64696405,piren,-0.014065861372728049,-0.049176922101105164,0.034183637945709375,-0.0017669592940971388,-0.007323191339031987,-0.009831942108128645
2025/05/06 15:21:04.507254761,1746537664,503160037,piren,-0.03958570152294649,-0.022484823812237383,0.025359020494226822,-0.0006719474882985794,-0.00035764411307284054,-0.0076716236360239625
2025/05/06 15:21:04.945901421,1746537664,942249271,piren,-0.06890696949026258,0.10082623362413898,-0.028855217661196364,0.0034071332388765497,0.007457844606102806,-0.005975514133779985
2025/05/06 15:21:05.386338598,1746537665,380576777,piren,-0.04513412788000985,0.021684174687061672,-0.002955278506417105,-0.0009489661136120185,-0.007134681033837129,-0.003269299015515035
2025/05/06 15:21:05.845347042,1746537665,817178159,piren,-0.055542526558656186,0.11148357516640345,-0.04292621453418041,-0.00204339862909624,0.0032024034456173307,-0.0015304546476478489
2025/05/06 15:21:06.275830300,1746537666,261522713,piren,-0.03537277214109033,0.07917448643220296,-0.033513534393991955,0.003740140047130307,0.005089795259968357,0.00048163768963119404
2025/05/06 15:21:06.717200566,1746537666,704136238,piren,0.0009506894162770729,-0.035153071031754454,0.010438200554491121,-0.0013745015997479184,-0.005611533756318656,0.00177803910572025
2025/05/06 15:21:07.150438898,1746537667,145762427,piren,-0.023185341943326217,0.08028762118156037,-0.04144177442674516,0.0009492248585833073,0.004027972955289291,0.002907168992774896
2025/05/06 15:21:07.633765360,1746537667,629597292,piren,0.014423548847480764,-0.06641467857516518,0.0204316913017651,0.00022450075579889678,0.00030297053322450606,0.0028198205523273525
2025/05/06 15:21:08.76291345,1746537668,69780213,piren,-0.019704094928465362,0.05577707935826791,-0.02962149879793953,-0.0007632562525155543,-0.006497757408976529,0.0030752801055562947
2025/05/06 15:21:08.516360925,1746537668,507755102,piren,-0.0398887363335232,0.11929081541716212,-0.055043622992443114,-0.00046125372501969566,0.005127140314352593,0.0046800338416928995
2025/05/06 15:21:08.961705713,1746537668,948655243,piren,0.008113783083809015,-0.07414090750412443,0.028882872575812762,0.00021836937400231975,0.0004006494708160175,0.005406932560743504
2025/05/06 15:21:09.394873458,1746537669,388104690,piren,-0.011808873620975442,0.004436108973459599,-0.006037769147066843,-0.00012288463589231512,-0.0040035074418467665,0.00539872185756364
2025/05/06 15:21:09.833551380,1746537669,827648122,piren,-0.017784078259637476,0.049615931164044266,-0.027760137880996738,-0.0022006253312144473,0.004770001683812289,0.006302561128683727
2025/05/06 15:21:10.273776309,1746537670,269683068,piren,-0.01232206506110722,0.04347386637709885,-0.028254435934429466,0.0008636378519390726,-0.0009851589811063148,0.00499223206994609
2025/05/06 15:21:10.776391906,1746537670,759726557,piren,0.03938013988554323,-0.14319135138789507,0.05389304977326235,0.0015863264935284027,-0.0011100661757002864,0.005006530027924924
2025/05/06 15:21:11.208763378,1746537671,202993362,piren,0.04412355151221183,-0.14395935074535346,0.05546024897616009,0.002677170538100706,0.0047202088576270874,0.004524985225196687
2025/05/06 15:21:11.665184263,1746537671,645560982,piren,0.06638902451118175,-0.22397029304074723,0.08796951715697873,0.0009390323657323966,-0.004604177473351669,-0.002906826136329644
2025/05/06 15:21:12.88363915,1746537672,84655893,piren,0.0509359038284858,-0.1554553706834665,0.06345400143495483,-0.0019644083268740694,0.0016530838598101708,-0.0030808053026222574
2025/05/06 15:21:12.526537667,1746537672,523599222,piren,0.013472118169284127,0.007092679476682212,-0.001112266066309986,0.0014372265059310883,0.0016851441948057128,-0.0034241118129945737
2025/05/06 15:21:12.971858553,1746537672,966128845,piren,-0.01947782544448253,0.12613338297805993,-0.0484562223118518,0.0006957676322305427,-0.004166332060352252,-0.003048062605845405
2025/05/06 15:21:13.409781733,1746537673,404567048,piren,-0.006201126714358707,0.047239141257978456,-0.016880739243725372,-0.0023442339521098487,0.001393385091737997,-0.0032540259749647056
2025/05/06 15:21:13.845888334,1746537673,841654716,piren,-0.05116898904125244,0.18793715316301157,-0.08092050950916399,0.0012525338076353274,0.004251555227012476,-0.003107604813992905
2025/05/06 15:21:14.344922111,1746537674,338233232,piren,-0.02376734410972838,0.08329315772884938,-0.033463029474660476,0.0016534930186213358,-0.0025133951288660293,-0.0044686433598501675
2025/05/06 15:21:14.783140811,1746537674,779337393,piren,-0.016127248567772562,0.02845491675143448,-0.004918003638379364,-0.0019042361743527886,-0.004277355423989534,-0.006139364599147703
2025/05/06 15:21:15.231292144,1746537675,223765319,piren,-0.014993683316333568,-0.03681029004596867,0.026721524400931947,0.00021589816523944876,0.0008779924650235913,-0.007054218809027306
2025/05/06 15:21:15.674121790,1746537675,669656218,piren,-0.016629761050944377,-0.041825728085586614,0.02847180880660199,0.0015078744194429998,0.002891844511597143,-0.00627702326559533
2025/05/06 15:21:16.114362530,1746537676,107091747,piren,-0.011352486009036308,-0.04687858931401906,0.02950897480491877,-0.002016633231468427,-0.0059538016541430434,-0.004381567241148372
2025/05/06 15:21:16.552641901,1746537676,545700691,piren,-0.04067563053558822,0.0840010247988178,-0.033330600292802805,-0.00034452583098469234,0.0037407935911969088,-0.002253689134082326
2025/05/06 15:21:16.994996306,1746537676,986733327,piren,-0.01027712828340534,-0.011905223684516103,0.0028478097453413856,0.0026132507358630395,0.002027319180102481,-0.0005217824942296255
2025/05/06 15:21:17.449001289,1746537677,428824820,piren,0.008515941855239566,-0.056339123219140384,0.019586476156837822,0.0019821422508515753,-0.003993626873197942,0.0012956882327100766
2025/05/06 15:21:17.921492333,1746537677,917729866,piren,0.03390470296540136,-0.13300816914224894,0.04798266440384624,0.0008539064112247912,0.003817544348491925,0.00251701214788092
2025/05/06 15:21:18.364819069,1746537678,360269337,piren,0.03897400190517166,-0.14023512189264664,0.04818234256618348,0.0007129034517638778,-0.0005905353543921664,0.0044487217744105835
2025/05/06 15:21:18.807796394,1746537678,802444452,piren,-0.006430779705169497,0.053865297505172105,-0.03342826775792124,0.0018739864902461512,-0.0012382364375225308,0.005000781899753216
2025/05/06 15:21:19.272203556,1746537679,245582582,piren,-0.011469148697278594,0.09722289543656215,-0.04927317874300404,-0.0010937537303953768,0.00401421376891238,0.004696185626477791
2025/05/06 15:21:19.720869678,1746537679,688383865,piren,-0.009241503117527625,0.0737989194132754,-0.03730770543295013,0.0001956242556510479,-0.0036616589429959373,0.0035064377848321383
2025/05/06 15:21:20.140504995,1746537680,134179087,piren,-0.00330110651225348,0.03838226146399419,-0.018822121473290043,0.0019387295140500104,-0.0017740389467771377,0.0035835026698672664
2025/05/06 15:21:20.584686519,1746537680,579165962,piren,0.002597671737930997,0.0015561451921715097,-0.00329962403066927,0.0020115288199934337,0.0028012997292009103,-0.00045926335972033627
2025/05/06 15:21:21.27116732,1746537681,21619490,piren,0.008341297098513879,-0.031139672721019182,0.009863322159091035,-0.002941850066708871,0.002015770429011408,-0.003930677385932918
2025/05/06 15:21:21.552078937,1746537681,547419213,piren,-0.006265658857046018,0.057970430733621736,-0.02992652977139426,0.0005055605389402138,-0.0025030384599918683,-0.005662097590145413
2025/05/06 15:21:21.999758780,1746537681,990620071,piren,0.008350660972701207,0.016093885189048064,-0.005335185196723748,-0.00011077062347923268,-8.995870457477481e-05,-0.0054783787886142086
2025/05/06 15:21:22.460383403,1746537682,437459217,piren,-0.008256993749273332,0.0648331933637567,-0.024516401386800456,-0.0008348080351931664,0.0008066059793367902,-0.006754592200886598
2025/05/06 15:21:22.903472710,1746537682,883637697,piren,0.0003930453837712976,-0.01625593714416,0.015904607710930375,-0.002149932980826634,-0.0029735050585203426,-0.006280253310250347
2025/05/06 15:21:23.331640631,1746537683,326167693,piren,-0.02435133513285998,0.0380120071474269,-0.007252036141646032,0.0016898806987035377,0.0002683591817013417,-0.006507751214486411
2025/05/06 15:21:23.773704567,1746537683,769971294,piren,0.015297428430858621,-0.1471167179216988,0.06949603349535084,0.001465989214287584,0.002062986953625477,-0.005212399092753934
2025/05/06 15:21:24.215769576,1746537684,210715760,piren,0.026879338202980056,-0.20387830310719407,0.0924375540526208,-0.001604877110118446,-0.0025996959251523124,-0.005143063321999922
2025/05/06 15:21:24.656657017,1746537684,653004161,piren,-0.003308147993220493,-0.06786756434744318,0.03694483685839617,0.0016855027627874042,0.0009188620646813819,-0.004183594414097416
2025/05/06 15:21:25.149261999,1746537685,139689840,piren,-0.007322467493804444,-0.02214463149425653,0.014981368232586504,2.120954070360582e-06,-0.0001693762589523802,-0.0028689508114682722
2025/05/06 15:21:25.587950112,1746537685,582691525,piren,-0.02180907661895596,0.05819652134341625,-0.02011039145752332,-2.0646126428515398e-05,-0.0010140840780166382,-0.001849033026836004
2025/05/06 15:21:26.28285776,1746537686,23860269,piren,-0.00989535042440345,0.018739376354142523,-0.008267777534301687,-0.0011687513544421933,-0.000818671853951419,-0.0009516325563717736
2025/05/06 15:21:26.467759819,1746537686,463203038,piren,-0.019378307645547255,0.058625168883827725,-0.02531727177122481,-0.0005616889079026583,0.0001516846812830535,0.000965458739020663
2025/05/06 15:21:26.910453957,1746537686,905872124,piren,-0.03419059573893698,0.140079178533006,-0.06173044253984248,0.0001709331625090451,0.0022105992274259766,0.002786357786808309
2025/05/06 15:21:27.379978787,1746537687,350955655,piren,-0.016959456996118904,0.09073846235733103,-0.042460391823813205,-0.00013245423232818165,-3.393915134950284e-05,0.0035894120741262418
2025/05/06 15:21:27.813852691,1746537687,795830431,piren,-0.00722154925902011,0.059431781678904685,-0.030745918903055804,-0.0004499214800895445,-0.0011865343615298787,0.0037215563156559432
2025/05/06 15:21:28.243394286,1746537688,239193010,piren,0.015581720207547034,-0.029752500937274495,0.006236630134305258,0.00027605266740831746,0.0032811432806021494,0.003925427046291184
2025/05/06 15:21:28.733216300,1746537688,729579959,piren,0.0550532149143239,-0.19194249717502282,0.07139973355672014,-0.0010248892491522593,-0.0028328956216847564,0.0026414462056914712
2025/05/06 15:21:29.172919828,1746537689,169069861,piren,0.033011489745513455,-0.11200979609520767,0.04272463029468179,0.00029391395511316854,0.00046999544423428295,0.001993510775458747
2025/05/06 15:21:29.621565714,1746537689,611712176,piren,0.02168048638500316,-0.07398561859813493,0.029653422692611803,-0.0014594889041519652,0.0017089560311299816,0.0015065261258607264
2025/05/06 15:21:30.76275392,1746537690,54216547,piren,-0.02744208739850343,0.11684388145017724,-0.051698565679411085,0.0014787170069877561,-0.0006030724027078073,0.0007377864001374239
2025/05/06 15:21:30.523803699,1746537690,504785199,piren,-0.0027315931097289317,0.008917894090882658,-0.004469302355737011,0.00047118010174996487,-0.00010783783090942086,-0.00042538159079969
2025/05/06 15:21:30.952584845,1746537690,946532686,piren,0.012775759069973205,-0.06782129636167122,0.029488815756692488,-0.0014127742737549485,-0.0008408061899421686,-0.0015318384996899578
2025/05/06 15:21:31.393107585,1746537691,388553136,piren,-0.03419506307764073,0.11347892801086376,-0.04629930433804523,-0.0004239436811791371,-0.0004245040994197131,-0.0017139708667590979
2025/05/06 15:21:31.881888406,1746537691,874848681,piren,-0.05430740897459123,0.1926608783768191,-0.08005220530255619,0.0003885267547932279,0.0019240351995827398,-0.0025191557247870896
2025/05/06 15:21:32.324587017,1746537692,318741218,piren,-0.026649182112987325,0.07735230700163843,-0.025432887588261927,8.495816592561428e-05,-0.0027980629728664047,-0.0035531561056398467
2025/05/06 15:21:32.774949308,1746537692,758315139,piren,0.004013186291604361,-0.05319820823306111,0.03390815256890761,-0.0018510916763314579,-0.002595140198456605,-0.004171745733362881
2025/05/06 15:21:33.214777153,1746537693,200220240,piren,-0.013660185784510538,0.015886449995287308,0.0006450927241638815,0.0006210741970944719,0.003542200765945457,-0.0024611426878431786
2025/05/06 15:21:33.653699667,1746537693,648444117,piren,0.000231442798531354,-0.04274902361480565,0.024491678534815056,-0.0013188672151963272,-0.00408460070609861,-0.0018317133208501396
2025/05/06 15:21:34.98605003,1746537694,91460936,piren,0.005943305653090866,-0.07593224427705501,0.03694711443839204,-0.00021022285949798467,-0.00011040399302900251,0.00015598390950134628
2025/05/06 15:21:34.539406801,1746537694,535653762,piren,0.007109298619025359,-0.056273069972303,0.023576211484004413,0.0012066445768784749,0.005681898584102146,0.0019141258150649938
2025/05/06 15:21:35.8237000,1746537694,979911647,piren,0.01039873906320303,-0.029561962199477074,0.0073677084117915945,0.0013277724678935473,-0.0027329347606236246,0.0023025867191418838
2025/05/06 15:21:35.475207968,1746537695,467295338,piren,0.03191566594759955,-0.10340514015238078,0.034815813017952175,-0.0018674981897524102,-1.5358963640458537e-05,0.0026258101241583907
2025/05/06 15:21:35.918299316,1746537695,913882005,piren,0.016285065926649838,-0.026093114824652375,0.003543647634951852,0.0018968198456788827,0.003391437307290885,0.002440104049496683
2025/05/06 15:21:36.368740112,1746537696,362075815,piren,-0.004728337257119856,0.05479175129426074,-0.027857495883037785,-0.0015186667157725143,-0.0036308594865416765,0.0022015716249641384
2025/05/06 15:21:36.811478371,1746537696,806499956,piren,-0.034401450162840554,0.16622499314207778,-0.0741357687896132,-1.7191594065339143e-05,-0.0002607382306293564,0.0018498144867321795
2025/05/06 15:21:37.257125017,1746537697,251628783,piren,0.005645589854521169,-0.019492328214482407,0.004597725204861347,1.274971505449484e-05,0.0035451730862910307,0.0024569379970818127
2025/05/06 15:21:37.704068313,1746537697,696589937,piren,0.03587287603686513,-0.1533104413716952,0.059870806744042125,0.0008141131653151773,-0.0021608883284595704,0.0021967740354646454
2025/05/06 15:21:38.148708823,1746537698,143759956,piren,0.01974461354006984,-0.07977991813136177,0.03336460749372187,-0.0009620736419209104,-0.00016520684471636076,0.0024035589951299256
2025/05/06 15:21:38.621723264,1746537698,597038799,piren,-0.023258444693601412,0.10530717912602121,-0.04809156991587378,-0.0004652803485832009,0.003604760175287439,0.0021003924669589008
2025/05/06 15:21:39.100060986,1746537699,95994355,piren,0.016861724090358837,-0.042154545749462716,0.011788956190003363,0.00021086466796739478,-0.00030496934411576934,0.0014683901319343363
2025/05/06 15:21:39.548771252,1746537699,543640462,piren,-0.014857968455134835,0.10173413909296904,-0.04582020959568303,-0.0020686749262008356,-0.0034141449326704067,0.000552815361289167
2025/05/06 15:21:40.17303115,1746537699,993314031,piren,-0.022451343427246466,0.12328991752115179,-0.047826838106582975,-0.0005968714614372836,0.003443659978299937,-0.00018239160707926835
2025/05/06 15:21:40.461631742,1746537700,447101185,piren,0.00600012795130191,-0.020060373939395137,0.018849289827195442,0.0007354092156682833,-0.0018186614602245606,-0.0008573363744025681
2025/05/06 15:21:40.899835778,1746537700,894723489,piren,0.00411752509803613,-0.036929923586512446,0.03228900155116869,-0.0002727672686951858,-0.001673321001773782,-0.0012550116082071662
2025/05/06 15:21:41.347067087,1746537701,342160870,piren,-0.015215949095363392,0.030583059676610354,0.004959137249443458,-0.0005162349682852398,0.0034215418162169024,-0.0018635281114785943
2025/05/06 15:21:41.795324990,1746537701,788708785,piren,0.011875786897189973,-0.08611071965710798,0.05181975362516497,0.001070423997541136,-0.0017728475717524177,-0.001962808909705508
2025/05/06 15:21:42.249118357,1746537702,241362079,piren,-0.010190904263253977,0.016749517023663785,0.012840470757292416,-0.0005766476416656284,-0.0008480467521851976,-0.0024677922018165074
2025/05/06 15:21:42.742100196,1746537702,735541702,piren,-0.02926522061143237,0.11366581586344217,-0.02493491768167451,0.0010304114095574613,0.002789388258077784,-0.0024279388447067535
2025/05/06 15:21:43.193713517,1746537703,187096772,piren,-0.009097170975837576,0.030745788210333913,0.011947998609083195,-0.0013797700054140841,-0.004017337667239942,-0.0022017841675301634
2025/05/06 15:21:43.639429425,1746537703,633532358,piren,-0.025965958533106234,0.11009335175867853,-0.015234733508915913,0.00011017983640283428,0.001464326696979592,-0.0014098558515641003
2025/05/06 15:21:44.84996225,1746537704,80821042,piren,-0.04861673655041136,0.2284095451710076,-0.06590187208305223,-0.0006017893428883499,0.0009834814304619842,-2.7484149126029016e-05
2025/05/06 15:21:44.536836470,1746537704,530390499,piren,-0.025977312884060442,0.1430198197639587,-0.023906844256651495,-0.0004872052494719137,-0.0038077171976503435,0.001809887903792814
2025/05/06 15:21:44.983736834,1746537704,977382494,piren,-6.92211590828766e-05,0.0644360940179016,0.01252905956501827,0.0025036386106576263,0.004167986685171929,0.0017450973872981193
2025/05/06 15:21:45.437044387,1746537705,429648003,piren,0.03614478002396049,-0.07577483849231578,0.06838088583137619,-0.0014357003267048247,-0.0022007470199412738,0.0015904536947244092
2025/05/06 15:21:45.928619605,1746537705,924127702,piren,0.013733226612066798,0.007223951399237524,0.035000207811516554,-0.0011279969430756387,-0.0007917301497929529,0.0009717776622953632
2025/05/06 15:21:46.381660383,1746537706,372099204,piren,-0.014298398629443682,0.11773802481275229,-0.012998317040751516,0.0010130960158006676,0.0023635064561139847,0.0008582908302381022
2025/05/06 15:21:46.827767260,1746537706,821626901,piren,0.005783299003724322,0.025952622251680046,0.021528905463088478,-0.00012270051290622902,-0.003856477406837218,0.0016160082849702936
2025/05/06 15:21:47.277085585,1746537707,270839741,piren,-0.016386077782499113,0.11224836225337673,-0.012475147438597227,-0.00033804536115509247,-5.67844384681531e-05,0.00317911250194324
2025/05/06 15:21:47.726214668,1746537707,720326156,piren,-0.012595353647657018,0.10908257750811605,-0.012021749405068697,0.0007150254002855185,0.0037559960794747555,0.004960028433095114
2025/05/06 15:21:48.175914064,1746537708,170160639,piren,-0.032768232272792144,0.2339372161951363,-0.07096542379489304,-0.0005203493454315469,0.0006746455643117696,0.0066053884911156605
2025/05/06 15:21:48.623834505,1746537708,616677156,piren,-0.02892196642583235,0.25437006562792736,-0.08038537637497552,-0.0003941287803546076,-0.0017150783771892053,0.005297235543679825
2025/05/06 15:21:49.77470055,1746537709,66310227,piren,0.00809519389813454,0.11944674758724466,-0.01686414129288051,0.001142720910726404,0.003813161818542975,0.003902688579945421
2025/05/06 15:21:49.557778828,1746537709,553952393,piren,0.0645154215233108,-0.09437144108201173,0.07663550188719251,0.0009118800510004037,-0.0015734292243102929,0.0007999091778416649
2025/05/06 15:21:50.3791316,1746537709,998314981,piren,0.025848329620839876,0.008029039739313154,0.04145453064229282,-0.0016229271150297894,-0.0051048712000416685,-0.000982618028520435
2025/05/06 15:21:50.477686512,1746537710,450522439,piren,0.00010140467015867446,0.10161282630656422,0.00704378887351903,0.001864519212583098,0.009991462659718857,-0.0033997164482511438
2025/05/06 15:21:50.916333752,1746537710,901872115,piren,0.021046467874930613,0.015938668739000045,0.04478891073483399,0.0012406365781226175,-0.005283168736568212,-0.00593432224724258
2025/05/06 15:21:51.357229004,1746537711,350908444,piren,-0.007936871889023447,0.11761186044177555,0.011008745256497747,-0.0019261299918030275,-0.0035181505894873624,-0.009446456938987073
2025/05/06 15:21:51.851471945,1746537711,845693950,piren,-0.029718347303650937,0.18973606440263244,-0.013203140119018113,0.00018849729245451154,0.00533273301569897,-0.011477285766861313
2025/05/06 15:21:52.297762990,1746537712,293826583,piren,-0.04868502607910136,0.22453439512210058,-0.022027801579355893,0.0015702733708791202,-0.00938961198333357,-0.013919497837164601
2025/05/06 15:21:52.793370780,1746537712,784499263,piren,-0.07092640722498776,0.2452617064047448,-0.025066956557841816,-0.0017073711668656474,0.0023553776118121032,-0.0195447779427623
2025/05/06 15:21:53.244195060,1746537713,237835653,piren,-0.06627573112209552,0.14066756349034254,0.016635443140125078,-0.0022007327246192387,0.0047962047815516854,-0.023884326786633926
2025/05/06 15:21:53.691860766,1746537713,684979347,piren,-0.09751392692178319,0.26829543843955467,-0.040756156630422605,0.0016841715298808657,-0.00872185796121451,-0.022786057268550024
2025/05/06 15:21:54.136060377,1746537714,131044856,piren,-0.07666721796354045,0.11103729437713844,0.02614948292030536,0.0002455073947475187,0.005173339916706312,-0.026779660573258417
2025/05/06 15:21:54.587191879,1746537714,581073176,piren,-0.08122471609913168,0.14282504407892738,0.015266899402984709,-0.0017271709922712423,-0.0014179392926594158,-0.023733091136810477
2025/05/06 15:21:55.33648576,1746537715,28261409,piren,-0.11575005361696616,0.2866675041490911,-0.04502898813918161,0.002384712660444375,-0.008036199880200571,-0.025513785413241376
2025/05/06 15:21:55.492409421,1746537715,481060246,piren,-0.0935740097173491,0.1267734342245607,0.022154361993553633,0.0014809418207254517,0.00917380001984465,-0.0234928879571824
2025/05/06 15:21:55.951343981,1746537715,945057721,piren,-0.08837416455639845,0.026992161549651797,0.059265586279908966,-0.0015640576892359363,-0.004593742561871951,-0.02536672491952189
2025/05/06 15:21:56.439830427,1746537716,435441713,piren,-0.10252483551175805,0.1275693629022957,0.018206801071899828,0.0015501200230499236,0.001819553852926857,-0.0229884193158895
2025/05/06 15:21:56.891591756,1746537716,883860834,piren,-0.09183710799920822,0.14170064792347187,0.007168112827103638,-4.916754470746647e-05,0.007979881848542102,-0.02097725382595425
2025/05/06 15:21:57.337503798,1746537717,331717597,piren,-0.09826625801315435,0.2032152830551244,-0.02084318327436012,-0.0010712714712842449,-0.007165747831932595,-0.019414298458227595
2025/05/06 15:21:57.787408358,1746537717,779399907,piren,-0.10342549935689907,0.3019761938302967,-0.05997387091055496,8.610830499876959e-05,0.0015355567995234797,-0.01467189356521713
2025/05/06 15:21:58.233532773,1746537718,229451823,piren,-0.08841415008032504,0.12559155311041692,0.010911196573440488,0.0009284383980381782,0.006634103068186614,-0.012827026340553185
2025/05/06 15:21:58.681906702,1746537718,677619404,piren,-0.08128287324739153,0.04712179873095053,0.04903266891546405,-0.0015543493842327355,-0.022948351083208217,-0.008361879203945226
2025/05/06 15:21:59.131001204,1746537719,125260401,piren,-0.10858807769659483,0.15150263649711676,0.01598696478007025,0.0004888805364571735,0.013694161975688346,-0.005621357854460141
2025/05/06 15:21:59.628202788,1746537719,621846001,piren,-0.10786092292933039,0.2424750105911248,-0.03197768375509663,0.0006465313847288045,-0.0008609578497623345,-0.0022394914515953246
2025/05/06 15:22:00.76282690,1746537720,72304599,piren,-0.11941967851589629,0.3565361335303355,-0.0887277078512687,-0.002777758066249131,-0.018358142340695167,0.0016899760703667933
2025/05/06 15:22:00.525822913,1746537720,521667404,piren,-0.09131264411389542,0.2677713892135675,-0.06075179822805711,0.0017149151185349906,0.0230856009297277,0.005905003901204844
2025/05/06 15:22:00.977176908,1746537720,972564421,piren,-0.06079781049406824,0.09366750320541586,-0.0020573075621404813,0.0012320538103382528,-0.008758544490596014,0.00653523353385123
2025/05/06 15:22:01.428284154,1746537721,420974375,piren,-0.0444163815782756,-0.006563613853449626,0.0373921943514036,-0.004021022200288099,-0.007896698800512088,0.008419323337708232
2025/05/06 15:22:01.877284573,1746537721,871448599,piren,-0.017596837225300758,-0.07252943300040851,0.05897464364336376,-0.0006747805178629033,0.022629189066695216,0.012503652946341806
2025/05/06 15:22:02.326917463,1746537722,321939492,piren,-0.01276460988578924,-0.050235322386924505,0.0485496089321563,0.0034660736914055115,-0.01606849830765225,0.01453900198909356
2025/05/06 15:22:02.822546517,1746537722,812566628,piren,-0.014967750835921605,0.02638891869660301,0.029846133646037568,-0.000982089401442564,-0.00745037797439929,0.014133936299589716
2025/05/06 15:22:03.282030366,1746537723,262490559,piren,-0.027878267257528705,0.12645321412533167,-0.007069210772749732,-0.0005960447071123092,0.019021657224984594,0.016545363013637418
2025/05/06 15:22:03.726250326,1746537723,713125982,piren,-0.0418555373400975,0.19238261176233254,-0.031169120448950056,0.0028406735628257957,-0.024003221796131867,0.016931063454303785
2025/05/06 15:22:04.167370424,1746537724,162239694,piren,-0.04501727033443762,0.20164002674591802,-0.029291015584729324,-0.0007520494033013698,0.00896157236115218,0.016520403708286616
2025/05/06 15:22:04.616017570,1746537724,612459000,piren,-0.03344021341363236,0.1550429067831833,-0.01846979453960511,-0.0017283594201875918,0.012050121222778716,0.013676803380310914
2025/05/06 15:22:05.72483887,1746537725,63879232,piren,-0.028372597889847154,0.11607697181834783,-0.007373567269372392,0.001881763287834934,-0.0188731005499849,0.01175203301127364
2025/05/06 15:22:05.538992068,1746537725,529987687,piren,-0.013139863250034748,0.09104780872367019,0.003542901193416449,0.0005993333885539423,0.013441705138350154,0.0071043624319379285
2025/05/06 15:22:06.18985295,1746537726,3504498,piren,0.0014863243306992915,0.04959658606712811,0.015971884368417656,-0.002404225159132032,0.003644275459059128,0.005088629316183644
2025/05/06 15:22:06.505717028,1746537726,501540812,piren,-0.002086737773106277,0.0722530360875685,0.011585044829459257,0.0010671685623007687,-0.013359342249231665,0.003528602709588267
2025/05/06 15:22:06.957140301,1746537726,951529855,piren,-0.012021767586202029,0.09472860910214013,0.007534883052500697,0.0005965731337452112,0.009527059006625942,0.0012353419706265373
2025/05/06 15:22:07.408464377,1746537727,403376235,piren,-0.03413875860674102,0.2169828644975046,-0.05142210727183513,-0.001389515813259154,0.002942618879105549,-0.0010171223765275627
2025/05/06 15:22:07.873926668,1746537727,856444928,piren,-0.022966781358490833,0.11612438673137196,-0.006813711506751294,-0.0011409213344091673,-0.011157807600623383,-0.0017450042738140186
2025/05/06 15:22:08.325795870,1746537728,308611996,piren,0.007354535727563644,-0.010978458507269778,0.04450479119929422,0.0038576612981371526,0.01077273869671116,0.00033773367469126054
2025/05/06 15:22:08.768031030,1746537728,760922225,piren,0.030699755271325783,-0.09562987258586823,0.07244844375237403,-0.0013502705344937956,0.0017161667902056935,0.002371699423506716
2025/05/06 15:22:09.213267047,1746537729,209575577,piren,0.0011683135925979991,0.14044556515464185,-0.026080485155054053,-0.0009491245464833583,-0.008224865914193396,0.0029176284129040753
2025/05/06 15:22:09.710624719,1746537729,705554270,piren,0.0006529712205067449,0.1850767833851028,-0.040241311762030024,0.00202844471461032,0.006510865458295592,0.004630577861303339
2025/05/06 15:22:10.184329104,1746537730,156070998,piren,0.002912079078760373,0.15435517481992114,-0.027025974526494596,0.0012095309331376291,-0.0021249792154468526,0.003400590294468581
2025/05/06 15:22:10.633430270,1746537730,609394184,piren,-0.0166846867859474,0.2354938282299377,-0.06665263483762852,-0.0029576306454557116,-0.0013421209380724485,0.00154318163847105
2025/05/06 15:22:11.67997694,1746537731,62227845,piren,0.023442000500608857,-0.017564057393746613,0.03521091949889961,-0.00018292530165566474,0.0030355573095958745,0.0017091483022643006
2025/05/06 15:22:11.519516648,1746537731,514312415,piren,0.028963508636798224,-0.04005239258663043,0.04661794509587072,0.0018243774653981825,-0.004105563197169934,0.004343761991517368
2025/05/06 15:22:11.974857109,1746537731,965387538,piren,0.014874566805338192,0.09452282939960294,-0.01126412403953924,-0.000559086093881914,0.0022669087103090796,0.0070461803621190535
2025/05/06 15:22:12.428605099,1746537732,416792535,piren,0.04146082663319271,-0.035978924435084464,0.04070420440606437,-0.003083278227798873,0.0028208257560084155,0.008062834298024695
2025/05/06 15:22:12.878495226,1746537732,869799059,piren,0.016633478269932545,0.1339608083872013,-0.03130264088526519,0.0054514918123705165,-0.004117714155436142,0.009610213994001165
2025/05/06 15:22:13.370576826,1746537733,365812904,piren,0.03993841703859312,0.023825406333390267,0.018290835234880558,-0.0030730614152817194,0.002141652170350329,0.010430893549227074
2025/05/06 15:22:13.826130897,1746537733,819249134,piren,0.024254478648754463,0.10896760756618327,-0.01677421706266475,-0.0014041251340596696,0.0023782508323919485,0.011455581918867834
2025/05/06 15:22:14.275418008,1746537734,268312367,piren,0.015515434488952685,0.15899897352355813,-0.037851648498382844,0.0033995540670013727,-0.00448432339066716,0.013351326285222181
2025/05/06 15:22:14.730575309,1746537734,720059707,piren,0.030824277966394455,0.1038274537615512,-0.014402864499454354,-0.0014354914681754052,0.0038010949988621368,0.011954705680275216
2025/05/06 15:22:15.194531964,1746537735,172469173,piren,0.031189927063042213,0.11194153729543407,-0.023757236914163288,0.00042727613069889667,0.003831491859768185,0.012867648622905101
2025/05/06 15:22:15.631404016,1746537735,626936263,piren,0.06883675184417394,-0.06541037304859806,0.0496988969681679,0.00029163801602561084,-0.005307701801867126,0.008930509113228428
2025/05/06 15:22:16.87189075,1746537736,80461901,piren,0.062385992446434335,-0.041064075243002165,0.04392572602543919,0.002135186946787281,0.006764859084870512,0.0056844138356747275
2025/05/06 15:22:16.583529091,1746537736,575752712,piren,0.046114549678759664,0.035043459292774554,0.015562150924900396,-0.001123722910378274,-0.0008267025952125282,0.0023617874192956878
2025/05/06 15:22:17.36586027,1746537737,30018186,piren,0.026874455537609046,0.07754096968728894,0.0055752029121949424,0.0009600958440089698,-0.006416137679169592,-0.0017586175023421437
2025/05/06 15:22:17.490335115,1746537737,483088051,piren,0.02115969430251449,0.07059940011890879,0.01494751792774399,0.001317185536853787,0.005862477892848563,-0.00466179138989209
2025/05/06 15:22:17.947071192,1746537737,940056339,piren,-0.0020522276494827907,0.13884917015852855,-0.009008191793649967,-0.0010336269199393078,-0.004368466679113147,-0.007935994046442475
2025/05/06 15:22:18.396089314,1746537738,391764760,piren,-0.003674454936799282,0.07387267295675931,0.02112421638995859,-0.0010377724381413441,-0.004285324508125443,-0.008698781898153362
2025/05/06 15:22:18.851553771,1746537738,846445160,piren,-0.02311074601261656,0.1579952529314601,-0.010315054853840686,0.0023563202403966586,0.008659603734131481,-0.010782642909349566
2025/05/06 15:22:19.305512178,1746537739,301969991,piren,-0.01038585916762689,0.09088680670629451,0.016081006920672724,0.00013825865039971398,-0.008626089125454954,-0.009683606394522919
2025/05/06 15:22:19.805621090,1746537739,801152108,piren,-0.033316384413865065,0.18698240552680595,-0.021028138516752812,-0.0022161812143041836,0.004689122831710544,-0.010178659410978145
2025/05/06 15:22:20.258759509,1746537740,252929873,piren,-0.052163260784254574,0.3074990211506706,-0.07769745634286894,0.0014911417246231944,0.0017759044064732535,-0.008822209717466755
2025/05/06 15:22:20.707438094,1746537740,703599433,piren,-0.029334521329564937,0.1736007356817486,-0.02138390805353242,-0.0007299394649604277,-0.004990359043435952,-0.00656362896950973
2025/05/06 15:22:21.182598336,1746537741,157559008,piren,-0.035015026390692344,0.2217981025245995,-0.04546859683114003,-0.0015457760450864996,0.0007148645494998876,-0.005325077285759531
2025/05/06 15:22:21.627275119,1746537741,613837457,piren,0.00439996132781767,-0.02112031158671876,0.05060292264119379,0.0014004253907082395,0.004030062548098599,-0.0017323767003189642
2025/05/06 15:22:22.71485400,1746537742,66916134,piren,0.009766506672031262,-0.03054122212461103,0.053052870930073756,0.0016375824977938114,-0.002306071391123666,0.001198624296957119
2025/05/06 15:22:22.526898774,1746537742,518733959,piren,-0.0021324961182469827,0.06586973390690268,0.009962272070464982,-0.002176706854892544,-0.00036246646085147003,0.0022879926514376317
2025/05/06 15:22:22.975011217,1746537742,970558672,piren,-0.002045550054481047,0.07928789771904171,0.0002646465430720113,0.0002852045676946486,0.00401062751823102,0.003930934378899108
2025/05/06 15:22:23.480631248,1746537743,469609540,piren,0.00042436929288692995,0.08460991191013868,-0.006807708292519087,0.0018467728080572335,-0.0026252807016469795,0.0034771324244686763
2025/05/06 15:22:23.931107784,1746537743,926377092,piren,-0.00019656500830910004,0.08345221512295262,-0.008638929179134357,-0.0020098660297635266,-0.0012235853302268267,0.0033474171943577474
2025/05/06 15:22:24.387319812,1746537744,382936901,piren,-0.004969343962102122,0.07682425275229485,-0.008225488663059543,-0.001156637650766371,0.0019280237120169969,0.0037276061738270513
2025/05/06 15:22:24.842898122,1746537744,838663205,piren,-0.02317003351422476,0.168053027611541,-0.053093220143165525,0.003106922937425276,-0.0008172761806689359,0.005120379658003838
2025/05/06 15:22:25.319667508,1746537745,296893491,piren,-0.005531258153814396,0.07985148352813716,-0.013935038911263749,-0.0003348716515873942,-0.0007015487061760775,0.005352987481890943
2025/05/06 15:22:25.772760047,1746537745,755897399,piren,0.00040845928274417086,0.04895175481688106,-0.0011714631053125722,-0.0010248693974549904,0.0017442340935733532,0.006288114687943757
2025/05/06 15:22:26.217956121,1746537746,211683415,piren,0.012578011324876806,-0.0076284618349286085,0.02204653199010327,0.0034475381659502327,-0.0009624196583488089,0.00607122481324049
2025/05/06 15:22:26.718813353,1746537746,711242387,piren,0.0429901070144299,-0.13998290907952599,0.07333296716179998,-0.0002810738803814805,0.0006260594541006386,0.007720733809660508
2025/05/06 15:22:27.175938782,1746537747,171648691,piren,0.027448972642378302,-0.04692259142971074,0.03336673519255786,-0.00035454503105126367,0.0026950897768011624,0.006354173283286086
2025/05/06 15:22:27.647482667,1746537747,626899182,piren,0.030215760812189053,-0.07722173207216605,0.04288752683124013,0.001537937018399296,-0.0027889878769001095,0.003098331651168174
2025/05/06 15:22:28.102819582,1746537748,93737781,piren,0.005503597571351073,0.02611979624084647,0.003008988539877855,0.0005577416837888798,0.0014382270219155356,0.0013082405956863984
2025/05/06 15:22:28.559660201,1746537748,553298737,piren,-0.021720911632746483,0.13328535421160317,-0.0400676607941099,-0.0019185456981953585,0.0008779063686106342,-0.0005130034419389552
2025/05/06 15:22:29.17006581,1746537749,11021905,piren,-0.04793823265695185,0.2354855298897751,-0.08279848308943885,-0.0015193411909498005,-0.005143152804048278,-0.0011891759068812984
2025/05/06 15:22:29.475562962,1746537749,471287191,piren,-0.02923017294351642,0.12768358474331812,-0.03547932433012891,0.0009079054570408779,0.004110447990054335,0.00014836801786532824
2025/05/06 15:22:29.997841059,1746537749,974785629,piren,0.011487721686853785,-0.06040360690126312,0.03942572130055969,0.0002400772002421623,-0.0023770758154602026,0.0019571028922211876
2025/05/06 15:22:30.436559018,1746537750,431532349,piren,0.03584540329789002,-0.16416218688900647,0.07966373664093905,-0.0011436684471233804,-0.001375408063203253,0.003846057708383873
2025/05/06 15:22:30.895740629,1746537750,888749587,piren,-0.0015020283437931908,0.05203762689629962,-0.01447417401820468,0.0006703295602957071,0.004110227746078698,0.004687478500481369
