time,header_stamp_secs,header_stamp_nsecs,header_frame_id,twist_linear_x,twist_linear_y,twist_linear_z,twist_angular_x,twist_angular_y,twist_angular_z
2025/05/06 15:20:05.339947707,1746537604,966836975,piren,8.745861212969189e-07,9.460574643299974e-05,4.2334003356721e-05,4.1500227734629205e-07,6.93706191808153e-06,3.593821632686904e-08
2025/05/06 15:20:05.947696677,1746537605,911856557,piren,2.7715769110674428e-05,0.00015753839657545976,6.632050654448533e-05,2.1923283717962742e-05,3.6608450936547757e-06,2.3514043126426995e-08
2025/05/06 15:20:06.979918872,1746537606,945742044,piren,8.445836487638968e-06,6.71484763348096e-05,2.5293992477039195e-05,-2.5393926708664744e-05,-6.319475985891524e-06,1.886557788319602e-08
2025/05/06 15:20:08.106973066,1746537607,942371332,piren,-1.5822468845975002e-05,-0.00016624828646252216,-7.325881530855706e-05,2.5456271490905107e-05,-5.48179819151329e-08,8.770507127616852e-09
2025/05/06 15:20:08.932373329,1746537608,920104540,piren,-5.4422972655977e-06,-0.00010280360290175138,-2.4584986022296527e-05,2.0568558440029554e-05,0.0006746851750767684,-1.2330921856769617e-06
2025/05/06 15:20:09.449543889,1746537609,440502316,piren,-0.0012277689433057334,-0.0003544679972514058,3.979571605601306e-05,-2.151293736651022e-05,-0.0001071324728330928,4.892984957600418e-06
2025/05/06 15:20:09.917712745,1746537609,899909234,piren,-0.0010934449633336289,-0.0029233541360332237,9.591877962365742e-06,7.12856519529754e-07,-0.0004644067460876627,1.0692282410030635e-05
2025/05/06 15:20:10.454733880,1746537610,446632171,piren,-0.00019947905625411716,-0.005439660798428867,3.264874378310148e-05,1.5252099399410313e-06,0.00021814748672731717,1.7180580493622522e-05
2025/05/06 15:20:10.994258296,1746537610,969119115,piren,0.0008888767209035795,-0.008473211714249695,-1.970359483261912e-05,-2.168801106114003e-05,-0.0007986091478678862,1.9126982062409675e-05
2025/05/06 15:20:11.416671931,1746537611,410636617,piren,0.0017685498486478776,-0.0087964053436921,-1.1532067375815433e-05,0.0011312383945936704,0.0009144789987234984,2.0994810670331956e-05
2025/05/06 15:20:11.870947799,1746537611,859569337,piren,0.003793674234330472,-0.013627061310512521,-0.0027269313659812216,-0.0009822426612053976,-0.00037507267951814,4.683105850190903e-05
2025/05/06 15:20:12.302236485,1746537612,288149342,piren,0.008771851881889309,-0.00345521706264867,0.0011867153413574784,-0.0010061954691990998,-0.0007498252418541219,5.775653377117245e-05
2025/05/06 15:20:12.765797598,1746537612,759696313,piren,0.015960185769502113,0.11237221946237008,0.0459113863420751,0.00014536828657933483,0.000439818779790238,3.4464934003793124e-05
2025/05/06 15:20:13.199469371,1746537613,192790248,piren,0.022975072394696972,0.030119198615863783,0.016445225561340652,0.0004764275399993157,2.3757744162826704e-05,-1.0828820093732849e-05
2025/05/06 15:20:13.625382219,1746537613,618502785,piren,0.029900376601621065,0.07987860639854705,0.03308625306452729,-0.0009680721177762946,-0.000999758153775744,-6.104511573710349e-05
2025/05/06 15:20:14.44374268,1746537614,40009220,piren,0.0364616348324568,-0.037526132541279664,-0.01103055889362868,0.0006294595551098533,0.00040539538382875173,-2.9456992424218583e-05
2025/05/06 15:20:14.466037835,1746537614,462151423,piren,0.0400644022081818,-0.12952945146304073,-0.04010850896687753,-5.8192011304813295e-05,0.0004299853842879584,2.1846894932396487e-05
2025/05/06 15:20:14.886467415,1746537614,882670275,piren,0.04375783688127581,-0.22589441745994862,-0.09177080156164483,-9.357821205435548e-05,-0.0009068745808919129,8.721428708585778e-05
2025/05/06 15:20:15.311812607,1746537615,304032869,piren,0.047935383759391784,-0.11628277005565839,-0.04522991934405834,-0.0004237938727894057,0.0004373926561858562,0.00013977542362637592
2025/05/06 15:20:15.779920605,1746537615,773120026,piren,0.05263871232570374,0.0047108732422717625,0.0038413203062260953,-0.002622392985465449,0.005483713913681347,0.00017415920331900387
2025/05/06 15:20:16.215423695,1746537616,196564923,piren,0.050071658736744316,-0.013334173421117639,-0.007223514176531118,-0.003064183715767901,0.00014909668073468445,0.000915944563545743
2025/05/06 15:20:16.623705906,1746537616,619431919,piren,0.04316685968933984,0.08829359087624251,0.0412710403864606,-0.002187805699809016,-0.001151444522045154,0.0040202361900034895
2025/05/06 15:20:17.49144756,1746537617,45334901,piren,0.03311903018497365,0.11579841099833285,0.06545855614907742,0.001909268093320197,0.0012820983849450125,0.008775490905851918
2025/05/06 15:20:17.471938827,1746537617,465065856,piren,0.028806982120249673,0.19033866977433622,0.08470852306131235,0.0019415389546414696,-0.0009670478750001369,0.007202557552315513
2025/05/06 15:20:17.889697077,1746537617,886039622,piren,0.016736210467993014,0.03824470889220763,0.02607402003555175,-0.000495629985676791,-0.0013127347389115523,0.007988563135099314
2025/05/06 15:20:18.315792261,1746537618,310304738,piren,0.00978918497644726,-0.08880939265268274,-0.02510036895066038,-8.72654195827963e-05,-0.0012237777099563091,0.008188851718399854
2025/05/06 15:20:18.738866677,1746537618,732812021,piren,0.008890740432674998,-0.0991819478842071,-0.03442489149405158,0.0007705266696419877,0.00034606760956117495,0.007958479477244328
2025/05/06 15:20:19.213106366,1746537619,204332470,piren,0.01816213668130877,0.0022134819756156362,0.008744854998408654,-0.0013928553026326096,0.00010629174905777664,0.0074726405664936
2025/05/06 15:20:19.644407901,1746537619,639084332,piren,-0.00924568989420355,-0.10068512457627393,-0.03503470840679912,-0.00029620540900012865,-0.0012032783603554361,0.007521342036835402
2025/05/06 15:20:20.73997743,1746537620,68406390,piren,0.012478549574859384,-0.07610211507961019,-0.02879987915949743,0.0009307398671816016,-0.0002892762036388878,0.005288426206931755
2025/05/06 15:20:20.510769122,1746537620,505653396,piren,0.028455945317294423,0.06319970699989143,0.030358607493760535,0.00014445515431413895,0.0007271531564942657,0.006073020103647701
2025/05/06 15:20:20.941347352,1746537620,937438105,piren,0.03676336299600695,-0.009758272130304675,0.0024272153975757596,0.0008109800938286351,-0.0006713744395615952,0.00485050867785642
2025/05/06 15:20:21.393097070,1746537621,364193395,piren,0.04496852103723624,0.07216201548207851,0.039264429367157495,-0.002223338298200052,0.002417428986771668,0.004527756585422685
2025/05/06 15:20:21.797262684,1746537621,788965691,piren,0.04629528917045016,0.07791002215466455,0.04257676301530951,0.00041213909549394593,-0.001131567217137433,0.005840206132618127
2025/05/06 15:20:22.239210372,1746537622,219522235,piren,0.03518516309855303,0.054622886122125666,0.03184955674092144,0.0043591310962525906,0.00212713743966726,0.008787046559149376
2025/05/06 15:20:22.695774931,1746537622,687281820,piren,0.019718541704337955,0.010365359742123914,0.011204516620042728,-0.0015785352610147073,-0.002456746054388815,0.010843077801888765
2025/05/06 15:20:23.117844500,1746537623,111719802,piren,0.010295894775254388,-0.1589014263461047,-0.05131950194693325,-0.000821236436054327,-0.00327506631902609,0.007831287647056954
2025/05/06 15:20:23.542741598,1746537623,537084479,piren,0.006045273865595384,-0.21736344664671126,-0.06310052649264483,0.0020142176309016786,0.004343172611275834,0.0065720305830578455
2025/05/06 15:20:23.966836991,1746537623,961233514,piren,0.0023311967691319185,-0.2539984722302697,-0.099029079299112,-0.001208348248121046,-0.0008552262961345867,0.003068021731932404
2025/05/06 15:20:24.399343956,1746537624,387560289,piren,0.006304258394700852,-0.10274666099712991,-0.03088312301677218,-0.0027557707541652023,-0.005465538265759998,0.0014634535379513425
2025/05/06 15:20:24.833299608,1746537624,818895858,piren,0.010585067847010908,-0.051001280719668446,-0.021493137632635245,0.00276244727482586,0.008061848288925796,0.000999583452067271
2025/05/06 15:20:25.267547642,1746537625,257932388,piren,0.005601016285259185,0.14803078773232367,0.05879506609229798,0.002068577906837338,0.0007070508177100088,-0.0010783817851943676
2025/05/06 15:20:25.714191880,1746537625,692063447,piren,0.010032174894076942,0.1480650615448482,0.06092780284460271,-0.0024504579864354807,-0.004821331094136751,-0.0029340980078525355
2025/05/06 15:20:26.180904946,1746537626,175435946,piren,0.017004865596173768,0.07959008280950773,0.04114496659119855,0.0018171493769407953,0.0048658146251826205,-0.005977506809277208
2025/05/06 15:20:26.605880842,1746537626,601275553,piren,0.027086149359815428,0.11497920808578778,0.04983479658152013,0.0022059205996519987,0.0008694384644318596,-0.008387803674781178
2025/05/06 15:20:27.38658850,1746537627,30860121,piren,0.039275442648185985,-0.01848198580348532,0.001165003471499341,-0.000619281871568754,-0.003888184304937563,-0.011550016757868813
2025/05/06 15:20:27.468655283,1746537627,458942565,piren,0.055250462800206984,-0.12713825289651665,-0.03317452532078783,-0.002001005201357025,-0.001167145179971137,-0.011932841762400295
2025/05/06 15:20:27.892560151,1746537627,884654073,piren,0.08106297194496768,-0.20706673803014997,-0.05561545108992638,0.002046075779069992,0.0001595134478182303,-0.011747458409011948
2025/05/06 15:20:28.326443321,1746537628,313292293,piren,0.10286882560775185,-0.23286208556918236,-0.08066205563514439,-0.00010735213918684488,0.0010258368066071296,-0.012951498014140672
2025/05/06 15:20:28.761834218,1746537628,757015103,piren,0.12637756880752565,-0.0918521203450105,-0.02096984596326056,-0.0013305592018876956,-0.0020655882942555988,-0.012511531396817885
2025/05/06 15:20:29.195363144,1746537629,187429334,piren,0.14466315107741856,0.0031931216468233797,0.01459738760102187,0.0003744511423118738,0.0019083668419450186,-0.008242394830232078
2025/05/06 15:20:29.665813059,1746537629,661421319,piren,0.16335250045055597,-0.017732195379139244,-0.0028846682022767582,0.0019051745943828157,0.0023733686367380796,-0.007649931280748657
2025/05/06 15:20:30.121358706,1746537630,92069744,piren,0.17911329865051084,0.1494609109344895,0.06699360189039602,-0.0029547002455564617,-0.004313296143081325,-0.006406111686824902
2025/05/06 15:20:30.548310507,1746537630,523477943,piren,0.19822270291780947,0.12104834078978313,0.06039904624764901,-0.000342819154613494,-0.007352342465947315,-0.004936102044564722
2025/05/06 15:20:30.968848067,1746537630,958639052,piren,0.22400690269031273,0.05204792719570975,0.03393452209109632,0.0012401143557799748,0.0050418121068827254,-0.00022319683040104198
2025/05/06 15:20:31.395876309,1746537631,390961012,piren,0.23169701839649548,-0.005563769192203048,0.0035096555508117096,-0.0015576191031725392,0.006835257401387448,0.004137513422757421
2025/05/06 15:20:31.824402593,1746537631,819981664,piren,0.22976310071999498,-0.09922687484010259,-0.04526129816294175,-0.00169288033071529,-0.004232248127278298,0.006539256912280666
2025/05/06 15:20:32.254821551,1746537632,250684814,piren,0.21708247561186947,-0.054698200787505716,-0.03162803791221401,-0.005582449228459882,0.006157319057619578,0.00556955359322671
2025/05/06 15:20:32.747295615,1746537632,730251720,piren,0.14900333271480748,-0.10204717322454399,-0.03730831404685375,0.006213019928734686,-0.01961862598368129,0.006341564780082987
2025/05/06 15:20:33.188116969,1746537633,160184928,piren,0.07993715738450334,-0.12880898398552357,-0.07996594360143916,-0.0007468629102892808,0.015336017943049464,0.007437203992513935
2025/05/06 15:20:33.611277816,1746537633,595358926,piren,-0.123937871054275,0.4022651147583644,0.1473590898273886,-0.006774317800963063,0.00538235019585208,0.016539540750174397
2025/05/06 15:20:34.29415392,1746537634,24196759,piren,0.017590210098953604,0.235276818388164,0.09488299076819683,-0.001476647485840358,-0.0050255185017663295,0.0139975176813697
2025/05/06 15:20:34.457913495,1746537634,453114055,piren,0.0899467876611122,-0.13615007070313517,-0.02276404292479506,0.006323615037727579,0.0038336398648148536,0.012759781539802745
2025/05/06 15:20:34.887332480,1746537634,883050142,piren,0.12502317628773768,-0.12907010295892735,-0.009492740672737993,0.0010932583987930517,-0.002394115900812698,0.011337445119086114
2025/05/06 15:20:35.318673328,1746537635,313158915,piren,0.11942921703666834,-0.09658080816598574,0.011653226364077736,-0.006022862479977614,1.9002223633446714e-05,0.008863669648129558
2025/05/06 15:20:35.743964133,1746537635,740854164,piren,0.08472003281416349,-0.27620780779867377,-0.10432741925241124,0.0026863888058106487,0.0002863777021656277,0.006716040910160808
2025/05/06 15:20:36.232387523,1746537636,219831749,piren,0.0389839543370434,-0.06851949286711946,-0.019670954721392114,0.004168769938181121,0.002507599390109712,0.005203490852186862
2025/05/06 15:20:36.655366508,1746537636,650974158,piren,0.0045182499879203135,-0.03260334806575008,-0.016518033425550416,-0.003931750696447838,-0.002618390223524911,0.005684844091305335
2025/05/06 15:20:37.86312083,1746537637,81002637,piren,-0.008733979976239032,0.013525185458522984,0.0013706425375179742,0.0013412908734545064,-0.00016246320333629014,0.004549458952595695
2025/05/06 15:20:37.518310913,1746537637,511175075,piren,-0.002625666330301195,0.11289029562320888,0.03996706210809195,0.002329363114767835,0.0038467702058523545,0.006669981906238212
2025/05/06 15:20:37.944584137,1746537637,938214471,piren,0.004209363573656785,0.029660369915678938,0.011356565522440902,-0.0010999734330068356,-0.00311184179240292,0.007979800999471565
2025/05/06 15:20:38.409666366,1746537638,385638574,piren,0.0002053666400198828,-0.10629256193120384,-0.03791584946788187,-0.0008377645932448986,0.00039899633340616724,0.0069985096711087415
2025/05/06 15:20:38.854399962,1746537638,838496757,piren,0.016519768080183315,-0.08457063139610767,-0.02840248944830187,0.0011031678984991954,-0.0009028130747198359,0.007501597182032093
2025/05/06 15:20:39.275727599,1746537639,271776389,piren,0.03728866663810562,0.06878762325475019,0.03679432399703848,0.0007016122577609533,0.00024145019312483276,0.005494824013318313
2025/05/06 15:20:39.750601746,1746537639,747038364,piren,0.019739022469180034,-0.023293702344134085,0.0007862127107298675,-0.0006727184400636913,-0.0018479396391739465,0.004230968891467223
2025/05/06 15:20:40.185817139,1746537640,179992614,piren,0.022422935891589668,-0.04433953746725322,-0.013195596520554,0.0011748504553176714,-0.0009509843199582513,0.0018735352956679903
2025/05/06 15:20:40.623457144,1746537640,609536360,piren,0.013784249162726402,0.0886215405962803,0.042466376587161805,0.0029421039690689975,0.0049594053554030855,0.001342799492455574
2025/05/06 15:20:41.62288969,1746537641,41397454,piren,-0.0018542815282418662,0.12915101531713818,0.05315542318518929,-0.002547083199019236,-0.00037243814727841207,0.0008053632772787255
2025/05/06 15:20:41.482532038,1746537641,477774088,piren,-0.019153530539965317,0.06519170262258124,0.027590699330339738,0.0012236174163347553,0.002932989659986508,0.00022441418874331054
2025/05/06 15:20:41.914520337,1746537641,910732808,piren,-0.015965481209372342,0.041263450881388115,0.014136272764855589,0.002562615291173166,0.003871601724764637,-0.0019952323879952947
2025/05/06 15:20:42.346017313,1746537642,341038722,piren,0.010112380466791197,-0.09947332854251134,-0.03838906094514251,-0.0027662617831692984,-0.006824425527492243,-0.004645720091240498
2025/05/06 15:20:42.776973668,1746537642,773080511,piren,0.04846682095656677,-0.11990689041597594,-0.0414111551500609,-0.0012949422962657473,0.0008980533028131474,-0.005671500720879186
2025/05/06 15:20:43.252235754,1746537643,244601982,piren,0.07430838802703997,-0.047187599370082114,-0.00393132072168476,0.005142022614264673,0.004349217313610405,-0.007591271523952896
2025/05/06 15:20:43.701713101,1746537643,674676924,piren,0.08608763788947572,-0.04329135149684085,0.0065379868702717505,-0.0011646122630107135,-0.012812477847338643,-0.006892401408900947
2025/05/06 15:20:44.145681599,1746537644,124388194,piren,0.09540395647413578,-0.21662370183781626,-0.07441421391262554,-0.0031511264064564976,0.009239449555505593,-0.006167968347456754
2025/05/06 15:20:44.561313951,1746537644,554699360,piren,0.09107087060139021,-0.12269600276632296,-0.04055510842839514,0.0017089720555519693,0.004067744633618796,-0.005268178631155186
2025/05/06 15:20:45.19978413,1746537645,13842034,piren,0.07833181229261589,-0.019490865510608652,-0.000509760044523018,-0.00028753729875865555,-0.007562141413630171,-0.002304008549060729
2025/05/06 15:20:45.459998131,1746537645,455236390,piren,0.058971490635057286,-0.05356897620781467,-0.028657177269208085,-0.00287341289162376,0.008487430769791074,-0.0013372390624532408
2025/05/06 15:20:45.888787059,1746537645,884459529,piren,0.05065287310966061,0.1600035741884567,0.06419079217648334,0.002178528644978318,-0.0024937911229046712,-0.0004374041963190011
2025/05/06 15:20:46.321776615,1746537646,316082880,piren,0.05065572048153261,0.20233097583747814,0.07575200029386434,0.002040166885567357,-0.005287319939501899,0.0005263343007388025
2025/05/06 15:20:46.827460383,1746537646,818770934,piren,0.051298756199294616,0.05561281767478282,0.020916485016934237,-0.001386046641392703,0.008291347588327839,0.0020085492968632004
2025/05/06 15:20:47.261709919,1746537647,253434905,piren,0.06048376107784602,-0.03233084314783739,-0.011860625861753906,-0.0029189564140107388,-0.0060290872878528,0.0037310114783873603
2025/05/06 15:20:47.692517283,1746537647,687214077,piren,0.057012432602949,-0.18406551148008654,-0.06539648559290782,3.540607528438954e-05,0.003495730581250168,0.004145077851803829
2025/05/06 15:20:48.135384470,1746537648,125578146,piren,0.03712149194851357,-0.22147805308269541,-0.0950643779170792,0.001647077128259687,-0.0001615879661178798,0.004238605004266248
2025/05/06 15:20:48.567921384,1746537648,561018511,piren,0.0077860834231481026,-0.0678837217246779,-0.028926799570029974,-0.0005848494955834839,-0.0028466972423488537,0.002576949182018717
2025/05/06 15:20:48.997337051,1746537648,993023131,piren,-0.006016091935400057,0.1492518524700603,0.07554662929895054,0.0015421102170148917,0.0009340516653992113,0.0007973514937690469
2025/05/06 15:20:49.430796486,1746537649,426623972,piren,-0.018513998680149392,0.23822807508953603,0.10001830263324726,0.001636394371055074,0.0012652349625668375,0.0006414635130400667
2025/05/06 15:20:49.866506359,1746537649,859302403,piren,-0.022513450230762535,0.10798334638675675,0.04737311924894862,-0.001115612542561025,-0.0008215896463062313,-0.00010712705929630424
2025/05/06 15:20:50.355345945,1746537650,341399562,piren,-0.019301943570764472,-0.0202172864055398,-0.006030121027701176,0.00024432218866423825,0.0014261685537722748,-0.00039129417378406053
2025/05/06 15:20:50.810390976,1746537650,802359346,piren,-0.010075026544627774,-0.10425801337281196,-0.03639256774994474,0.0007573682964817797,0.0007964042756315921,-0.00019847349562099006
2025/05/06 15:20:51.246820947,1746537651,241910362,piren,-0.007322133017464039,-0.20613224141512043,-0.08887800701638568,0.0011531336707582631,0.0025259258542502014,-0.00028543541072057995
2025/05/06 15:20:51.683293694,1746537651,678254678,piren,0.0046369596175424126,-0.1132961984738603,-0.049368072596574504,-0.0017060122425149667,-0.002394307138536509,-0.0017448702377213462
2025/05/06 15:20:52.119384667,1746537652,113026829,piren,0.018699282299684573,-0.0031019497853614626,0.0020741308885340133,-0.0002967458644490581,0.001453664142945624,-0.00330891505497123
2025/05/06 15:20:52.548810641,1746537652,542700351,piren,0.02665037359364364,0.030118843903367873,0.021770829611923267,0.0018633411003150795,0.0015618049142329079,-0.006030640083104371
2025/05/06 15:20:52.992858535,1746537652,976602566,piren,0.034478875049144146,0.17109110795525534,0.06802858070533417,-0.001724802186561848,-0.003804983954944394,-0.006809790319083409
2025/05/06 15:20:53.463130931,1746537653,456942106,piren,0.04531961710893759,-0.03544569932510087,-0.0032860071023367767,-0.0008492277795153569,0.0003124299191229359,-0.008419992236939866
2025/05/06 15:20:53.893651406,1746537653,889278966,piren,0.04849612403039796,-0.05078524536047162,-0.004140137314747527,0.001425203944942754,0.0024377159938250167,-0.00771535786864282
2025/05/06 15:20:54.330573054,1746537654,322267160,piren,0.049362763268559276,-0.057589460217381774,-0.0027667078442304587,-0.0005754547129209571,-0.006646657026371757,-0.00827043751472986
2025/05/06 15:20:54.797698610,1746537654,767024054,piren,0.05199498148268092,-0.06672917904533794,-0.01144924383713735,0.0005627380594387639,0.005625946227532855,-0.006586968390720878
2025/05/06 15:20:55.206579519,1746537655,198410617,piren,0.046730453236598794,0.04266412743355011,0.02838714207473215,0.0001268119993184676,-0.0015154207898775544,-0.0037680888845301897
2025/05/06 15:20:55.642074613,1746537655,634021122,piren,0.04348940869733066,-0.01583998537576877,-5.233279167358804e-05,0.00019728490157803525,-0.0031294138913859006,-0.0003088130535777538
2025/05/06 15:20:56.78629394,1746537656,67778134,piren,0.03371182121624926,-0.010786114889137464,-0.005104160347873448,0.00021471509457506838,0.007561766545808833,0.0021389031136766594
2025/05/06 15:20:56.505865105,1746537656,501939068,piren,0.026507726744295385,0.0400436802093283,0.011769630602535013,0.0010915622642316287,-0.002005113906594337,0.003499545551479629
2025/05/06 15:20:56.984687308,1746537656,979262513,piren,0.022422762204797532,0.12292353874869462,0.047041517529244896,0.001518769459871598,-0.0018551715151832147,0.004006701834280437
2025/05/06 15:20:57.418385056,1746537657,413368488,piren,0.01976778233208281,0.13543372216476723,0.043969617630650985,-0.0013731438267360224,0.004554194359999667,0.0050741455658093486
2025/05/06 15:20:57.849256145,1746537657,845617554,piren,0.01864809612046733,0.016211166622849476,-0.003543050975282512,0.0003165764550727941,-0.0017784960549473417,0.006972843513661174
2025/05/06 15:20:58.302018821,1746537658,283021539,piren,0.016477792917422473,-0.07041737285871998,-0.035675940087797696,0.0012542856535905245,-0.001163543461414572,0.006305512172415564
2025/05/06 15:20:58.730250411,1746537658,724960771,piren,0.013392167652525776,-0.10311199757594293,-0.04739312877978958,-0.001270356792856861,0.00290607409494632,0.007519073028320336
2025/05/06 15:20:59.166775288,1746537659,162570339,piren,0.006892750205773793,-0.10624661551559374,-0.04685443815934762,0.000620970916086315,-0.0021650726489061073,-0.00012188008631299459
2025/05/06 15:20:59.601293884,1746537659,596498534,piren,-0.0033231673032060975,-0.11463340081266833,-0.04621489629484554,-0.002618955964979716,-0.0044715465987223615,-0.0034197284109604167
2025/05/06 15:21:00.38533831,1746537660,34234227,piren,-0.01572580610205095,-0.10063049021385041,-0.04762971857249058,-0.0008352677229812127,0.005607640513970521,-0.0023057689644016767
2025/05/06 15:21:00.521465117,1746537660,512897916,piren,-0.022063281049247402,0.05520005491564075,0.022800299416885696,0.0013499167159232127,-0.00030845883626108144,-0.0012562415934158724
2025/05/06 15:21:00.963164100,1746537660,953712326,piren,-0.016166226279229166,0.18555670416519385,0.0656348025570244,-0.0023383679130595364,-0.002842049601544739,-0.001306615644389235
2025/05/06 15:21:01.395657934,1746537661,391535401,piren,-0.006528339964903568,0.033252393216828095,0.011619563833022104,0.000336531284987215,0.0018434871664375276,-0.001052142694464742
2025/05/06 15:21:01.831406041,1746537661,827023260,piren,0.0036081816737469526,-0.05317598913842442,-0.01914503778653255,-0.000658541315400766,0.00023278671516324047,-0.0012453530367148853
2025/05/06 15:21:02.266201130,1746537662,261257300,piren,0.012379938711701514,-0.10542038654026199,-0.04544635192301521,-0.0011452220157471583,0.002062371680824138,-0.0021625819867012175
2025/05/06 15:21:02.711549897,1746537662,704439780,piren,0.01430785269673118,0.003999227820978428,0.005492515514884893,0.00040936864839240055,-0.001475796025631273,-0.0034899535422575336
2025/05/06 15:21:03.146261011,1746537663,141116720,piren,0.017925418911309977,0.08891981118234156,0.05125549599033329,0.0006303566918340356,0.0010621166409883775,-0.005763294150713465
2025/05/06 15:21:03.611450062,1746537663,580316175,piren,0.01765120564670054,0.1712167635317852,0.08044928805475757,-3.607309495752656e-05,0.0005653334809806669,-0.007208378785782257
2025/05/06 15:21:04.71335924,1746537664,64696405,piren,0.02517219289330852,0.042832767522055344,0.03628297063419615,-0.0017669592940971388,-0.007323191339031987,-0.009831942108128645
2025/05/06 15:21:04.507244845,1746537664,503160037,piren,0.04368881561910023,0.012757930315432322,0.02538104787483405,-0.0006719474882985794,-0.00035764411307284054,-0.0076716236360239625
2025/05/06 15:21:04.945892225,1746537664,942249271,piren,0.04369245032293245,-0.11212255751616698,-0.03558405960888047,0.0034071332388765497,0.007457844606102806,-0.005975514133779985
2025/05/06 15:21:05.386319693,1746537665,380576777,piren,0.038825590621707394,-0.031674930186894615,-0.00230193677791542,-0.0009489661136120185,-0.007134681033837129,-0.003269299015515035
2025/05/06 15:21:05.845337731,1746537665,817178159,piren,0.027842708147127224,-0.12097421444337564,-0.044116241062433004,-0.00204339862909624,0.0032024034456173307,-0.0015304546476478489
2025/05/06 15:21:06.275818124,1746537666,261522713,piren,0.01570518267467339,-0.08367014242405574,-0.03735831637292069,0.003740140047130307,0.005089795259968357,0.00048163768963119404
2025/05/06 15:21:06.718154597,1746537666,704136238,piren,0.007455624975138917,0.03485192252499715,0.00868074862481662,-0.0013745015997479184,-0.005611533756318656,0.00177803910572025
2025/05/06 15:21:07.150338868,1746537667,145762427,piren,0.0031333957706375926,-0.08136006301741286,-0.04551708295142707,0.0009492248585833073,0.004027972955289291,0.002907168992774896
2025/05/06 15:21:07.633754878,1746537667,629597292,piren,0.002165352972341803,0.06895209962790236,0.016652972841441568,0.00022450075579889678,0.00030297053322450606,0.0028198205523273525
2025/05/06 15:21:08.76280945,1746537668,69780213,piren,0.0055204927173876095,-0.060526245932378604,-0.026131682747487155,-0.0007632562525155543,-0.006497757408976529,0.0030752801055562947
2025/05/06 15:21:08.516347394,1746537668,507755102,piren,0.009372784590336098,-0.12297801890609489,-0.06033049093341049,-0.00046125372501969566,0.005127140314352593,0.0046800338416928995
2025/05/06 15:21:08.961695382,1746537668,948655243,piren,0.010646959947672941,0.07531517324742262,0.02472235612315786,0.00021836937400231975,0.0004006494708160175,0.005406932560743504
2025/05/06 15:21:09.394861039,1746537669,388104690,piren,0.010312548630584083,-0.00761213797763192,-0.005593738592853885,-0.00012288463589231512,-0.0040035074418467665,0.00539872185756364
2025/05/06 15:21:09.833540582,1746537669,827648122,piren,0.0045081036773734675,-0.053943749943607275,-0.024867411671656993,-0.0022006253312144473,0.004770001683812289,0.006302561128683727
2025/05/06 15:21:10.273757993,1746537670,269683068,piren,0.0007344403720250404,-0.04415761040894144,-0.029827663928455258,0.0008636378519390726,-0.0009851589811063148,0.00499223206994609
2025/05/06 15:21:10.776381689,1746537670,759726557,piren,-0.000755048414036015,0.14898157965292888,0.05256365825901388,0.0015863264935284027,-0.0011100661757002864,0.005006530027924924
2025/05/06 15:21:11.208743770,1746537671,202993362,piren,-0.005187535105256283,0.14681166376014015,0.06454801735981873,0.002677170538100706,0.0047202088576270874,0.004524985225196687
2025/05/06 15:21:11.665173021,1746537671,645560982,piren,-0.0068407350026591165,0.22968486785835535,0.09750331538286128,0.0009390323657323966,-0.004604177473351669,-0.002906826136329644
2025/05/06 15:21:12.90126516,1746537672,84655893,piren,-0.010081016719770956,0.16291827907623796,0.06436813121412434,-0.0019644083268740694,0.0016530838598101708,-0.0030808053026222574
2025/05/06 15:21:12.528091520,1746537672,523599222,piren,-0.01481743883597968,-0.0035013749626910057,-0.0011068358690479187,0.0014372265059310883,0.0016851441948057128,-0.0034241118129945737
2025/05/06 15:21:12.971848898,1746537672,966128845,piren,-0.012539913165233021,-0.12381517232362947,-0.0561210757786202,0.0006957676322305427,-0.004166332060352252,-0.003048062605845405
2025/05/06 15:21:13.409772170,1746537673,404567048,piren,-0.005715193642978828,-0.048163195329178565,-0.01423351587065095,-0.0023442339521098487,0.001393385091737997,-0.0032540259749647056
2025/05/06 15:21:13.845877447,1746537673,841654716,piren,0.00304275394983914,-0.19369162751207855,-0.08343298459162744,0.0012525338076353274,0.004251555227012476,-0.003107604813992905
2025/05/06 15:21:14.344914672,1746537674,338233232,piren,0.0027336360593895603,-0.08674859931571033,-0.03300937537658605,0.0016534930186213358,-0.0025133951288660293,-0.0044686433598501675
2025/05/06 15:21:14.783122898,1746537674,779337393,piren,0.008838331199174515,-0.03144441849954909,-0.0052047709194367785,-0.0019042361743527886,-0.004277355423989534,-0.006139364599147703
2025/05/06 15:21:15.231265507,1746537675,223765319,piren,0.023238622501946388,0.03225993428282421,0.02670413681900869,0.00021589816523944876,0.0008779924650235913,-0.007054218809027306
2025/05/06 15:21:15.674110804,1746537675,669656218,piren,0.025887948705837403,0.036495065889327924,0.0288878634855224,0.0015078744194429998,0.002891844511597143,-0.00627702326559533
2025/05/06 15:21:16.114773252,1746537676,107091747,piren,0.021902931612368698,0.04447215230668356,0.027198344153462707,-0.002016633231468427,-0.0059538016541430434,-0.004381567241148372
2025/05/06 15:21:16.552629298,1746537676,545700691,piren,0.020004538898365606,-0.0903180855355406,-0.03555376001573416,-0.00034452583098469234,0.0037407935911969088,-0.002253689134082326
2025/05/06 15:21:16.996114053,1746537676,986733327,piren,0.012783134000456838,0.009096279721868303,0.0030517072968236207,0.0026132507358630395,0.002027319180102481,-0.0005217824942296255
2025/05/06 15:21:17.448988304,1746537677,428824820,piren,0.005081270631564534,0.05561392466452807,0.02261681213616715,0.0019821422508515753,-0.003993626873197942,0.0012956882327100766
2025/05/06 15:21:17.921481416,1746537677,917729866,piren,-0.001079297122991596,0.13467385836576962,0.054816284219511555,0.0008539064112247912,0.003817544348491925,0.00251701214788092
2025/05/06 15:21:18.364803138,1746537678,360269337,piren,-0.0038280164832633426,0.14707031628869574,0.043151694386914935,0.0007129034517638778,-0.0005905353543921664,0.0044487217744105835
2025/05/06 15:21:18.807785368,1746537678,802444452,piren,-0.007019012163478816,-0.05394532174699551,-0.0331799641062866,0.0018739864902461512,-0.0012382364375225308,0.005000781899753216
2025/05/06 15:21:19.272188835,1746537679,245582582,piren,-0.013032761954662153,-0.09696518982774073,-0.04939208428333765,-0.0010937537303953768,0.00401421376891238,0.004696185626477791
2025/05/06 15:21:19.720862426,1746537679,688383865,piren,-0.00942000471106133,-0.07386896349560929,-0.03712398839615826,0.0001956242556510479,-0.0036616589429959373,0.0035064377848321383
2025/05/06 15:21:20.140497038,1746537680,134179087,piren,-0.00639179378029165,-0.03810424644978829,-0.018589753382306163,0.0019387295140500104,-0.0017740389467771377,0.0035835026698672664
2025/05/06 15:21:20.584670186,1746537680,579165962,piren,-0.0028948969153229725,-0.0008752107144297326,-0.003303117181683843,0.0020115288199934337,0.0028012997292009103,-0.00045926335972033627
2025/05/06 15:21:21.27109468,1746537681,21619490,piren,-0.0004840111554465284,0.03274042160900614,0.008023222827380883,-0.002941850066708871,0.002015770429011408,-0.003930677385932918
2025/05/06 15:21:21.552289687,1746537681,547419213,piren,-0.007755837794437456,-0.05809445723105655,-0.029330999363267156,0.0005055605389402138,-0.0025030384599918683,-0.005662097590145413
2025/05/06 15:21:21.999748893,1746537681,990620071,piren,-0.011914593856655883,-0.013938782368132473,-0.004578611095886304,-0.00011077062347923268,-8.995870457477481e-05,-0.0054783787886142086
2025/05/06 15:21:22.460365206,1746537682,437459217,piren,-0.007022864348026471,-0.06501221544527758,-0.024426748938869224,-0.0008348080351931664,0.0008066059793367902,-0.006754592200886598
2025/05/06 15:21:22.903459837,1746537682,883637697,piren,0.003323443125360838,0.016741041167422095,0.015035251576556379,-0.002149932980826634,-0.0029735050585203426,-0.006280253310250347
2025/05/06 15:21:23.331631019,1746537683,326167693,piren,0.015124139071989756,-0.04200877880224438,-0.009849627363705243,0.0016898806987035377,0.0002683591817013417,-0.006507751214486411
2025/05/06 15:21:23.773773091,1746537683,769971294,piren,0.018102473000183257,0.14263070523674062,0.07769054688431869,0.001465989214287584,0.002062986953625477,-0.005212399092753934
2025/05/06 15:21:24.215760714,1746537684,210715760,piren,0.019368839057413226,0.20426751085927222,0.09345156381920754,-0.001604877110118446,-0.0025996959251523124,-0.005143063321999922
2025/05/06 15:21:24.657342390,1746537684,653004161,piren,0.018254978216794913,0.06376896818565927,0.0397761935199136,0.0016855027627874042,0.0009188620646813819,-0.004183594414097416
2025/05/06 15:21:25.149250978,1746537685,139689840,piren,0.01200976671926216,0.019645083809963222,0.01543634716450162,2.120954070360582e-06,-0.0001693762589523802,-0.0028689508114682722
2025/05/06 15:21:25.589468408,1746537685,582691525,piren,0.008367503831778679,-0.06026603549543262,-0.02376738541172437,-2.0646126428515398e-05,-0.0010140840780166382,-0.001849033026836004
2025/05/06 15:21:26.28276101,1746537686,23860269,piren,0.005508793494344715,-0.02028925729250781,-0.008685480083203533,-0.0011687513544421933,-0.000818671853951419,-0.0009516325563717736
2025/05/06 15:21:26.467752920,1746537686,463203038,piren,0.005820804770430437,-0.06203743077216668,-0.023892862926280203,-0.0005616889079026583,0.0001516846812830535,0.000965458739020663
2025/05/06 15:21:26.910497913,1746537686,905872124,piren,0.001687756848573703,-0.14404616213963528,-0.062045751516860384,0.0001709331625090451,0.0022105992274259766,0.002786357786808309
2025/05/06 15:21:27.380707029,1746537687,350955655,piren,-0.004254088420287808,-0.09294897835092529,-0.0408211558096941,-0.00013245423232818165,-3.393915134950284e-05,0.0035894120741262418
2025/05/06 15:21:27.813842297,1746537687,795830431,piren,-0.006679754515877005,-0.05932352016138718,-0.031075710960360006,-0.0004499214800895445,-0.0011865343615298787,0.0037215563156559432
2025/05/06 15:21:28.243382514,1746537688,239193010,piren,-0.00821539251351352,0.03207267983903968,0.00841114771433053,0.00027605266740831746,0.0032811432806021494,0.003925427046291184
2025/05/06 15:21:28.733205153,1746537688,729579959,piren,-0.008541462491615782,0.1991951620861908,0.07224286446506317,-0.0010248892491522593,-0.0028328956216847564,0.0026414462056914712
2025/05/06 15:21:29.172905981,1746537689,169069861,piren,-0.005891254921249915,0.11530899928956247,0.04615706564132861,0.00029391395511316854,0.00046999544423428295,0.001993510775458747
2025/05/06 15:21:29.621558175,1746537689,611712176,piren,-0.0037933537879841564,0.07835599809239535,0.025868682931479606,-0.0014594889041519652,0.0017089560311299816,0.0015065261258607264
2025/05/06 15:21:30.76263035,1746537690,54216547,piren,-0.000685373498694318,-0.11699201629986565,-0.05822972498387585,0.0014787170069877561,-0.0006030724027078073,0.0007377864001374239
2025/05/06 15:21:30.523792773,1746537690,504785199,piren,0.000578633918081807,-0.009032592516340088,-0.005004253660928585,0.00047118010174996487,-0.00010783783090942086,-0.00042538159079969
2025/05/06 15:21:30.952575133,1746537690,946532686,piren,0.003221802529925934,0.07042142278432445,0.025748431335003444,-0.0014127742737549485,-0.0008408061899421686,-0.0015318384996899578
2025/05/06 15:21:31.392777020,1746537691,388553136,piren,0.007220162619728687,-0.1207817442300934,-0.039370477975845565,-0.0004239436811791371,-0.0004245040994197131,-0.0017139708667590979
2025/05/06 15:21:31.881869074,1746537691,874848681,piren,0.008909452946780493,-0.20005212592544935,-0.07984756014532231,0.0003885267547932279,0.0019240351995827398,-0.0025191557247870896
2025/05/06 15:21:32.324578448,1746537692,318741218,piren,0.008431673219408846,-0.08084275066507575,-0.02708775790776258,8.495816592561428e-05,-0.0027980629728664047,-0.0035531561056398467
2025/05/06 15:21:32.774930016,1746537692,758315139,piren,0.007958827086834114,0.054449236220427424,0.03111037737587796,-0.0018510916763314579,-0.002595140198456605,-0.004171745733362881
2025/05/06 15:21:33.214766477,1746537693,200220240,piren,0.009765186714087243,-0.018537982246474505,0.0006168114876420568,0.0006210741970944719,0.003542200765945457,-0.0024611426878431786
2025/05/06 15:21:33.653774742,1746537693,648444117,piren,0.009232327600229642,0.04146636960500234,0.024953541273821236,-0.0013188672151963272,-0.00408460070609861,-0.0018317133208501396
2025/05/06 15:21:34.98590884,1746537694,91460936,piren,0.01118474685775497,0.07532569035270513,0.036973770148260234,-0.00021022285949798467,-0.00011040399302900251,0.00015598390950134628
2025/05/06 15:21:34.539497127,1746537694,535653762,piren,0.005839604878164369,0.05639133943606542,0.023642210775941808,0.0012066445768784749,0.005681898584102146,0.0019141258150649938
2025/05/06 15:21:35.8230086,1746537694,979911647,piren,-0.0033580132257083175,0.03068535614808305,0.009135599360214446,0.0013277724678935473,-0.0027329347606236246,0.0023025867191418838
2025/05/06 15:21:35.475442038,1746537695,467295338,piren,-0.007179910799075557,0.1077434440673128,0.035541141235819064,-0.0018674981897524102,-1.5358963640458537e-05,0.0026258101241583907
2025/05/06 15:21:35.918289489,1746537695,913882005,piren,-0.009811073634134138,0.02917363167292239,0.003354623854738839,0.0018968198456788827,0.003391437307290885,0.002440104049496683
2025/05/06 15:21:36.368630681,1746537696,362075815,piren,-0.008103049784969889,-0.05568019921161905,-0.025191055156927718,-0.0015186667157725143,-0.0036308594865416765,0.0022015716249641384
2025/05/06 15:21:36.811980558,1746537696,806499956,piren,-0.0050974286662767085,-0.1651527956319195,-0.08371911757998207,-1.7191594065339143e-05,-0.0002607382306293564,0.0018498144867321795
2025/05/06 15:21:37.257112383,1746537697,251628783,piren,-0.0009461293175155169,0.019918063043853275,0.005944596284157627,1.274971505449484e-05,0.0035451730862910307,0.0024569379970818127
2025/05/06 15:21:37.704051671,1746537697,696589937,piren,0.0010169674411693586,0.15681597315881007,0.061507597160039326,0.0008141131653151773,-0.0021608883284595704,0.0021967740354646454
2025/05/06 15:21:38.148697026,1746537698,143759956,piren,-0.00039641776982371826,0.08386111441402946,0.02889703230943359,-0.0009620736419209104,-0.00016520684471636076,0.0024035589951299256
2025/05/06 15:21:38.621712131,1746537698,597038799,piren,-0.002305920999717947,-0.10436085415582996,-0.05519828955889177,-0.0004652803485832009,0.003604760175287439,0.0021003924669589008
2025/05/06 15:21:39.100121393,1746537699,95994355,piren,-0.006376017184752249,0.045508071047877886,0.009416200351192288,0.00021086466796739478,-0.00030496934411576934,0.0014683901319343363
2025/05/06 15:21:39.548760883,1746537699,543640462,piren,-0.009721840380356134,-0.10376145759510318,-0.042533887999478284,-0.0020686749262008356,-0.0034141449326704067,0.000552815361289167
2025/05/06 15:21:40.17286345,1746537699,993314031,piren,-0.007292005187997604,-0.12341380263661407,-0.05203588191280086,-0.0005968714614372836,0.003443659978299937,-0.00018239160707926835
2025/05/06 15:21:40.461616415,1746537700,447101185,piren,-0.0011074436735693857,0.020836333862176263,0.018929781422503792,0.0007354092156682833,-0.0018186614602245606,-0.0008573363744025681
2025/05/06 15:21:40.899825881,1746537700,894723489,piren,0.004682180782938754,0.03771523630233188,0.03128883225665552,-0.0002727672686951858,-0.001673321001773782,-0.0012550116082071662
2025/05/06 15:21:41.347057349,1746537701,342160870,piren,0.00770413631794774,-0.03352338321931671,0.0028758910688569377,-0.0005162349682852398,0.0034215418162169024,-0.0018635281114785943
2025/05/06 15:21:41.795315533,1746537701,788708785,piren,0.008443455604368162,0.0868984068336009,0.05117374490209173,0.001070423997541136,-0.0017728475717524177,-0.001962808909705508
2025/05/06 15:21:42.249108279,1746537702,241362079,piren,0.006098889146794418,-0.018424304883501635,0.013138762507655877,-0.0005766476416656284,-0.0008480467521851976,-0.0024677922018165074
2025/05/06 15:21:42.742189333,1746537702,735541702,piren,0.0025237677383611115,-0.11586825158788121,-0.03108536349312814,0.0010304114095574613,0.002789388258077784,-0.0024279388447067535
2025/05/06 15:21:43.193706137,1746537703,187096772,piren,0.0018691220385450716,-0.031886104093763024,0.012271896011933842,-0.0013797700054140841,-0.004017337667239942,-0.0022017841675301634
2025/05/06 15:21:43.639419517,1746537703,633532358,piren,0.00021770725114058503,-0.11379195408659588,-0.00884409395006987,0.00011017983640283428,0.001464326696979592,-0.0014098558515641003
2025/05/06 15:21:44.84982919,1746537704,80821042,piren,-0.004824810851002642,-0.23313228439132272,-0.06710904049995886,-0.0006017893428883499,0.0009834814304619842,-2.7484149126029016e-05
2025/05/06 15:21:44.536826166,1746537704,530390499,piren,-0.007729967216174135,-0.14499724483739013,-0.02484096271697642,-0.0004872052494719137,-0.0038077171976503435,0.001809887903792814
2025/05/06 15:21:44.983860674,1746537704,977382494,piren,-0.01488135690827472,-0.06331477723568955,0.008875614773076142,0.0025036386106576263,0.004167986685171929,0.0017450973872981193
2025/05/06 15:21:45.437027786,1746537705,429648003,piren,-0.017558066194926683,0.08208631899052117,0.06839420563674764,-0.0014357003267048247,-0.0022007470199412738,0.0015904536947244092
2025/05/06 15:21:45.928609884,1746537705,924127702,piren,-0.01505317547843216,-0.003225238216496297,0.035054261942146926,-0.0011279969430756387,-0.0007917301497929529,0.0009717776622953632
2025/05/06 15:21:46.381650604,1746537706,372099204,piren,-0.013491912617016991,-0.11672817903329961,-0.02069162752350289,0.0010130960158006676,0.0023635064561139847,0.0008582908302381022
2025/05/06 15:21:46.827618240,1746537706,821626901,piren,-0.011736832922493376,-0.0238442897672309,0.021544732952377965,-0.00012270051290622902,-0.003856477406837218,0.0016160082849702936
2025/05/06 15:21:47.277075034,1746537707,270839741,piren,-0.010540843570896966,-0.11265053802043379,-0.014918933534097744,-0.00033804536115509247,-5.67844384681531e-05,0.00317911250194324
2025/05/06 15:21:47.726206757,1746537707,720326156,piren,-0.013848198747465764,-0.10943657973947211,-0.005834082143646271,0.0007150254002855185,0.0037559960794747555,0.004960028433095114
2025/05/06 15:21:48.175847481,1746537708,170160639,piren,-0.025201802485987482,-0.23832811825728836,-0.058318493989468013,-0.0005203493454315469,0.0006746455643117696,0.0066053884911156605
2025/05/06 15:21:48.623826866,1746537708,616677156,piren,-0.034344971863965915,-0.25412683483223597,-0.07900882159766963,-0.0003941287803546076,-0.0017150783771892053,0.005297235543679825
2025/05/06 15:21:49.77459460,1746537709,66310227,piren,-0.03724481157134739,-0.11261470659730165,-0.023413859228757307,0.001142720910726404,0.003813161818542975,0.003902688579945421
2025/05/06 15:21:49.557768886,1746537709,553952393,piren,-0.03960488987436901,0.1095718482042526,0.07325756913023604,0.0009118800510004037,-0.0015734292243102929,0.0007999091778416649
2025/05/06 15:21:50.3780727,1746537709,998314981,piren,-0.026907785322753074,-0.0004306849443787338,0.04155556922482439,-0.0016229271150297894,-0.0051048712000416685,-0.000982618028520435
2025/05/06 15:21:50.477678377,1746537710,450522439,piren,-0.024257119319609888,-0.09891325071667591,0.0015977201206875445,0.001864519212583098,0.009991462659718857,-0.0033997164482511438
2025/05/06 15:21:50.916325034,1746537710,901872115,piren,-0.02403297326497792,-0.010517855220466155,0.04488688465020891,0.0012406365781226175,-0.005283168736568212,-0.00593432224724258
2025/05/06 15:21:51.357215673,1746537711,350908444,piren,-0.01888421308684428,-0.11635772862817391,0.011000073120839726,-0.0019261299918030275,-0.0035181505894873624,-0.009446456938987073
2025/05/06 15:21:51.851464180,1746537711,845693950,piren,-0.012359872175135535,-0.19160884178531692,-0.013804438415467609,0.00018849729245451154,0.00533273301569897,-0.011477285766861313
2025/05/06 15:21:52.297752986,1746537712,293826583,piren,6.786275605651787e-05,-0.2298503243469215,-0.020975561776771644,0.0015702733708791202,-0.00938961198333357,-0.013919497837164601
2025/05/06 15:21:52.793361697,1746537712,784499263,piren,0.02101822927448757,-0.25317017056731345,-0.03571149611213827,-0.0017073711668656474,0.0023553776118121032,-0.0195447779427623
2025/05/06 15:21:53.244047606,1746537713,237835653,piren,0.039292584758671645,-0.14927492879805965,0.025093073503718245,-0.0022007327246192387,0.0047962047815516854,-0.023884326786633926
2025/05/06 15:21:53.691850105,1746537713,684979347,piren,0.04941140077253677,-0.2783257431726359,-0.056971630620502235,0.0016841715298808657,-0.00872185796121451,-0.022786057268550024
2025/05/06 15:21:54.136142462,1746537714,131044856,piren,0.05797325008913128,-0.12178451400949074,0.026430530290534496,0.0002455073947475187,0.005173339916706312,-0.026779660573258417
2025/05/06 15:21:54.587181827,1746537714,581073176,piren,0.0587416787903467,-0.15221843091803974,0.024667598193878683,-0.0017271709922712423,-0.0014179392926594158,-0.023733091136810477
2025/05/06 15:21:55.33637960,1746537715,28261409,piren,0.07519944199721813,-0.2970025897779194,-0.06114285083927841,0.002384712660444375,-0.008036199880200571,-0.025513785413241376
2025/05/06 15:21:55.492399333,1746537715,481060246,piren,0.0761707215411474,-0.13894158867919848,0.01454891027583819,0.0014809418207254517,0.00917380001984465,-0.0234928879571824
2025/05/06 15:21:55.951333843,1746537715,945057721,piren,0.08434331247836242,-0.037147485936030886,0.059642680959820484,-0.0015640576892359363,-0.004593742561871951,-0.02536672491952189
2025/05/06 15:21:56.439820430,1746537716,435441713,piren,0.0888076023503632,-0.13795447186709167,0.014090610701242855,0.0015501200230499236,0.001819553852926857,-0.0229884193158895
2025/05/06 15:21:56.891565729,1746537716,883860834,piren,0.0771650471374204,-0.15022833742356365,0.006442981012207225,-4.916754470746647e-05,0.007979881848542102,-0.02097725382595425
2025/05/06 15:21:57.337643492,1746537717,331717597,piren,0.07929067438059538,-0.21187150926645032,-0.014512048012515712,-0.0010712714712842449,-0.007165747831932595,-0.019414298458227595
2025/05/06 15:21:57.787401191,1746537717,779399907,piren,0.07593894311531792,-0.3050622425276038,-0.08156976064701196,8.610830499876959e-05,0.0015355567995234797,-0.01467189356521713
2025/05/06 15:21:58.233513460,1746537718,229451823,piren,0.07737233830326434,-0.13310944437687688,0.002179780021358116,0.0009284383980381782,0.006634103068186614,-0.012827026340553185
2025/05/06 15:21:58.681896536,1746537718,677619404,piren,0.0765674204652599,-0.05431610863738372,0.049180915869402805,-0.0015543493842327355,-0.022948351083208217,-0.008361879203945226
2025/05/06 15:21:59.130988776,1746537719,125260401,piren,0.0951154430380256,-0.15997073644368273,0.019037292445206865,0.0004888805364571735,0.013694161975688346,-0.005621357854460141
2025/05/06 15:21:59.628192055,1746537719,621846001,piren,0.08650794404735779,-0.2524302944740854,-0.015684507104138434,0.0006465313847288045,-0.0008609578497623345,-0.0022394914515953246
2025/05/06 15:22:00.76271356,1746537720,72304599,piren,0.0866815054832516,-0.3679058857554802,-0.07989528211211122,-0.002777758066249131,-0.018358142340695167,0.0016899760703667933
2025/05/06 15:22:00.525813223,1746537720,521667404,piren,0.06505023642141007,-0.27538490673019106,-0.06051377306944254,0.0017149151185349906,0.0230856009297277,0.005905003901204844
2025/05/06 15:22:00.977165027,1746537720,972564421,piren,0.05088639465797217,-0.09940320931232188,-0.0019453146630539037,0.0012320538103382528,-0.008758544490596014,0.00653523353385123
2025/05/06 15:22:01.429009388,1746537721,420974375,piren,0.04496381624869484,0.0012566573607248775,0.03729273680448591,-0.004021022200288099,-0.007896698800512088,0.008419323337708232
2025/05/06 15:22:01.877267668,1746537721,871448599,piren,0.025758901928064546,0.06943012315121141,0.05970019175198847,-0.0006747805178629033,0.022629189066695216,0.012503652946341806
2025/05/06 15:22:02.326906619,1746537722,321939492,piren,0.018998953570555546,0.04738506089597414,0.049368848228702224,0.0034660736914055115,-0.01606849830765225,0.01453900198909356
2025/05/06 15:22:02.822538625,1746537722,812566628,piren,0.011433645039221754,-0.028090229059098387,0.029856508188395983,-0.000982089401442564,-0.00745037797439929,0.014133936299589716
2025/05/06 15:22:03.282013285,1746537723,262490559,piren,0.009929467129407305,-0.12914310595764067,-0.006407086311137025,-0.0005960447071123092,0.019021657224984594,0.016545363013637418
2025/05/06 15:22:03.726939882,1746537723,713125982,piren,0.013700622438320462,-0.19633092759344517,-0.031637465119472026,0.0028406735628257957,-0.024003221796131867,0.016931063454303785
2025/05/06 15:22:04.167363476,1746537724,162239694,piren,0.013760566352396628,-0.20609962449694086,-0.02961098114423945,-0.0007520494033013698,0.00896157236115218,0.016520403708286616
2025/05/06 15:22:04.617360672,1746537724,612459000,piren,0.00910598523771075,-0.15836531948222163,-0.018308215243650526,-0.0017283594201875918,0.012050121222778716,0.013676803380310914
2025/05/06 15:22:05.72475233,1746537725,63879232,piren,0.0096464065245602,-0.11910233731584831,-0.007403869182883352,0.001881763287834934,-0.0188731005499849,0.01175203301127364
2025/05/06 15:22:05.538982224,1746537725,529987687,piren,-0.0016697090496790284,-0.092004098945008,0.0027146781548754912,0.0005993333885539423,0.013441705138350154,0.0071043624319379285
2025/05/06 15:22:06.18965750,1746537726,3504498,piren,-0.009346520926895094,-0.04875467983420012,0.015898281059156402,-0.002404225159132032,0.003644275459059128,0.005088629316183644
2025/05/06 15:22:06.505706533,1746537726,501540812,piren,-0.009487831017606505,-0.07172247010117955,0.011177535831860048,0.0010671685623007687,-0.013359342249231665,0.003528602709588267
2025/05/06 15:22:06.957124181,1746537726,951529855,piren,-0.003130157140377116,-0.09482175989062801,0.013184942489757986,0.0005965731337452112,0.009527059006625942,0.0012353419706265373
2025/05/06 15:22:07.408453753,1746537727,403376235,piren,0.00019000729324981924,-0.21863824820566735,-0.05557456036545317,-0.001389515813259154,0.002942618879105549,-0.0010171223765275627
2025/05/06 15:22:07.873916884,1746537727,856444928,piren,0.004886357983270438,-0.11782485160407659,-0.012336966983008988,-0.0011409213344091673,-0.011157807600623383,-0.0017450042738140186
2025/05/06 15:22:08.325754550,1746537728,308611996,piren,-0.005700051546747206,0.009246390150054429,0.045136524768905645,0.0038576612981371526,0.01077273869671116,0.00033773367469126054
2025/05/06 15:22:08.768016249,1746537728,760922225,piren,-0.015475077983899903,0.10292627454987323,0.06710460845073107,-0.0013502705344937956,0.0017161667902056935,0.002371699423506716
2025/05/06 15:22:09.213254496,1746537729,209575577,piren,-0.02350480097904591,-0.13860624466324117,-0.025344559681903397,-0.0009491245464833583,-0.008224865914193396,0.0029176284129040753
2025/05/06 15:22:09.710614710,1746537729,705554270,piren,-0.030477874107864743,-0.182329848106361,-0.04123264448584953,0.00202844471461032,0.006510865458295592,0.004630577861303339
2025/05/06 15:22:10.184306922,1746537730,156070998,piren,-0.028073097779062077,-0.1532244399320153,-0.017279342752650684,0.0012095309331376291,-0.0021249792154468526,0.003400590294468581
2025/05/06 15:22:10.633416218,1746537730,609394184,piren,-0.02183347333806954,-0.23025461097674502,-0.08175823630851183,-0.0029576306454557116,-0.0013421209380724485,0.00154318163847105
2025/05/06 15:22:11.67985149,1746537731,62227845,piren,-0.020351073727389063,0.020963196303453835,0.0352733688559031,-0.00018292530165566474,0.0030355573095958745,0.0017091483022643006
2025/05/06 15:22:11.519506732,1746537731,514312415,piren,-0.02201709111981441,0.046631375227989796,0.044238832855278624,0.0018243774653981825,-0.004105563197169934,0.004343761991517368
2025/05/06 15:22:11.974846267,1746537731,965387538,piren,-0.03078142231353926,-0.0897693121248363,-0.01663349472360837,-0.000559086093881914,0.0022669087103090796,0.0070461803621190535
2025/05/06 15:22:12.428596527,1746537732,416792535,piren,-0.034596305382299505,0.04486819387695078,0.038213299217142754,-0.003083278227798873,0.0028208257560084155,0.008062834298024695
2025/05/06 15:22:12.878574943,1746537732,869799059,piren,-0.04063541317804247,-0.12695952824835455,-0.03784266761614059,0.0054514918123705165,-0.004117714155436142,0.009610213994001165
2025/05/06 15:22:13.370565797,1746537733,365812904,piren,-0.0437344338851567,-0.015372761316009167,0.018661706737465252,-0.0030730614152817194,0.002141652170350329,0.010430893549227074
2025/05/06 15:22:13.826116844,1746537733,819249134,piren,-0.04458184963888366,-0.102842824468422,-0.013394242398109471,-0.0014041251340596696,0.0023782508323919485,0.011455581918867834
2025/05/06 15:22:14.275406832,1746537734,268312367,piren,-0.04661505405362521,-0.1530104319347679,-0.03699991942808268,0.0033995540670013727,-0.00448432339066716,0.013351326285222181
2025/05/06 15:22:14.730565325,1746537734,720059707,piren,-0.051155142866942005,-0.0959758217855464,-0.010464786830033383,-0.0014354914681754052,0.0038010949988621368,0.011954705680275216
2025/05/06 15:22:15.194518845,1746537735,172469173,piren,-0.05373374077502795,-0.10172224576405671,-0.028868589281389946,0.00042727613069889667,0.003831491859768185,0.012867648622905101
2025/05/06 15:22:15.631394015,1746537735,626936263,piren,-0.05346629640032592,0.0783081112240762,0.04996189080104882,0.00029163801602561084,-0.005307701801867126,0.008930509113228428
2025/05/06 15:22:16.87179299,1746537736,80461901,piren,-0.05223075636643552,0.0535141579986853,0.04377125448320226,0.002135186946787281,0.006764859084870512,0.0056844138356747275
2025/05/06 15:22:16.583519227,1746537736,575752712,piren,-0.052354634282591725,-0.024854479487994317,0.015428006715239036,-0.001123722910378274,-0.0008267025952125282,0.0023617874192956878
2025/05/06 15:22:17.36576310,1746537737,30018186,piren,-0.04210654424168302,-0.07058680911981441,0.003234584719281996,0.0009600958440089698,-0.006416137679169592,-0.0017586175023421437
2025/05/06 15:22:17.490954998,1746537737,483088051,piren,-0.0347482340864702,-0.06501021166364501,0.014888547936109015,0.001317185536853787,0.005862477892848563,-0.00466179138989209
2025/05/06 15:22:17.947064060,1746537737,940056339,piren,-0.0247146602993798,-0.13584241326016464,-0.017334230221426123,-0.0010336269199393078,-0.004368466679113147,-0.007935994046442475
2025/05/06 15:22:18.396078673,1746537738,391764760,piren,-0.010224317816559868,-0.07327525582803955,0.021050086828087324,-0.0010377724381413441,-0.004285324508125443,-0.008698781898153362
2025/05/06 15:22:18.851543692,1746537738,846445160,piren,-0.0058431871569938724,-0.1586557446345295,-0.019930347339792834,0.0023563202403966586,0.008659603734131481,-0.010782642909349566
2025/05/06 15:22:19.305498091,1746537739,301969991,piren,-0.005879164112389548,-0.09120952589667954,0.01652677532195505,0.00013825865039971398,-0.008626089125454954,-0.009683606394522919
2025/05/06 15:22:19.805610363,1746537739,801152108,piren,0.0006772740880335026,-0.19078045675805938,-0.010814003674819625,-0.0022161812143041836,0.004689122831710544,-0.010178659410978145
2025/05/06 15:22:20.258752203,1746537740,252929873,piren,-0.0001868665622916793,-0.3096848712088814,-0.08607435234519768,0.0014911417246231944,0.0017759044064732535,-0.008822209717466755
2025/05/06 15:22:20.707428433,1746537740,703599433,piren,-0.00020509151527974348,-0.17699504959007084,-0.011300949190208956,-0.0007299394649604277,-0.004990359043435952,-0.00656362896950973
2025/05/06 15:22:21.182569345,1746537741,157559008,piren,-0.002174082026731014,-0.22115961813168794,-0.05976236549563113,-0.0015457760450864996,0.0007148645494998876,-0.005325077285759531
2025/05/06 15:22:21.627228423,1746537741,613837457,piren,-0.0009957615509971962,0.02132032721104048,0.05070044484602423,0.0014004253907082395,0.004030062548098599,-0.0017323767003189642
2025/05/06 15:22:22.71475139,1746537742,66916134,piren,-0.004582438784081348,0.03307729953442969,0.05222692337925421,0.0016375824977938114,-0.002306071391123666,0.001198624296957119
2025/05/06 15:22:22.526891661,1746537742,518733959,piren,-0.009426154404497507,-0.06524919152592028,0.00981360625982189,-0.002176706854892544,-0.00036246646085147003,0.0022879926514376317
2025/05/06 15:22:22.975000833,1746537742,970558672,piren,-0.012037172261899615,-0.0783958091059044,0.00016922201783599268,0.0002852045676946486,0.00401062751823102,0.003930934378899108
2025/05/06 15:22:23.480621354,1746537743,469609540,piren,-0.015607079263578832,-0.08314825250918502,-0.006938973732720359,0.0018467728080572335,-0.0026252807016469795,0.0034771324244686763
2025/05/06 15:22:23.931094323,1746537743,926377092,piren,-0.014859629654124688,-0.08212069550489062,-0.008621178598512405,-0.0020098660297635266,-0.0012235853302268267,0.0033474171943577474
2025/05/06 15:22:24.387309474,1746537744,382936901,piren,-0.009083750226213584,-0.07679549189180017,-0.0037758126320708175,-0.001156637650766371,0.0019280237120169969,0.0037276061738270513
2025/05/06 15:22:24.842888125,1746537744,838663205,piren,-0.008256829232065357,-0.16941526446806945,-0.05317756579491865,0.003106922937425276,-0.0008172761806689359,0.005120379658003838
2025/05/06 15:22:25.319639592,1746537745,296893491,piren,-0.009544791938791866,-0.07974771182209367,-0.012257200082090915,-0.0003348716515873942,-0.0007015487061760775,0.005352987481890943
2025/05/06 15:22:25.772752388,1746537745,755897399,piren,-0.009786942904177453,-0.04796811123435599,-0.0010437996185230487,-0.0010248693974549904,0.0017442340935733532,0.006288114687943757
2025/05/06 15:22:26.217945177,1746537746,211683415,piren,-0.010907702777895309,0.00861544401610326,0.02256646884563077,0.0034475381659502327,-0.0009624196583488089,0.00607122481324049
2025/05/06 15:22:26.718799344,1746537746,711242387,piren,-0.01439411430470619,0.14607056452387762,0.07264494381091756,-0.0002810738803814805,0.0006260594541006386,0.007720733809660508
2025/05/06 15:22:27.189472464,1746537747,171648691,piren,-0.017507619045735646,0.04936972313426258,0.03639544498982707,-0.00035454503105126367,0.0026950897768011624,0.006354173283286086
2025/05/06 15:22:27.647469995,1746537747,626899182,piren,-0.014225717101701828,0.08094756253000503,0.0442792181139012,0.001537937018399296,-0.0027889878769001095,0.003098331651168174
2025/05/06 15:22:28.102806004,1746537748,93737781,piren,-0.01056986736301066,-0.02449856683221709,0.003112150545778558,0.0005577416837888798,0.0014382270219155356,0.0013082405956863984
2025/05/06 15:22:28.559651533,1746537748,553298737,piren,-0.004855325683292045,-0.13645305215700904,-0.03462934392285955,-0.0019185456981953585,0.0008779063686106342,-0.0005130034419389552
2025/05/06 15:22:29.16996323,1746537749,11021905,piren,0.001285193045852659,-0.2393646004372848,-0.08549873727714476,-0.0015193411909498005,-0.005143152804048278,-0.0011891759068812984
2025/05/06 15:22:29.476258720,1746537749,471287191,piren,0.003823982154727845,-0.12883659358643318,-0.042459305124542754,0.0009079054570408779,0.004110447990054335,0.00014836801786532824
2025/05/06 15:22:29.997830061,1746537749,974785629,piren,0.0005717133621466457,0.05884694998904968,0.04326269290190068,0.0002400772002421623,-0.0023770758154602026,0.0019571028922211876
2025/05/06 15:22:30.436984611,1746537750,431532349,piren,-0.002257515867917975,0.17212166877707144,0.0703524145773873,-0.0011436684471233804,-0.001375408063203253,0.003846057708383873
