time,header_stamp_secs,header_stamp_nsecs,header_frame_id,child_frame_id,pose_position_x,pose_position_y,pose_position_z,pose_orientation_x,pose_orientation_y,pose_orientation_z,pose_orientation_w,twist_linear_x,twist_linear_y,twist_linear_z,twist_angular_x,twist_angular_y,twist_angular_z,gps_status
2025/04/09 11:15:46.122332896,1744190146,119049685,piren,vessel_center,-479.9952380628493,-299.9514562590695,2.3463710011552297,-0.0019567228911981462,0.0004368336215699406,-0.0018882865454766713,0.9999962073857263,-0.001241390739232876,0.10969496737984624,0.04003184302756075,-5.2414007577602794e-05,-0.0007088062011770555,-0.0023164727026125475,0
2025/04/09 11:15:46.174243844,1744190146,172065622,piren,vessel_center,-479.99540279539326,-299.96240159443016,2.3431237261971702,0.02442976002909371,0.000336060923778865,-0.0018985183496038067,0.9996996896648775,-0.0014697833436912255,0.07319556942916275,0.028372341653304288,-0.0018098893940429674,-0.0004954119260676275,0.0,0
2025/04/09 11:15:46.222649784,1744190146,220291416,piren,vessel_center,-479.995777642864,-300.0142836195743,2.3211812104282306,-0.0024630951341637077,0.0004160509651300339,-0.0019015844119796175,0.9999950720081967,-0.0021364219557653916,-0.05040098600375134,-0.023607792155107526,-0.0004126648592843494,-0.0002703977604864297,-0.002285817661755837,0
2025/04/09 11:15:46.254659454,1744190146,251964092,piren,vessel_center,-479.9958779679338,-300.0063940079529,2.325473526787323,0.002763625354476986,0.00042244130557499447,-0.0019037828137669374,0.9999942797482602,-0.0021703910301312055,-0.028407099393643904,-0.011979398223809308,0.0009689557290925434,-4.266657130953983e-05,0.0,0
2025/04/09 11:15:46.313217752,1744190146,311161415,piren,vessel_center,-479.99591640048686,-300.0096617179077,2.324758807065075,0.0032331135010933167,0.00035546088779838124,-0.0019216571966004681,0.9999928639036706,-0.0020092257994747263,-0.032442248380584744,-0.012206871465983224,0.000915352981820522,0.0002059971221331054,-0.002439319946053426,0
2025/04/09 11:15:46.354735920,1744190146,352160052,piren,vessel_center,-479.9960164822839,-300.0112777027906,2.324150769067045,-0.0017684171274038323,0.0004349331266209404,-0.0019197697152734763,0.9999964990030111,-0.0020092257994747263,-0.032442248380584744,-0.012206871465983224,-0.0005765215262790751,0.0004324658691743758,0.0,0
2025/04/09 11:15:46.414416972,1744190146,411596357,piren,vessel_center,-479.9957826769785,-300.0000132439706,2.3294751202580635,-0.03361480443294297,0.0005226555766861381,-0.0019156990726196484,0.9994328901187645,-0.001295945001356805,-0.005513032492808665,0.00017377275555432656,-0.0005829915303719278,0.000620110411703638,-0.00232487077837784,0
2025/04/09 11:15:46.455949315,1744190146,453822539,piren,vessel_center,-479.99548107518325,-299.94268538164005,2.351356085476682,-0.002220513670676865,0.00046451676194683353,-0.0019312442366757833,0.999995561909609,-0.00048203899459621545,0.12250696868381959,0.04878416551055054,-0.000853820718706108,0.0007720718060808606,0.0,0
2025/04/09 11:15:46.514329312,1744190146,512692712,piren,vessel_center,-479.99546451562657,-299.95511118564525,2.3468116579390443,0.029233231018377687,0.0013145195708208124,-0.0019862785234242074,0.9995697799254195,-0.0003905737779405093,0.08099913656064922,0.033152353063550424,-0.0011002203784732125,0.0005247438074094593,-0.00243008263648411,0
2025/04/09 11:15:46.564685122,1744190146,562945623,piren,vessel_center,-479.99419095528054,-300.0165097183286,2.319871511273201,0.02945325318757916,0.0013026362310288207,-0.0019863004969179927,0.9995633364754101,0.002483106512454477,-0.06442632602079362,-0.03039225466173788,-0.0010971404772879252,-4.7600035436061114e-05,0.0,0
2025/04/09 11:15:46.616690455,1744190146,614878787,piren,vessel_center,-479.99322366141575,-300.06076606039284,2.3003927601653786,-0.028416564814226462,0.0004614550271726567,-0.0018548135287006294,0.9995943405052824,0.004347818068526984,-0.1553901727364519,-0.07019478251849981,0.0006718530984033001,7.081064318629915e-05,0.0005920791098131366,0
2025/04/09 11:15:46.666337477,1744190146,663788039,piren,vessel_center,-479.9936540920505,-299.99476283171106,2.327417733336886,-0.02841480621356701,0.0004695423324230021,-0.0018548334585961326,0.9995943866942654,0.002914191930267415,0.008345630128815118,-0.0024323971522296206,0.0007572300281774861,0.0001775859756557411,0.0,0
2025/04/09 11:15:46.717621220,1744190146,715732364,piren,vessel_center,-479.99391566146,-299.9472144296573,2.3468480173390285,-0.001926365231529448,0.00042728790959831354,-0.0017907997919918137,0.999996449782769,0.0019965593166489356,0.11306428640218649,0.04103425682319539,-0.0008258817229080694,0.00030038964094608334,0.0028505185163903908,0
2025/04/09 11:15:46.767183905,1744190146,764925625,piren,vessel_center,-479.9941983618001,-299.95835410031754,2.3434161793061867,0.024464204454729018,0.00032457283976114964,-0.0017996115277566214,0.9996990340853682,0.0011507866609918069,0.07599069949274048,0.02893724232422521,-0.0023946834126877697,0.0004064404167516081,0.0,0
2025/04/09 11:15:46.817578286,1744190146,815847254,piren,vessel_center,-479.99473185265254,-300.0102228556819,2.321369261134189,-0.0024857504698650936,0.0004165877570481704,-0.001785292473760925,0.9999952301036369,-0.00016647158690829243,-0.04797725766156877,-0.0233712255514483,-0.0007825551883861902,0.0005119587033639052,0.0025024878521570913,0
2025/04/09 11:15:46.859203906,1744190146,857374293,piren,vessel_center,-479.9948512126944,-300.0025306102291,2.325470166429341,0.0028038037805264587,0.0004344235411370221,-0.001787474023519505,0.9999943774327746,-0.0004134145891839493,-0.025600434690568403,-0.011684544206200439,0.0008248408891241573,0.0005292003527748675,0.0,0
2025/04/09 11:15:46.913795058,1744190146,909316362,piren,vessel_center,-479.99487231344636,-300.00383726083373,2.324873785276574,0.003232644209288505,-0.0024941621316509777,-0.001747505709778268,0.9999901376466028,-0.0004134145891839493,-0.025600434690568403,-0.011684544206200439,0.0009250399822370455,0.0016159233336538023,0.003038797874333474,0
2025/04/09 11:15:46.972072080,1744190146,968597442,piren,vessel_center,-480.00326098022174,-300.00877306935786,2.3237139454255478,-0.0016594993448467627,-0.0005478405221382936,-0.0017567231859625858,0.9999969299234548,-0.017774518354144665,-0.03303209099749442,-0.01282113373685547,-0.0003575313303991867,0.002793084043082832,0.0,0
2025/04/09 11:15:47.22791028,1744190147,20145902,piren,vessel_center,-480.00250415724787,-300.001959871342,2.326717456938471,-0.03361627717220502,-0.0002602946414840711,-0.002015953137882686,0.9994327461559017,-0.01407812315146656,-0.01414591100656257,-0.004692660913669397,-0.00012913814081733785,0.003051431453324516,-0.0053704623083397655,0
2025/04/09 11:15:47.71621898,1744190147,69494899,piren,vessel_center,-480.0014472253952,-299.94240557942163,2.3494356506212895,-0.0021729713842646363,0.0006439372261162924,-0.002004951413682666,0.9999954218445407,-0.010167790095874797,0.11978150292725326,0.04631863991747735,-0.00020905028332800365,0.0026107645592565935,0.0,0
2025/04/09 11:15:47.123986179,1744190147,121073460,piren,vessel_center,-479.9992250985521,-299.95324585172807,2.3454709839888737,0.029239264070318634,0.0005757190187564093,-0.00229041487258285,0.9995696513920124,-0.004074459398589161,0.0820868702940515,0.03224732790607199,-0.00029489422762183395,0.0019255162673837722,-0.013106740776325614,0
2025/04/09 11:15:47.172829080,1744190147,170395311,piren,vessel_center,-479.9981221893998,-300.01342170755345,2.3189811692125044,0.02944051508706289,0.0005548831648976388,-0.002288239610615142,0.9995637609155137,-0.0011722065047706479,-0.06074048015375415,-0.03019583611307332,-0.00014060924721528485,0.0011532788612412062,0.0,0
2025/04/09 11:15:47.205255650,1744190147,202961419,piren,vessel_center,-479.9971674140443,-300.0563864044023,2.3000444532678337,-0.028399569718766282,0.000667239120519745,-0.0022655005571916385,0.9995938608949989,0.0010570359515441026,-0.15067811932772204,-0.06952276434128171,0.0017326797601429442,0.00032764244801189874,-0.0129119814191974,0
2025/04/09 11:15:47.255748532,1744190147,253012521,piren,vessel_center,-479.99711378583277,-300.06403098645467,2.296517249192791,-0.02838818357881663,0.0006920192151599183,-0.0022641008811075123,0.9995941706461186,0.0010570359515441026,-0.15067811932772204,-0.06952276434128171,0.0018512289833352688,-0.0004878667148365742,0.0,0
2025/04/09 11:15:47.315234562,1744190147,313288848,piren,vessel_center,-479.995475185306,-299.94250103238033,2.3466846541080972,-0.002068767935841148,0.0005627088001012887,-0.002383167352900121,0.9999948620225017,0.0043570415856720585,0.11792365560941101,0.042149869469686164,0.0002106860316748743,-0.0012103786778228766,-0.011480775597940023,0
2025/04/09 11:15:47.371427995,1744190147,366460172,piren,vessel_center,-479.9954928318993,-299.9533415451025,2.3434703434097592,0.0244099381717261,0.0004513615374994906,-0.002398304671400467,0.9996990543788257,0.0038343445648934076,0.08074530996063908,0.030328933641980187,-0.0014003266121795574,-0.001843331480347353,0.0,0
2025/04/09 11:15:47.417559436,1744190147,415013899,piren,vessel_center,-479.99572989051927,-300.00541794749137,2.321494983503044,-0.0024237779312084747,0.0006253408197017586,-0.002449003228354926,0.9999938682974946,0.0028678854033387406,-0.044252600481195295,-0.02198880831052355,0.00011973031098101387,-0.0024275826475524307,-0.011164828082318853,0
2025/04/09 11:15:47.457818266,1744190147,455332164,piren,vessel_center,-479.99578893168695,-299.9983245270332,2.3255479890805315,0.0028189364618044104,0.000620932315304404,-0.002452682146038316,0.9999928261695554,0.0024193178796395013,-0.023591220693379038,-0.010548137408303744,0.0015883481778814,-0.0029250796333669124,0.0,0
2025/04/09 11:15:47.518441508,1744190147,515788330,piren,vessel_center,-479.9957272139026,-300.00207096324783,2.32481033628576,0.0036650971811789013,0.004067946991310076,-0.0025272470265846644,0.9999818157808646,0.002278554865733903,-0.029207920471208165,-0.010975862329032877,0.0014792799925140753,-0.005287000039488572,-0.011015995555617568,0
2025/04/09 11:15:47.567667524,1744190147,565534165,piren,vessel_center,-479.9901142213419,-300.006228279933,2.323716924235411,-0.001754091036752344,0.0013144026718706287,-0.002509551670865444,0.9999944488149233,0.014503505831453375,-0.03525032278221264,-0.012204546638090702,2.2375894515176427e-05,-0.006045558929999468,0.0,0
2025/04/09 11:15:47.609643817,1744190147,607658334,piren,vessel_center,-479.9904907665804,-300.000226997667,2.326803027921731,-0.03371354613718867,0.0011756046925761009,-0.0021082621781366396,0.9994286217589782,0.012011020043019023,-0.017888344042512508,-0.003952385070535398,2.019947229186435e-05,-0.005976531113924722,0.0022137099466897608,0
2025/04/09 11:15:47.684916789,1744190147,682212578,piren,vessel_center,-479.99089106465243,-299.9415946088053,2.3495721476445612,-0.0022209223186417555,0.000845308012071077,-0.0020097987912547116,0.9999951568218909,0.009796586518359626,0.11439229464363047,0.047086799953163457,-0.00027370377433455414,-0.005516156088498512,0.002175743251432501,0
2025/04/09 11:15:47.719352953,1744190147,717453201,piren,vessel_center,-479.99187449411176,-299.9534747198996,2.345613768789119,0.029270811325307816,0.0006244542247991932,-0.0020379106286033087,0.999569245516062,0.0065005178024876015,0.07502293293509861,0.032952216177100986,-0.0005975541409812299,-0.0047497101091350065,0.0,0
2025/04/09 11:15:47.769327940,1744190147,767132365,piren,vessel_center,-479.99312034901504,-300.0146894539588,2.3190692744315786,0.029493755560818298,0.0006078480781143628,-0.0020429697983400893,0.9995626919698613,0.0030119133361495272,-0.06932930436883002,-0.02968963958196936,-0.0006631734956873867,-0.0036725694464400283,0.0,0
2025/04/09 11:15:47.819974488,1744190147,818093524,piren,vessel_center,-479.9940758809791,-300.0589007317739,2.2998801583007116,-0.02828521380298925,0.000713559986607512,-0.0015646441172322625,0.9995984140648939,0.0005459594147396362,-0.1597062374932648,-0.06896177056150987,0.0010605382190781044,-0.0023956025603070873,0.017847763121003543,0
2025/04/09 11:15:47.869990607,1744190147,868146129,piren,vessel_center,-479.9940291171899,-299.9931167015719,2.327025339344108,-0.028498785858587693,0.0008823064774969545,-0.0015582920470210435,0.9995922230918778,0.0005893582062526636,0.004203915363996169,-0.0009864168898470471,0.0009842804558030677,-0.0009828886437159192,0.0,0
2025/04/09 11:15:47.922605794,1744190147,920094811,piren,vessel_center,-479.99387484330526,-299.94524519620023,2.34669551834586,-0.0019599871841399865,0.0008857162614544614,-0.0012693372725256513,0.9999968813650526,0.000865190343938602,0.11012580502119813,0.04284518412628559,-0.000734659576007826,0.0005359693435324026,0.02461374246027474,0
2025/04/09 11:15:47.973815672,1744190147,969938780,piren,vessel_center,-479.9934168286428,-299.9560527713641,2.3434160613711406,0.024510077539181753,0.0005507337916455165,-0.0012825236746273586,0.9996986085437641,0.001787653812743892,0.07394433522645155,0.03082514886135323,-0.0024371093431324493,0.00199778279548271,0.0,0
2025/04/09 11:15:48.14237401,1744190148,12326914,piren,vessel_center,-479.9940986936381,-300.00768246812913,2.321394125384893,-0.0024928368086758503,0.0007082278554445999,-0.0009602941952550657,0.999996180999212,6.802548455198988e-05,-0.04925036552235726,-0.02164023347564912,-0.0009722133300763546,0.0032454179693292445,0.029735898274701605,0
2025/04/09 11:15:48.74913837,1744190148,71963960,piren,vessel_center,-479.9936919016502,-299.99947176776567,2.325539333160128,0.0027122275741765676,0.0007468025428628087,-0.0005460703300379482,0.9999958939489415,0.0009646462549426446,-0.025533172224095343,-0.010024409272217464,0.0004965846002788269,0.004280652815760675,0.007986707504592232,0
2025/04/09 11:15:48.114280518,1744190148,112606634,piren,vessel_center,-479.9930328170049,-300.0015776794372,2.324966217919336,0.0032616586627171426,-0.0003663581450898763,-0.0005420781712854881,0.9999944667425584,0.0023418520403538506,-0.02789398650411387,-0.010387474695732715,0.0005194223767568276,0.005797186899929484,0.0,0
2025/04/09 11:15:48.157068818,1744190148,152534183,piren,vessel_center,-479.99436691116347,-300.0035349443004,2.3241391619854554,-0.0017963408673311377,-0.00021761755622839172,-0.0005442845928645689,0.9999982147765913,-0.0008829341076761837,-0.029151310523639055,-0.011073920767866577,-0.0008375872203253168,0.006946941101666128,0.0,0
2025/04/09 11:15:48.215026418,1744190148,213340119,piren,vessel_center,-479.9955710306933,-299.9957968598697,2.327140224176426,-0.033686271065251634,-4.765984933631371e-05,-0.00047084631873118616,0.9994323444706007,-0.003458291617380374,-0.008625252051388105,-0.0031397652179183475,-0.0006893935705067719,0.007617040433607371,0.032991498322903746,0
2025/04/09 11:15:48.266195429,1744190148,264366919,piren,vessel_center,-479.9955543562318,-299.9353358453317,2.3497973329959096,-0.002152567599442685,0.00020454380265204754,6.016131370482612e-05,0.9999976604948528,-0.003038063072381183,0.12670551303685892,0.04756372612356616,-0.0007978432958368638,0.0077890767680851535,0.0066033091021380904,0
2025/04/09 11:15:48.316236518,1744190148,314533301,piren,vessel_center,-479.9947876593672,-299.94528232095684,2.3457345365876603,0.029263003652689887,0.0003061279946309851,6.189969311488948e-05,0.9995716978142697,-0.0009877814926312484,0.09015716052053899,0.03311268556671509,-0.0008889157131831614,0.007406467113218125,0.0,0
2025/04/09 11:15:48.366605181,1744190148,364800826,piren,vessel_center,-479.9940460521232,-300.0044738656701,2.3191554912103545,0.029023882437338628,0.00031933296330153107,7.113573089320866e-05,0.9995786648455588,0.0007695466607856442,-0.05135481523816457,-0.029616645462289502,-0.000841271736964312,0.006616090131415474,0.0,0
2025/04/09 11:15:48.417966637,1744190148,415499312,piren,vessel_center,-479.9942619494205,-300.04603606357284,2.3003164052091205,-0.02854903018819048,0.0003756207634598605,-3.767084332991615e-05,0.9995923220819892,0.00020250944180589517,-0.13790784231473485,-0.06813062952364388,0.0011555068664960233,0.005511145647159665,0.033852972606194506,0
2025/04/09 11:15:48.457441272,1744190148,455251756,piren,vessel_center,-479.99364841866884,-299.97843346588184,2.3274937874875845,-0.026614377801221546,0.00044584318383323603,-4.1899316124836255e-05,0.9996456744079658,0.0015436159178989408,0.02760537088188353,-0.0001863993187406071,0.0019056036495230853,0.004051922307371865,0.0,0
2025/04/09 11:15:48.518299588,1744190148,516364490,piren,vessel_center,-479.9934887876016,-299.932853593052,2.3458749375974968,0.0006582368153511118,0.00044894468156487073,9.294960790643857e-05,0.9999996782666174,0.0017213565065958471,0.1257441677572842,0.04068864763552364,0.0006222733072609358,0.002405049769189245,0.03152650421130506,0
2025/04/09 11:15:48.560306302,1744190148,556875262,piren,vessel_center,-479.9929219835908,-299.9466040739393,2.3409835201376246,-0.0015917712298260426,0.0004474104528905173,9.390547900671032e-05,0.9999986286340595,0.002792014310352905,0.08137619329063452,0.02534962119061357,0.00011590852975649693,0.0006600819245175033,0.0,0
2025/04/09 11:15:48.619136237,1744190148,616880768,piren,vessel_center,-479.99299802740273,-299.9528149606803,2.3389692583261117,-0.0014809465495890693,0.0004236627282735509,0.0002219129403460046,0.9999987890301952,0.002306653863570326,0.05835200223541503,0.018000632831168085,0.00028152938028041955,-0.0010738977323498371,0.02990298566542602,0
2025/04/09 11:15:48.668576465,1744190148,666653033,piren,vessel_center,-479.9926145524367,-299.9577138829075,2.337350542313246,-0.0006110951415127076,0.0003852136861383362,0.00022160352085460544,0.999999714532471,0.002903177797588804,0.04099549502284387,0.012407571670719998,0.0006045895980150141,-0.0027163351401962954,0.0,0
2025/04/09 11:15:48.711530933,1744190148,709653621,piren,vessel_center,-479.99286307000364,-299.9628465537827,2.335544046333687,0.0009716683118007643,3.5414947120432887e-05,0.0003979471965107682,0.9999994481220988,0.002016401960645461,0.024865403025660246,0.006963258011365549,0.0005157794061016934,-0.004012062408744324,0.02960478470910403,0
2025/04/09 11:15:48.770578619,1744190148,768275014,piren,vessel_center,-479.9931372611287,-299.96945670932524,2.3330859425749306,-0.0010509266131592697,4.023062664579625e-06,0.0003982479911945522,0.9999993684676037,0.0011845044519304872,0.007430614245868106,0.0007318055734885113,0.000540685040583019,-0.005023103334254402,0.0,0
2025/04/09 11:15:48.812084565,1744190148,810099795,piren,vessel_center,-479.9938775257074,-299.9709893205835,2.3327349267734117,-0.0008045494497529044,-5.806454448302672e-05,0.00048258260086419174,0.999999558221265,-0.0005956123779924302,0.003178618309902937,-0.0001316452678640196,0.0006013251134308376,-0.005692381127976979,0.02695848567839876,0
2025/04/09 11:15:48.871049478,1744190148,869173983,piren,vessel_center,-479.9940768031373,-299.9727001342247,2.3323099331267447,0.0006785681932338583,-0.0001777116270433435,0.0004825460594100688,0.999999637556477,-0.00097270319802191,-0.000974715000211312,-0.0010616324727781038,0.00045285290957295066,-0.00604273385978735,0.0,0
2025/04/09 11:15:48.922724949,1744190148,920631894,piren,vessel_center,-479.9948254276236,-299.9766131161119,2.330966555543727,-0.0009458332119399095,-0.00024971063074661465,0.0005919828880712192,0.9999993462999845,-0.0025254826685340874,-0.009560295351775515,-0.003926139994997132,0.00042072699136513447,-0.006021625010358117,0.02531254054430694,0
2025/04/09 11:15:48.972137070,1744190148,970361036,piren,vessel_center,-479.9950588485346,-299.9768474741651,2.3311565000915637,-0.0036729040660753035,-0.0002737832756717993,0.0005922491294335514,0.9999930420054972,-0.0027659388508254694,-0.00902758982811067,-0.003071331788659367,0.0005092446505483631,-0.005665858364521186,0.0,0
2025/04/09 11:15:49.23892478,1744190149,22054273,piren,vessel_center,-479.9956604031013,-299.97256876848405,2.333194175839806,-0.0007727736518321344,-0.00034929322820010544,0.0006666602605085493,0.9999994181894412,-0.003786017026595792,0.00151720269341238,0.0018097574863045448,4.186918871915203e-05,-0.004957782920876653,0.022872504217652852,0
2025/04/09 11:15:49.53475122,1744190149,51347451,piren,vessel_center,-479.99581063136986,-299.9725085662367,2.333265986592839,0.004113414867577785,-0.0002589923116478389,0.0006673360074979434,0.9999912836638941,-0.003786017026595792,0.00151720269341238,0.0018097574863045448,-0.00016073438033916004,-0.004074605525939418,0.0,0
2025/04/09 11:15:49.115180318,1744190149,113202830,piren,vessel_center,-479.9959872447239,-299.98994447493817,2.3263184391867022,0.027571923123969444,-0.0006932129817893689,0.0007802523298497561,0.9996192773837996,-0.003789398665730906,-0.034844166884840905,-0.012805049303790712,-0.0008477948881696538,-0.0027904634959720807,0.022043939671289214,0
2025/04/09 11:15:49.166134789,1744190149,163189208,piren,vessel_center,-479.996532642096,-300.03385266042574,2.3066089943735135,-0.027753806414857668,-0.0007080755737142483,0.0007432683876142137,0.99961426180831,-0.0045771631432671624,-0.1285252456638773,-0.055174034030161294,0.0003872628385622969,-0.001281444836354982,0.0,0
2025/04/09 11:15:49.217214612,1744190149,215254504,piren,vessel_center,-479.9973553803367,-299.9722212068475,2.3313968021233684,0.0012880082144214058,-0.0006287294367047924,0.0008292100496408042,0.9999986290714746,-0.005883414922300281,0.023121521801522216,0.0062147536647305865,0.0005107648228069344,0.00018513961697367654,0.01976389165123781,0
2025/04/09 11:15:49.266141628,1744190149,263969384,piren,vessel_center,-479.9973955951091,-299.976919874113,2.330183979962859,0.02827330642292435,-0.00053300694021319,0.0008460277355652926,0.9995997300342712,-0.005324450823172802,0.010130481194255449,0.0028343235648819343,-0.0009909312151664483,0.0015842785255703931,0.0,0
2025/04/09 11:15:49.316548943,1744190149,314760080,piren,vessel_center,-479.99751705433084,-300.02483133013124,2.309031838199995,-0.020388963046909486,-0.00033658706146043533,0.0008994218121643735,0.999791662265407,-0.004990801922940583,-0.09750154704702257,-0.044497794358062115,0.00019180069994291526,0.00277370554538446,0.018840989249245,0
2025/04/09 11:15:49.368476192,1744190149,365719256,piren,vessel_center,-479.9969924484382,-299.97738263345497,2.3287694399359644,-0.013997898612326875,-0.0004004546373745839,0.0008979563303923661,0.9999015412254104,-0.0032711811363242225,0.018771850081793634,0.004306363269429188,0.000938598446165552,0.003755249053132546,0.0,0
2025/04/09 11:15:49.418490608,1744190149,416684838,piren,vessel_center,-479.99692133702285,-299.953881928399,2.338848924375766,-0.0018592222365939556,-0.0002140053440033314,0.0009815385974033227,0.9999977670356918,-0.0027409042992530804,0.06886677378838608,0.02621827980858457,-0.000621639323874191,0.0045247442111418686,0.017699509606476378,0
2025/04/09 11:15:49.468126859,1744190149,465927005,piren,vessel_center,-479.9962111460242,-299.957461417791,2.3377964013446215,-0.006475627186978942,-0.00019904690413453707,0.0009790772401622049,0.9999785337899124,-0.0008598607996191197,0.053306183067297716,0.020983656500585486,-8.865422673075797e-05,0.004938400196098252,0.0,0
2025/04/09 11:15:49.509113598,1744190149,507317471,piren,vessel_center,-479.9958928400168,-299.9521300814158,2.3401492089276785,-0.016614882042805455,-7.873693019642763e-05,0.0010315251575453536,0.9998614281244421,-5.501102214110806e-05,0.05911587023883836,0.023835472820096033,0.0002395422931050583,0.005028000183360946,0.016210948521452443,0
2025/04/09 11:15:49.558797375,1744190149,556483084,piren,vessel_center,-479.995895579194,-299.9491865104997,2.341336054427559,-0.013016704444369837,-5.951890303028227e-05,0.001028862268098636,0.9999147480187206,-5.501102214110806e-05,0.05911587023883836,0.023835472820096033,0.00012407013779827065,0.00484674689466437,0.0,0
2025/04/09 11:15:49.619971159,1744190149,617457464,piren,vessel_center,-479.99478518643787,-299.9265077031145,2.3502834613302,-0.012608003286166191,6.451443464774234e-05,0.0010930243714296188,0.9999199164876892,0.0022268914010055672,0.09980635178058032,0.03981777977845128,0.0009649351744308235,0.004362259974310057,0.015070044263412984,0
2025/04/09 11:15:49.660943898,1744190149,658794932,piren,vessel_center,-479.9940382433317,-299.9197334986031,2.3528350985473145,0.0010746820078556649,7.36563851627795e-05,0.0010922394674040918,0.9999988233224402,0.003640087680287259,0.10379894750667513,0.04107518741978674,0.0004782896122011642,0.0036173503472195514,0.0,0
2025/04/09 11:15:49.721752704,1744190149,718952283,piren,vessel_center,-479.99362648317674,-299.93807804599027,2.3451976259492966,-0.004378380694725927,0.00013349039704893282,0.0011356090339101465,0.9999897611250468,0.0041430497836700015,0.05127654873244861,0.01945058145000226,0.0002946211282815072,0.0026832784951615757,0.013524638582256308,0
2025/04/09 11:15:49.770689112,1744190149,768602657,piren,vessel_center,-479.99295379052,-299.9422906390196,2.3433891095276,-0.020383690147587827,5.420107434530327e-05,0.0011347125208673137,0.9997915856145748,0.005178480023369055,0.03622549255151167,0.013273326695180655,0.0004940126723127271,0.0016138886207333314,0.0,0
2025/04/09 11:15:49.811620868,1744190149,809622762,piren,vessel_center,-479.99269033931944,-299.9404476948621,2.344064379845839,-0.004381635026647519,6.806852173670795e-05,0.001167027822026578,0.9999897172907491,0.005178480023369055,0.03622549255151167,0.013273326695180655,0.0014091347357909542,0.0004978157941152549,0.011927130036503931,0
2025/04/09 11:15:49.872992628,1744190149,869296518,piren,vessel_center,-479.99216410959144,-299.9477546523101,2.341031966278989,0.029592639977061148,3.3140096238438894e-05,0.001165364768125828,0.9995613620413103,0.005736643902946533,0.017172410561170144,0.005553386291162721,-0.00019528994649136209,-0.0005992921201224941,0.0,0
2025/04/09 11:15:49.913378953,1744190149,910822828,piren,vessel_center,-479.9918713595346,-299.94687831690345,2.341315364408579,-0.007611080627287189,3.215799130968722e-05,0.0011749772719410368,0.9999703444832547,0.005736643902946533,0.017172410561170144,0.005553386291162721,0.00025789780573111826,-0.0016812366892789922,0.009547180311482552,0
2025/04/09 11:15:49.964760643,1744190149,961419305,piren,vessel_center,-479.9915448264714,-299.9417956933045,2.343498154494981,-0.029887086658698225,-4.576155428218358e-05,0.001177747576532424,0.9995525863443012,0.005821067678925836,0.025886698418207704,0.009498042101391858,0.0010609627243448377,-0.002602794608687885,0.0,0
2025/04/09 11:15:50.26174657,1744190150,24330473,piren,vessel_center,-479.9915210272952,-299.90241180506933,2.3584264511524307,0.00045364097157025437,-0.0009958913290166818,0.001258468716093959,0.9999986093324431,0.005199454850117043,0.11041878808468931,0.04157598164114803,0.0007364936329816596,-0.0028616751140870867,0.010123086465417121,0
2025/04/09 11:15:50.63192297,1744190150,61678011,piren,vessel_center,-479.9927584866287,-299.9270077428137,2.348916286858264,0.02124773525382664,2.4283026643501646e-05,0.0012551350213529586,0.9997734532347796,0.0019965488038451514,0.04614137801013381,0.01682010151934322,-0.00018092436943628352,-0.0031851665106657832,0.0,0
2025/04/09 11:15:50.115770114,1744190150,114211309,piren,vessel_center,-479.99190101967895,-299.9787869446802,2.326995719356575,-0.028841539852149798,-0.00017096958531176513,0.001189363195983445,0.9995832740515148,0.0036729026056491493,-0.07424055162455263,-0.03383143654707224,0.0013817397362906056,-0.003632068607798889,0.006182178081772369,0
2025/04/09 11:15:50.155972728,1744190150,153553826,piren,vessel_center,-479.99142030358144,-299.9317790176111,2.345854804679148,-0.0029660280068492142,-0.00013509778903271914,0.001193970051094296,0.9999948794178734,0.004340222540031398,0.0383390468929974,0.011776202603193668,0.0015251841317515365,-0.0038842367338492493,0.0,0
2025/04/09 11:15:50.216085049,1744190150,213853690,piren,vessel_center,-479.9908159783473,-299.9423385318036,2.342599092951563,-0.00576861495267937,-0.0011527845075854721,0.001153616069804502,0.9999820315082518,0.005191434879225206,0.010525693728823143,0.0032058268400682426,0.0011282926316418522,-0.0035316750537171906,0.004130015830684214,0
2025/04/09 11:15:50.265789716,1744190150,263505629,piren,vessel_center,-479.9918101330252,-299.9455366207617,2.3421584350462785,0.004351998867673826,-0.0009229971876355903,0.0011636574110248112,0.9999894269858444,0.00240480979850873,0.0022478713299278474,0.0018700765546064862,0.00047874308910008176,-0.0028401476046396837,0.0,0
2025/04/09 11:15:50.316752814,1744190150,314884595,piren,vessel_center,-479.99192595149304,-299.9650646886676,2.334756565545306,0.03148272434798447,-0.00020271793158466633,0.0010738106902933053,0.9995036987943919,0.0018727242111253948,-0.04141170775301364,-0.01479481794324256,0.00025724319789914606,-0.002235006408535798,0.0005357301660424822,0
2025/04/09 11:15:50.367764618,1744190150,365244127,piren,vessel_center,-479.99042376515507,-300.02395533809243,2.308827523879604,0.03166740415887613,-0.0002430938527824715,0.0010724162750870645,0.9994978570975279,0.0050058436428116766,-0.16775201686014043,-0.0707986306822203,0.000265541277368596,-0.001738120088730329,0.0,0
2025/04/09 11:15:50.419088413,1744190150,417003779,piren,vessel_center,-479.98909058294,-300.0663020073379,2.2902432197474205,0.030588519050732135,-0.00021713524939777085,0.0009532707240002427,0.9995315836077884,0.007401959693333999,-0.2428703850151578,-0.10408470723870093,-0.00010185677343993648,-0.0011613683606261189,-0.0034487283293102677,0
2025/04/09 11:15:50.468051528,1744190150,466089636,piren,vessel_center,-479.98779909810634,-300.09418621235596,2.278162152396833,0.029287825724088803,-0.00035623178354959325,0.0009563629697587366,0.9995704986308579,0.009441664418318403,-0.27758980495132163,-0.11925521029031995,-0.0005486323411703182,-0.0004487259580730479,0.0,0
2025/04/09 11:15:50.519667365,1744190150,517513589,piren,vessel_center,-479.98665416726055,-300.1113148456426,2.2709177634480486,0.002896999664856636,-0.00027806893862915093,0.0009160132683851446,0.9999953454843175,0.010908901544235057,-0.2839823037145834,-0.12174759863259897,0.0009925582034791386,0.0001919103659182694,-0.0038276908908109145,0
2025/04/09 11:15:50.562413532,1744190150,558822453,piren,vessel_center,-479.98541723195075,-300.07862104754156,2.2862733690381973,-0.022889043766349947,-0.00022096351836045451,0.000909473308219252,0.9997375734205889,0.012454969091868412,-0.18000706025022736,-0.07419536162004295,0.0027101469821783552,0.0008025558243993181,0.0,0
2025/04/09 11:15:50.621796841,1744190150,619048532,piren,vessel_center,-479.98394404812456,-300.01109659113195,2.3147473649323635,0.004841392972132969,-0.00017727682177566585,0.0008938085492644182,0.9999878652230212,0.014301195644020487,-0.00929166018513572,-0.0024035220439102695,0.001286064629643673,0.0014401948902574315,-0.003768169913837479,0
2025/04/09 11:15:50.660204010,1744190150,658447071,piren,vessel_center,-479.98230129593225,-300.0091571672672,2.316723617597049,0.0008936321004897481,-0.00020559241387510044,0.0008932097493884632,0.9999991806645504,0.016370953827618002,-0.0039536476866487875,0.002254662617268751,2.5724340222955704e-05,0.001931891183921833,0.0,0
2025/04/09 11:15:50.722115185,1744190150,719985618,piren,vessel_center,-479.9805721609967,-300.0011867911904,2.320947785030491,0.0032386691779485643,0.000155042235150821,0.0008637945803713332,0.9999943704055458,0.01834499137557942,0.014213071603990077,0.011386043143194188,0.0005869526287554726,0.00212506060399874,-0.004006009592216585,0
2025/04/09 11:15:50.772540928,1744190150,770426985,piren,vessel_center,-479.9782312746742,-299.99947160792306,2.3222756437553107,-0.0193064239741276,1.2786288823039006e-05,0.0008089523037399362,0.999813286282,0.021529109721768698,0.016461188445646233,0.013084386195616589,0.0011034395194347416,0.0022420300307437594,-0.0006164758100810626,0
2025/04/09 11:15:50.822851655,1744190150,820814698,piren,vessel_center,-479.97620484079266,-299.9602689485943,2.338409495242942,0.016945428606717296,0.0001095803945528863,0.00080876559087185,0.9998560828137671,0.023575365366104967,0.10171045477291042,0.04744846354675903,3.219316165848261e-05,0.002242814952496078,0.0,0
2025/04/09 11:15:50.862915992,1744190150,860856422,piren,vessel_center,-479.9739071664291,-299.99336788962313,2.3245254129748028,-0.004207448707584869,-0.0002934692368007511,0.0008087993978535569,0.9999907785048391,0.026063084379484285,0.01684724835590712,0.011319287770939143,0.0020935072603413545,0.0022788407775093714,0.0,0
2025/04/09 11:15:50.924019780,1744190150,922293982,piren,vessel_center,-479.9720906981201,-299.98200621479486,2.329789671730873,-0.026940106506618024,-0.000288177231987876,0.0008325826417473781,0.9996366612031792,0.02713648202966397,0.04018408591346086,0.02173251027088593,0.0005844664970223837,0.002284224108116976,-0.003332173599455121,0
2025/04/09 11:15:50.975083189,1744190150,972496592,piren,vessel_center,-479.9701693489492,-299.9354811236852,2.34824296641193,0.003676107161590453,0.0008488837050447077,0.0008372097017163992,0.9999925323283705,0.02839491295617336,0.13913539531076818,0.06033650295188909,2.54458084757927e-05,0.001532883666685822,0.0,0
2025/04/09 11:15:51.10402049,1744190151,8537849,piren,vessel_center,-479.9661185323531,-299.95529778022234,2.340650472239585,-0.02627657189156206,0.0008202469993133545,0.0007480191891154677,0.999654094890718,0.03483818246418196,0.08226679331437478,0.03790727246437416,0.0005738305197040343,0.0005553929530923889,-0.007671613200712913,0
2025/04/09 11:15:51.67793854,1744190151,64576930,piren,vessel_center,-479.96233428468923,-299.918473131962,2.355303890026384,-0.020043592602818454,0.0008037220279730765,0.0007428443979901439,0.9997985080048252,0.03938848095654066,0.15499225813855444,0.06627352971723506,-0.0008022866821858673,-0.00037839992446152536,0.0,0
2025/04/09 11:15:51.120156039,1744190151,116088685,piren,vessel_center,-479.95866389654753,-299.90325828038425,2.361784942092168,-0.025059198385282838,0.0006365142081934805,0.0006594789758261346,0.9996855488169418,0.04300377463682708,0.17093421612298695,0.07303528169476403,0.0008603864913869768,-0.001172702513450619,-0.007575282996058716,0
2025/04/09 11:15:51.161833750,1744190151,158295725,piren,vessel_center,-479.9555155110069,-299.88457355794475,2.3693394628969586,0.011974666530322557,0.0008074962113429234,0.0006324375965493083,0.9999277750588003,0.044956781708970085,0.19241021418283705,0.08125810647686046,-3.0057358521133643e-05,-0.001992778506996744,0.0,0
2025/04/09 11:15:51.210512915,1744190151,208237870,piren,vessel_center,-479.9532190440854,-299.87474492530174,2.373490261653768,0.03334539744431628,0.0007162606585349452,0.0005911047186442854,0.9994434561470505,0.044956781708970085,0.19241021418283705,0.08125810647686046,-0.000726441840501082,-0.0026618307781709877,-0.006952015921314413,0
2025/04/09 11:15:51.273344204,1744190151,270900438,piren,vessel_center,-479.9488836123316,-300.0318782837528,2.306078048330596,-0.022126426115155532,0.0006550582275095561,0.0005276376098887645,0.9997548268273786,0.04928849294315114,-0.15466370117524092,-0.06748224178456146,0.0008771756335128491,-0.0031897441156210557,-0.0011958844068489167,0
2025/04/09 11:15:51.323106072,1744190151,320874297,piren,vessel_center,-479.9455943242107,-299.9836923470803,2.3271841556152713,0.02963621406861852,0.0006379655741184866,0.0004890353923788882,0.9995604277180997,0.05099309677070778,-0.029974291936332526,-0.012896423045066267,-0.0016482959671510595,-0.0034874302770199466,0.0,0
2025/04/09 11:15:51.362909610,1744190151,360750640,piren,vessel_center,-479.94227603245383,-300.0356225771191,2.3055154658365278,0.03429332760502316,0.0005748511058209772,0.0004820963952827856,0.9994115292566152,0.05265577282862068,-0.14203417400103718,-0.05961153999508253,-0.0002417465156731709,-0.003589701453220668,0.0,0
2025/04/09 11:15:51.413208339,1744190151,411603867,piren,vessel_center,-479.9395854848422,-300.0428800854054,2.3024694999729216,-0.027984172374658528,0.0005044712519682609,0.0006029331840178409,0.9996080572288506,0.05265577282862068,-0.14203417400103718,-0.05961153999508253,0.0003463542604238436,-0.0034920673542247747,-0.00557039166119726,0
2025/04/09 11:15:51.479271505,1744190151,474715483,piren,vessel_center,-479.935291817319,-299.93391162854306,2.3488648762094573,0.00231667852589852,0.0004992599198932375,0.0005870604211726463,0.9999970195456594,0.05619553992087276,0.09954305637775175,0.04317428878352666,-8.039676506022978e-05,-0.003164089686555343,0.0,0
2025/04/09 11:15:51.514858510,1744190151,513092278,piren,vessel_center,-479.93174617005184,-299.95592881086895,2.341590364820072,0.004362642356731138,0.0003565777504479576,0.0006076463458887794,0.9999902354372734,0.05886671360622131,0.04138098766816253,0.02300403523943225,0.0005823008908675621,-0.002614055890572964,-0.004285379182648836,0
2025/04/09 11:15:51.567348381,1744190151,564279011,piren,vessel_center,-479.92789715726906,-299.97504521047773,2.335058229574707,-0.00030321126630630227,0.0003454680343922306,0.0005349881066922484,0.9999997512512145,0.06089187505276641,-0.005694981625811148,0.005934863527452462,-0.0006602585246348213,-0.0018880185024741996,-0.0005627459513807236,0
2025/04/09 11:15:51.616753845,1744190151,614125430,piren,vessel_center,-479.92388887256,-299.9812046623711,2.33364359788265,-0.0009444854264602456,0.00037067227934309586,0.000535285066508526,0.9999993420094025,0.06289658352097831,-0.018740315720970124,0.0021174624633612765,-0.0007337750759164138,-0.0010673171086933437,0.0,0
2025/04/09 11:15:51.666751423,1744190151,664589117,piren,vessel_center,-479.9197312389933,-299.98467235497776,2.333060660939702,0.004149046471084354,0.0003336588203557781,0.0005335141211535645,0.9999911946851607,0.06516767983289355,-0.02437060384663712,0.0005873059578352397,0.000762323463642397,-0.00019752646642269198,0.0,0
2025/04/09 11:15:51.716702144,1744190151,715021141,piren,vessel_center,-479.91525234683536,-299.9957454585986,2.3290368071717755,0.0316872418207231,0.00026849420066060064,0.0006204481847582417,0.9994976046298008,0.06772579656812923,-0.04621510628912803,-0.008422571762691065,-0.0005012379042225638,0.0008878101629081497,-0.0017382054632430182,0
2025/04/09 11:15:51.767774804,1744190151,765590467,piren,vessel_center,-479.91082695327384,-300.04905650628984,2.305200128046994,0.025368267484297716,0.0004358977331579948,0.0006199167745261045,0.9996778864720396,0.07007482213521143,-0.15958816432435013,-0.06046757528549874,-0.00045779873075663834,0.0016893923234903498,0.0,0
2025/04/09 11:15:51.817344104,1744190151,815553676,piren,vessel_center,-479.905838782432,-300.0765995842632,2.2932877235140547,-0.023415843370380756,0.0004859820084515198,0.0006160771037614841,0.9997255036007352,0.07321710015171448,-0.20273974570468453,-0.08010150784263387,0.0011326031726141541,0.00231375381830342,-0.002053200445458241,0
2025/04/09 11:15:51.868136096,1744190151,866150084,piren,vessel_center,-479.9007799352805,-300.0137919468302,2.3194613018453505,0.02102728168632407,0.0005205415824466018,0.0005966671639836043,0.9997785887133414,0.07635251105425596,-0.04070493553476809,-0.013062989249921123,1.4428111065547147e-05,0.0028185382399425886,0.0,0
2025/04/09 11:15:51.918725931,1744190151,916936441,piren,vessel_center,-479.8953928284994,-300.04304843777874,2.307329740784617,-0.006339246771295629,0.0005843961756277562,0.0006092836511669574,0.9999795503933643,0.07966273043725779,-0.10110881788300503,-0.038543116782771836,-7.41153050610168e-05,0.0031385213724303062,-0.0016906858133206243,0
2025/04/09 11:15:51.969579527,1744190151,967493869,piren,vessel_center,-479.88995969751943,-300.0180203444393,2.3186434481621627,0.0032624323612351572,0.0005516754519289035,0.0005837316624964015,0.9999943557073862,0.08291851654116728,-0.03429240626201137,-0.009132282784076289,0.00031453815517162956,0.0032946559633986582,-0.0001937413304739266,0
2025/04/09 11:15:52.20585536,1744190152,18902271,piren,vessel_center,-479.8844026851251,-300.0159981428603,2.320124062756518,0.017880562567962083,0.000729544047158489,0.0005754984448678251,0.9998396981763009,0.085845289662484,-0.025900635125208297,-0.004803686111844734,0.00029426123754228877,0.003197183130142653,0.0,0
2025/04/09 11:15:52.70697576,1744190152,68429575,piren,vessel_center,-479.87849300395715,-300.0386832950817,2.3104395722973763,-0.02271230758841296,0.0006848909534365392,0.0006487774666582664,0.9997415971620817,0.08948104331202558,-0.07345089033110527,-0.025795205377000474,0.0017251525641459472,0.002919529518816948,-0.00018380573323093102,0
2025/04/09 11:15:52.121115827,1744190152,119364463,piren,vessel_center,-479.872447040504,-299.9865562858312,2.331710454916519,-0.025136949719052747,0.0006512387554118818,0.0006461871214146746,0.9996835959888055,0.0927730345649252,0.050727883538547736,0.024403449366526435,0.0010974972063583527,0.0026850174902393596,0.0,0
2025/04/09 11:15:52.162327227,1744190152,159044827,piren,vessel_center,-479.86644632309253,-299.94503344078385,2.3484517855384377,-0.009111271320667613,0.0008542379773024559,0.0006364951439817398,0.9999579240579731,0.09581708818982407,0.1373828742473506,0.05890301793975361,-7.203214870560719e-05,0.0020383272121309447,0.0,0
2025/04/09 11:15:52.224274915,1744190152,221851516,piren,vessel_center,-479.8598018935993,-299.94280479890045,2.350028396784705,0.002484253536973875,0.0008212521481903575,0.0005640064938905696,0.9999964179565585,0.09948144041873093,0.12641624319894615,0.05558145058335242,-0.001051251126900039,0.0013645821902724489,-0.0022218295914566985,0
2025/04/09 11:15:52.276895272,1744190152,274196753,piren,vessel_center,-479.85343275668413,-299.9615658638797,2.3428155401469057,0.03071698138943419,0.0007973089560351832,0.0005115372819282258,0.9995276732949213,0.10274095116483295,0.0708750560206681,0.03346371758392444,-0.001312367152788505,0.0005746089222465691,-0.00037946832486558267,0
2025/04/09 11:15:52.324412216,1744190152,322293829,piren,vessel_center,-479.84685155730375,-300.0220284045704,2.3161625897239544,-0.003711310748974671,0.0007873613023918878,0.0005387759736277199,0.9999926579506243,0.10569233129808708,-0.07155754813252316,-0.02957544084323692,-0.0009656754545801027,-0.0003335908327324485,0.0,0
2025/04/09 11:15:52.377050386,1744190152,373173432,piren,vessel_center,-479.8402213343044,-300.0084377128006,2.3227743808177905,0.03197130145347162,0.0007705964866598775,0.0005744564299063778,0.99948832512653,0.10863573139790787,-0.03336933222576591,-0.011581371436972875,-0.0013968315480654035,-0.0011138296415125432,-0.00021182491489846447,0
2025/04/09 11:15:52.426490778,1744190152,424031092,piren,vessel_center,-479.83329495251917,-300.057850177603,2.3008483339813592,0.028204336473189047,0.0007607099265718528,0.0005749440178039908,0.9996017237699679,0.11159282094463378,-0.1393687555721499,-0.0589863335830305,-0.0024645646195494823,-0.0018103731976075847,0.0,0
2025/04/09 11:15:52.465793635,1744190152,463844257,piren,vessel_center,-479.82716577481887,-300.0860138793202,2.2887113825200487,0.005868009843029423,0.0006700362054285069,0.0005903120372529962,0.9999823843666769,0.11531536130005406,-0.1895995168628815,-0.0807281786337011,0.0002591761295894783,-0.0023849938406315615,-0.0001831965769020992,0
2025/04/09 11:15:52.517013495,1744190152,515190735,piren,vessel_center,-479.81982400135183,-300.0700140091539,2.2967608884936817,-0.01644856834060772,0.0006169759741975912,0.0006068332081699665,0.9998643386448228,0.11855441491993587,-0.13253649090947875,-0.05368238623775737,3.364628239798145e-05,-0.0028229115519454017,0.0,0
2025/04/09 11:15:52.568794445,1744190152,565704727,piren,vessel_center,-479.81259627533615,-300.02048623581936,2.3181008088414212,0.002010003324200358,0.0005946328620246435,0.0005964081527602973,0.9999976252950361,0.12146770211916191,-0.0077590709157903115,-0.00029954427365125325,-0.000842280817316996,-0.003064069195122098,-0.00010820043630703212,0
2025/04/09 11:15:52.617807640,1744190152,615931426,piren,vessel_center,-479.8050801235622,-300.01623007422285,2.3209555987662864,0.006894769231420969,0.0005180701268179752,0.0005929357237846287,0.9999759208040044,0.12427301132584034,0.0025883177531795584,0.006079631591259382,0.0005837666348429377,-0.0031229631913157834,0.0,0
2025/04/09 11:15:52.668680223,1744190152,666108495,piren,vessel_center,-479.7977012964163,-300.0215963337026,2.3194843745099667,-0.024956976668951966,0.0005065041047318343,0.0006088202279320676,0.9996882124477948,0.12696265954778027,-0.009623451708603192,0.002139225618319085,0.0007459122844635983,-0.0029876308895938836,-7.426269845032888e-05,0
2025/04/09 11:15:52.707891868,1744190152,705974191,piren,vessel_center,-479.7899864953491,-299.97186392563697,2.339805949267186,-0.01064745312307014,0.00046344692130115435,0.000602412371434994,0.9999430254060868,0.12965952639574424,0.10200412430517641,0.04706130066368673,0.00021070628841555507,-0.0026667638800231858,0.0,0
2025/04/09 11:15:52.769723381,1744190152,767050106,piren,vessel_center,-479.78229982177436,-299.9610533968896,2.3450549462898946,0.010856452284806629,0.00045855023920947846,0.0005913191312036727,0.9999407870054862,0.13241779798909192,0.11476083015154469,0.05352774506675645,-2.097667403127882e-05,-0.002188705193305899,0.0,0
2025/04/09 11:15:52.820781379,1744190152,818206630,piren,vessel_center,-479.77424840485094,-299.98987758210274,2.3335709857514484,0.014022646459454662,0.0004251066092202683,0.0005815560526251726,0.9999014183724322,0.13524402847210695,0.03763780117328676,0.02191262227499601,-0.0004348801114862321,-0.0015957144997418556,-0.00020854311900645058,0
2025/04/09 11:15:52.871908039,1744190152,870164982,piren,vessel_center,-479.7661625361336,-300.01628759480457,2.3228247835965496,0.007151091470594689,0.0004257971787889399,0.0005817626373488803,0.9999741707363123,0.1379590142140387,-0.0253026064670394,-0.004441986153651083,0.0010907616331435573,-0.0009193330141779143,-2.045349504416925e-05,0
2025/04/09 11:15:52.923789452,1744190152,921279125,piren,vessel_center,-479.7577230108566,-300.0239597482703,2.320153414489207,0.012053095362543282,0.0002739522065534167,0.0005815042278404224,0.9999271521942001,0.1406839855034832,-0.03941364419965797,-0.009862923426861752,0.0005269932272325299,-4.5719277068443655e-05,0.0,0
2025/04/09 11:15:52.975127302,1744190152,972518321,piren,vessel_center,-479.74957206141164,-300.03752100499247,2.3146783811801437,0.031032196585781116,0.00045694100484507957,0.0005802451399887005,0.9995181125400164,0.1431457037902419,-0.06516804824568684,-0.02093375942288949,-0.0011511501023270033,0.0007058289408413196,-8.891870164527273e-06,0
2025/04/09 11:15:53.14839825,1744190153,12308195,piren,vessel_center,-479.7421704223055,-300.0408906511753,2.3135959586674124,-0.0028657115186848884,0.0004949501521533873,0.0005953651587324432,0.9999955941213773,0.1431457037902419,-0.06516804824568684,-0.02093375942288949,-0.000664083502539488,0.0013579407477084286,0.0,0
2025/04/09 11:15:53.66000391,1744190153,62071197,piren,vessel_center,-479.7317526804942,-300.0110115817732,2.3264477446090397,0.00024493532440886175,0.0004624329587940306,0.0005938549220210962,0.9999996867493396,0.15005487986086338,0.003862142024672683,0.008004869418738297,-0.0007869257000577937,0.001947792050222585,0.0,0
2025/04/09 11:15:53.126784109,1744190153,124551554,piren,vessel_center,-479.7226957913747,-300.00817224266166,2.3278158003169693,-0.024897632860002777,0.0004965916554272377,0.0006053559683127965,0.9996896992661513,0.15311317152963969,0.009733503637426071,0.0101348190739394,0.001242771444105148,0.0023976075180864626,7.910883447155525e-05,0
2025/04/09 11:15:53.166400244,1744190153,164404733,piren,vessel_center,-479.71454463347413,-299.96359424272504,2.3452919473163902,0.025045325015682476,0.0005737149816601648,0.0005836830239572315,0.9996859816262836,0.1575628832903931,0.10794183283369416,0.04807192393653993,8.626222607239256e-05,0.002712450768164358,5.124822976083346e-05,0
2025/04/09 11:15:53.218998660,1744190153,215788734,piren,vessel_center,-479.70458867198664,-300.01545911012187,2.32273176582605,0.0021109346540945256,0.0005936395376666025,0.0005969261206049454,0.9999974176097617,0.16179349532917517,-0.019586918410368553,-0.007527677471390229,-0.00020031610664324726,0.002865123038533848,0.0,0
2025/04/09 11:15:53.268700010,1744190153,265444698,piren,vessel_center,-479.69477430890714,-300.01473022640255,2.323617934348438,-0.012785500093428489,0.0005616549188353718,0.0006047639637176491,0.9999179215273929,0.16567733158590275,-0.015796671122143408,-0.004724121800730055,-0.00011483043670592242,0.002851141414957543,6.855703561059268e-05,0
2025/04/09 11:15:53.307258631,1744190153,305105006,piren,vessel_center,-479.6848732284835,-299.98900175417396,2.334459481940959,-0.024773547072216438,0.0006128414494876747,0.0006095539816672706,0.9996927149053163,0.16889405816832553,0.04317692235799765,0.019907227096076258,0.0011149190052744578,0.0026500415717457273,0.0,0
2025/04/09 11:15:53.368206000,1744190153,366428132,piren,vessel_center,-479.6749422569535,-299.9501797401179,2.349842512757022,0.00960941239381845,0.0006484192226239086,0.0005890886748101686,0.9999534447765508,0.17223584400394432,0.1246719553713319,0.05188887054940566,-0.0002272954758850189,0.002310372704920034,0.0,0
2025/04/09 11:15:53.420000980,1744190153,418208960,piren,vessel_center,-479.6646387408926,-299.9805788082147,2.337517170986934,-0.01144187830036578,0.0006553298606485835,0.0006194350359049638,0.9999341329627516,0.17532989559822457,0.04277012227034899,0.018527516750495833,-4.739374334564487e-05,0.0018397003156428316,0.0004852981128511259,0
2025/04/09 11:15:53.472707962,1744190153,470903658,piren,vessel_center,-479.65453373980455,-299.9674588896785,2.3432123810065035,0.004121403380142151,0.0006465294793565159,0.0006174082716080435,0.999991107380879,0.17836199292328278,0.06718970521510524,0.029132052134223242,2.7550645343424053e-05,0.0012980166208394813,0.00010596067517862161,0
2025/04/09 11:15:53.522011956,1744190153,519248590,piren,vessel_center,-479.64418545409075,-299.98444455674627,2.336483911347478,0.006451557556221895,0.0006384827099989285,0.0006161779879859521,0.9999787948099774,0.18115988821991783,0.02182796323004365,0.01087805327196564,0.000600353376014737,0.0006591625835171604,0.0,0
2025/04/09 11:15:53.571796261,1744190153,569192477,piren,vessel_center,-479.63382242431186,-300.0007677583679,2.3299016441993405,0.005731724902944379,0.0006800228019247369,0.0006163936561298972,0.9999831523368214,0.1838873956182852,-0.016895851059098306,-0.004969845315793704,0.00039032354455429243,-1.0677655063005729e-05,0.0,0
2025/04/09 11:15:53.623581231,1744190153,621412085,piren,vessel_center,-479.6231348791052,-300.011361741589,2.3256940698235486,-0.023769911516155463,0.0005995719269337978,0.0006372556864649944,0.9997170728387151,0.18656915109113476,-0.03850582145255432,-0.01375206373310361,0.0010437348734048191,-0.0006745908987176852,0.0005861545698777714,0
2025/04/09 11:15:53.661486730,1744190153,659235395,piren,vessel_center,-479.6127127176731,-299.9690885892712,2.342537592349592,-0.013317929506117994,0.000664114748939159,0.000632590393818003,0.9999108917971962,0.18915768118645251,0.05969914928605245,0.025201807758120878,0.00034395218811258564,-0.0013104200547275245,0.0,0
2025/04/09 11:15:53.723599484,1744190153,721590746,piren,vessel_center,-479.60174072220667,-299.9567920292341,2.3479031051500288,-0.026148178431183562,0.0005873867295215052,0.0006462207634299383,0.9996576964842945,0.19189751813669323,0.08019721091095558,0.034242963870807955,0.0003136997966789879,-0.0018369894774569193,0.0006701632381400505,0
2025/04/09 11:15:53.762861654,1744190153,760717218,piren,vessel_center,-479.59106141230865,-299.92665308753925,2.3597463924509317,-0.02689038581719768,0.0005786679203895875,0.000649450863309073,0.9996380097353323,0.19444580928761757,0.1383274916416212,0.05678432883108436,0.00013051221364325207,-0.002257668421416826,0.0,0
2025/04/09 11:15:53.825149722,1744190153,822788692,piren,vessel_center,-479.5799444324146,-299.9042520275056,2.368574606269062,0.0015137501367114181,0.0005461769796503412,0.0006344497428524821,0.999998503861258,0.19676467824538127,0.17218736206432364,0.06986709280801941,-0.0008895633074730983,-0.0025166742789218964,0.0007524567861542658,0
2025/04/09 11:15:53.869903341,1744190153,863579566,piren,vessel_center,-479.5690873620249,-299.93739599537804,2.355826792185736,-0.004101744736175779,0.0004925998132135788,0.000637832844039348,0.9999912630642361,0.19932318976211724,0.07964792394545836,0.033875519525544476,-0.001085767516832422,-0.002625252860018315,0.0,0
2025/04/09 11:15:53.925984838,1744190153,923491910,piren,vessel_center,-479.5578761262876,-299.9522014232261,2.3504899228105094,-0.010160905471537671,0.0004763299306591965,0.0006480369782560566,0.9999480532297018,0.20155892696852795,0.03767950817832568,0.018159546249458473,-0.0005968845749409436,-0.0026589688631145263,0.0008213489108356218,0
2025/04/09 11:15:53.977239392,1744190153,974741238,piren,vessel_center,-479.5467478564047,-299.95306489175283,2.350650883620064,0.002375772586754764,0.0004042737257596648,0.000661473728128681,0.9999968773550635,0.20398171265064782,0.03158988166683228,0.016507280074396405,-0.00045499265555103363,-0.0024327223765180724,0.0002752394034123037,0
2025/04/09 11:15:54.20680574,1744190154,17936036,piren,vessel_center,-479.5362106358863,-299.9751892228793,2.342014244761388,0.003316966340935448,0.0005499660355482071,0.000660286182162595,0.9999941296296747,0.20711830280465626,-0.020737363389480394,-0.004334944446514995,-8.215136957392651e-05,-0.00219255279209994,0.0,0
2025/04/09 11:15:54.59683070,1744190154,57888003,piren,vessel_center,-479.5242572644449,-299.9926450964347,2.335203616774607,0.02922522983558031,-4.723963134868878e-05,0.0006613744333412143,0.9995726318248883,0.21071201409131396,-0.05723175945868208,-0.01899027383194428,-0.001225965232662766,-0.001643297925324399,0.0,0
2025/04/09 11:15:54.122649162,1744190154,120731670,piren,vessel_center,-479.51306240495586,-300.04800742868656,2.310768163667646,-0.007079131845079674,0.00011227815164942229,0.0007230471843453178,0.9999746749236732,0.21146357815819106,-0.1737249043956126,-0.07112528167629079,-0.0005493194839377729,-0.0008150877753654045,0.0029305879956331208,0
2025/04/09 11:15:54.172351217,1744190154,170409757,piren,vessel_center,-479.5015934060001,-300.026871041938,2.320307141246789,0.023385218639055193,0.00016770330573417306,0.0007725952190507729,0.9997262157818172,0.21352061767347555,-0.10750015125663595,-0.04204410421548771,-0.0005972405516072257,-2.626776411378243e-05,0.000690552676389291,0
2025/04/09 11:15:54.224874497,1744190154,221902163,piren,vessel_center,-479.4895253498646,-300.0621187906064,2.3050864120565007,0.004363551887753496,0.0001753209037475789,0.0007757156479630252,0.9999901634229894,0.2159372325960249,-0.1735535592825272,-0.07106763922303151,-0.0010133634715348216,0.0007467485813819266,0.0,0
2025/04/09 11:15:54.261530504,1744190154,259386629,piren,vessel_center,-479.4787791582445,-300.0707557439561,2.301549706228153,-0.026679021308812327,0.0001410536932908962,0.0007785667246451701,0.9996437384187002,0.2159372325960249,-0.1735535592825272,-0.07106763922303151,0.000788778095236206,0.0014668867725527435,0.0,0
2025/04/09 11:15:54.326085011,1744190154,324204989,piren,vessel_center,-479.46562835164826,-299.95968452635077,2.3467793749046457,0.03230997834875221,9.189503563339032e-05,0.0008146106409168337,0.9994775601602616,0.22015648183000855,0.07584841248735755,0.030532751990700643,-0.0005729151123990771,0.002648229511043663,0.004607125077975543,0
2025/04/09 11:15:54.375440990,1744190154,372807672,piren,vessel_center,-479.4536401454713,-300.0276909526238,2.317284717312756,-0.000745779233524677,0.0004459540914866277,0.0008542592087276026,0.9999992575894682,0.22266225938665235,-0.0836106426539118,-0.03836619620003852,-0.000738554072725618,0.003018386856178574,0.00026603311685645495,0
2025/04/09 11:15:54.426098105,1744190154,423230653,piren,vessel_center,-479.44062157193395,-300.02158194969803,2.321121213424562,0.02535743993975886,0.0005661991865503176,0.0008439396701298147,0.9996779318480608,0.22614030831568932,-0.06047391991655788,-0.025452989284133313,-0.0011891231469325393,0.00314375066344944,0.0,0
2025/04/09 11:15:54.476556048,1744190154,474508002,piren,vessel_center,-479.4277192289272,-300.06009842292775,2.3046301787402066,0.0015876891676634415,0.0005437057428026741,0.000711177756222494,0.9999983389253061,0.2296714319602416,-0.1393523743807691,-0.05927406168493547,6.659741988527177e-05,0.003087627731581665,7.384958726236529e-05,0
2025/04/09 11:15:54.527653189,1744190154,524994659,piren,vessel_center,-479.4148107037129,-300.04791176650724,2.3106904823576246,-0.0002711547337733399,0.0006146294379109785,0.000712167032236922,0.9999995207618265,0.23207711084642146,-0.09631921879658877,-0.03902132364496893,-0.0003907745075784375,0.002845149307656915,0.0,0
2025/04/09 11:15:54.567373175,1744190154,564795856,piren,vessel_center,-479.40366749286505,-300.0347680270077,2.3168474432324366,-0.007542481799853469,0.0005871774829292628,0.0007157230170487871,0.9999711265488946,0.2365296629857767,-0.058675355318291635,-0.02192144373674019,0.0007662508814784518,0.0024459421315685555,0.0,0
2025/04/09 11:15:54.619035454,1744190154,616788291,piren,vessel_center,-479.38995005017864,-300.01360369613514,2.326044410816258,0.03143604768426797,0.000690447654982828,0.0006919965183166421,0.9995052872940928,0.23945844586305615,-0.004801494706816831,0.001072826447154538,-0.0004043277832264699,0.0018860501281124482,0.00016879488278261607,0
2025/04/09 11:15:54.671511485,1744190154,669677218,piren,vessel_center,-479.37672766552106,-300.06295319537116,2.3037886747027634,-0.02726349306315103,0.0005876627708966141,0.0007321659034665029,0.9996278410146213,0.24236006230257776,-0.11394715320893739,-0.048508052627855486,0.0011093259484608663,0.001243354582222193,4.682008115780174e-05,0
2025/04/09 11:15:54.707873514,1744190154,705983398,piren,vessel_center,-479.36436698476746,-300.0687646494953,2.301314700456288,-0.01608523087924201,0.0006320972486457756,0.0007256895941200104,0.9998701611585591,0.24236006230257776,-0.11394715320893739,-0.048508052627855486,0.00039750102632716427,0.0005409105098799762,0.0,0
2025/04/09 11:15:54.770123341,1744190154,768356179,piren,vessel_center,-479.3504356947091,-299.9872433554057,2.336001610153313,-0.02667587928530724,0.0006423438623165041,0.0007262849714302487,0.9996436651971834,0.24620074426788965,0.06763680253457094,0.028761606875068325,0.0012692765513202134,-0.00021460423867607892,2.9101588718650078e-05,0
2025/04/09 11:15:54.822313845,1744190154,819804797,piren,vessel_center,-479.33694105601154,-299.94659470554916,2.3523293925855375,9.440021175442762e-05,0.0006043996502509158,0.0007088299218803205,0.9999995616748063,0.24744737551350232,0.15008653345316814,0.06169405482131296,-0.00029929084509957036,-0.0009072120838882957,0.0,0
2025/04/09 11:15:54.861979853,1744190154,858235259,piren,vessel_center,-479.3241098469022,-299.96364416490627,2.3461630409409837,-0.014853548542925085,0.0005368397965504478,0.0007180733723182391,0.9998892780049938,0.24895055742349548,0.09581084854780782,0.04125482676192363,-5.715264690331069e-05,-0.0015532552365137029,0.0,0
2025/04/09 11:15:54.911758713,1744190154,910113868,piren,vessel_center,-479.3108390307015,-299.95105693697303,2.35176012081632,0.028914060316093625,0.0005855722806494851,0.0006879290573427477,0.999581492913286,0.2499067948977882,0.11280272137873906,0.04896510309275329,-0.0013685423631496771,-0.0020885564257056744,-3.180581331291662e-05,0
