time,header_stamp_secs,header_stamp_nsecs,header_frame_id,pose_position_x,pose_position_y,pose_position_z,pose_orientation_x,pose_orientation_y,pose_orientation_z,pose_orientation_w
2025/04/09 11:15:46.120057201,1744190146,119049685,piren,-479.9952380628493,-299.9514562590695,2.3463710011552297,-0.0019567228911981462,0.0004368336215699406,-0.0018882865454766713,0.9999962073857263
2025/04/09 11:15:46.172535540,1744190146,172065622,piren,-479.99540279539326,-299.96240159443016,2.3431237261971702,0.02442976002909371,0.000336060923778865,-0.0018985183496038067,0.9996996896648775
2025/04/09 11:15:46.221496871,1744190146,220291416,piren,-479.995777642864,-300.0142836195743,2.3211812104282306,-0.0024630951341637077,0.0004160509651300339,-0.0019015844119796175,0.9999950720081967
2025/04/09 11:15:46.252323263,1744190146,251964092,piren,-479.9958779679338,-300.0063940079529,2.325473526787323,0.002763625354476986,0.00042244130557499447,-0.0019037828137669374,0.9999942797482602
2025/04/09 11:15:46.311540101,1744190146,311161415,piren,-479.99591640048686,-300.0096617179077,2.324758807065075,0.0032331135010933167,0.00035546088779838124,-0.0019216571966004681,0.9999928639036706
2025/04/09 11:15:46.353376143,1744190146,352160052,piren,-479.9960164822839,-300.0112777027906,2.324150769067045,-0.0017684171274038323,0.0004349331266209404,-0.0019197697152734763,0.9999964990030111
2025/04/09 11:15:46.411997811,1744190146,411596357,piren,-479.9957826769785,-300.0000132439706,2.3294751202580635,-0.03361480443294297,0.0005226555766861381,-0.0019156990726196484,0.9994328901187645
2025/04/09 11:15:46.454225315,1744190146,453822539,piren,-479.99548107518325,-299.94268538164005,2.351356085476682,-0.002220513670676865,0.00046451676194683353,-0.0019312442366757833,0.999995561909609
2025/04/09 11:15:46.513202876,1744190146,512692712,piren,-479.99546451562657,-299.95511118564525,2.3468116579390443,0.029233231018377687,0.0013145195708208124,-0.0019862785234242074,0.9995697799254195
2025/04/09 11:15:46.563279095,1744190146,562945623,piren,-479.99419095528054,-300.0165097183286,2.319871511273201,0.02945325318757916,0.0013026362310288207,-0.0019863004969179927,0.9995633364754101
2025/04/09 11:15:46.615300488,1744190146,614878787,piren,-479.99322366141575,-300.06076606039284,2.3003927601653786,-0.028416564814226462,0.0004614550271726567,-0.0018548135287006294,0.9995943405052824
2025/04/09 11:15:46.666344447,1744190146,663788039,piren,-479.9936540920505,-299.99476283171106,2.327417733336886,-0.02841480621356701,0.0004695423324230021,-0.0018548334585961326,0.9995943866942654
2025/04/09 11:15:46.716196999,1744190146,715732364,piren,-479.99391566146,-299.9472144296573,2.3468480173390285,-0.001926365231529448,0.00042728790959831354,-0.0017907997919918137,0.999996449782769
2025/04/09 11:15:46.766662162,1744190146,764925625,piren,-479.9941983618001,-299.95835410031754,2.3434161793061867,0.024464204454729018,0.00032457283976114964,-0.0017996115277566214,0.9996990340853682
2025/04/09 11:15:46.816229884,1744190146,815847254,piren,-479.99473185265254,-300.0102228556819,2.321369261134189,-0.0024857504698650936,0.0004165877570481704,-0.001785292473760925,0.9999952301036369
2025/04/09 11:15:46.857729546,1744190146,857374293,piren,-479.9948512126944,-300.0025306102291,2.325470166429341,0.0028038037805264587,0.0004344235411370221,-0.001787474023519505,0.9999943774327746
2025/04/09 11:15:46.909941122,1744190146,909316362,piren,-479.99487231344636,-300.00383726083373,2.324873785276574,0.003232644209288505,-0.0024941621316509777,-0.001747505709778268,0.9999901376466028
2025/04/09 11:15:46.969770003,1744190146,968597442,piren,-480.00326098022174,-300.00877306935786,2.3237139454255478,-0.0016594993448467627,-0.0005478405221382936,-0.0017567231859625858,0.9999969299234548
2025/04/09 11:15:47.20627051,1744190147,20145902,piren,-480.00250415724787,-300.001959871342,2.326717456938471,-0.03361627717220502,-0.0002602946414840711,-0.002015953137882686,0.9994327461559017
2025/04/09 11:15:47.69857257,1744190147,69494899,piren,-480.0014472253952,-299.94240557942163,2.3494356506212895,-0.0021729713842646363,0.0006439372261162924,-0.002004951413682666,0.9999954218445407
2025/04/09 11:15:47.121520127,1744190147,121073460,piren,-479.9992250985521,-299.95324585172807,2.3454709839888737,0.029239264070318634,0.0005757190187564093,-0.00229041487258285,0.9995696513920124
2025/04/09 11:15:47.170760041,1744190147,170395311,piren,-479.9981221893998,-300.01342170755345,2.3189811692125044,0.02944051508706289,0.0005548831648976388,-0.002288239610615142,0.9995637609155137
2025/04/09 11:15:47.203932152,1744190147,202961419,piren,-479.9971674140443,-300.0563864044023,2.3000444532678337,-0.028399569718766282,0.000667239120519745,-0.0022655005571916385,0.9995938608949989
2025/04/09 11:15:47.254214211,1744190147,253012521,piren,-479.99711378583277,-300.06403098645467,2.296517249192791,-0.02838818357881663,0.0006920192151599183,-0.0022641008811075123,0.9995941706461186
2025/04/09 11:15:47.313666619,1744190147,313288848,piren,-479.995475185306,-299.94250103238033,2.3466846541080972,-0.002068767935841148,0.0005627088001012887,-0.002383167352900121,0.9999948620225017
2025/04/09 11:15:47.366890484,1744190147,366460172,piren,-479.9954928318993,-299.9533415451025,2.3434703434097592,0.0244099381717261,0.0004513615374994906,-0.002398304671400467,0.9996990543788257
2025/04/09 11:15:47.417181033,1744190147,415013899,piren,-479.99572989051927,-300.00541794749137,2.321494983503044,-0.0024237779312084747,0.0006253408197017586,-0.002449003228354926,0.9999938682974946
2025/04/09 11:15:47.455903488,1744190147,455332164,piren,-479.99578893168695,-299.9983245270332,2.3255479890805315,0.0028189364618044104,0.000620932315304404,-0.002452682146038316,0.9999928261695554
2025/04/09 11:15:47.516166250,1744190147,515788330,piren,-479.9957272139026,-300.00207096324783,2.32481033628576,0.0036650971811789013,0.004067946991310076,-0.0025272470265846644,0.9999818157808646
2025/04/09 11:15:47.565967150,1744190147,565534165,piren,-479.9901142213419,-300.006228279933,2.323716924235411,-0.001754091036752344,0.0013144026718706287,-0.002509551670865444,0.9999944488149233
2025/04/09 11:15:47.607971584,1744190147,607658334,piren,-479.9904907665804,-300.000226997667,2.326803027921731,-0.03371354613718867,0.0011756046925761009,-0.0021082621781366396,0.9994286217589782
2025/04/09 11:15:47.684022770,1744190147,682212578,piren,-479.99089106465243,-299.9415946088053,2.3495721476445612,-0.0022209223186417555,0.000845308012071077,-0.0020097987912547116,0.9999951568218909
2025/04/09 11:15:47.717918693,1744190147,717453201,piren,-479.99187449411176,-299.9534747198996,2.345613768789119,0.029270811325307816,0.0006244542247991932,-0.0020379106286033087,0.999569245516062
2025/04/09 11:15:47.768531871,1744190147,767132365,piren,-479.99312034901504,-300.0146894539588,2.3190692744315786,0.029493755560818298,0.0006078480781143628,-0.0020429697983400893,0.9995626919698613
2025/04/09 11:15:47.818477198,1744190147,818093524,piren,-479.9940758809791,-300.0589007317739,2.2998801583007116,-0.02828521380298925,0.000713559986607512,-0.0015646441172322625,0.9995984140648939
2025/04/09 11:15:47.868624146,1744190147,868146129,piren,-479.9940291171899,-299.9931167015719,2.327025339344108,-0.028498785858587693,0.0008823064774969545,-0.0015582920470210435,0.9995922230918778
2025/04/09 11:15:47.922620469,1744190147,920094811,piren,-479.99387484330526,-299.94524519620023,2.34669551834586,-0.0019599871841399865,0.0008857162614544614,-0.0012693372725256513,0.9999968813650526
2025/04/09 11:15:47.970416502,1744190147,969938780,piren,-479.9934168286428,-299.9560527713641,2.3434160613711406,0.024510077539181753,0.0005507337916455165,-0.0012825236746273586,0.9996986085437641
2025/04/09 11:15:48.13842284,1744190148,12326914,piren,-479.9940986936381,-300.00768246812913,2.321394125384893,-0.0024928368086758503,0.0007082278554445999,-0.0009602941952550657,0.999996180999212
2025/04/09 11:15:48.72310890,1744190148,71963960,piren,-479.9936919016502,-299.99947176776567,2.325539333160128,0.0027122275741765676,0.0007468025428628087,-0.0005460703300379482,0.9999958939489415
2025/04/09 11:15:48.112957455,1744190148,112606634,piren,-479.9930328170049,-300.0015776794372,2.324966217919336,0.0032616586627171426,-0.0003663581450898763,-0.0005420781712854881,0.9999944667425584
2025/04/09 11:15:48.152871133,1744190148,152534183,piren,-479.99436691116347,-300.0035349443004,2.3241391619854554,-0.0017963408673311377,-0.00021761755622839172,-0.0005442845928645689,0.9999982147765913
2025/04/09 11:15:48.213753125,1744190148,213340119,piren,-479.9955710306933,-299.9957968598697,2.327140224176426,-0.033686271065251634,-4.765984933631371e-05,-0.00047084631873118616,0.9994323444706007
2025/04/09 11:15:48.264764604,1744190148,264366919,piren,-479.9955543562318,-299.9353358453317,2.3497973329959096,-0.002152567599442685,0.00020454380265204754,6.016131370482612e-05,0.9999976604948528
2025/04/09 11:15:48.315013772,1744190148,314533301,piren,-479.9947876593672,-299.94528232095684,2.3457345365876603,0.029263003652689887,0.0003061279946309851,6.189969311488948e-05,0.9995716978142697
2025/04/09 11:15:48.365213687,1744190148,364800826,piren,-479.9940460521232,-300.0044738656701,2.3191554912103545,0.029023882437338628,0.00031933296330153107,7.113573089320866e-05,0.9995786648455588
2025/04/09 11:15:48.415881282,1744190148,415499312,piren,-479.9942619494205,-300.04603606357284,2.3003164052091205,-0.02854903018819048,0.0003756207634598605,-3.767084332991615e-05,0.9995923220819892
2025/04/09 11:15:48.455640796,1744190148,455251756,piren,-479.99364841866884,-299.97843346588184,2.3274937874875845,-0.026614377801221546,0.00044584318383323603,-4.1899316124836255e-05,0.9996456744079658
2025/04/09 11:15:48.516814779,1744190148,516364490,piren,-479.9934887876016,-299.932853593052,2.3458749375974968,0.0006582368153511118,0.00044894468156487073,9.294960790643857e-05,0.9999996782666174
2025/04/09 11:15:48.557342868,1744190148,556875262,piren,-479.9929219835908,-299.9466040739393,2.3409835201376246,-0.0015917712298260426,0.0004474104528905173,9.390547900671032e-05,0.9999986286340595
2025/04/09 11:15:48.619143521,1744190148,616880768,piren,-479.99299802740273,-299.9528149606803,2.3389692583261117,-0.0014809465495890693,0.0004236627282735509,0.0002219129403460046,0.9999987890301952
2025/04/09 11:15:48.667082554,1744190148,666653033,piren,-479.9926145524367,-299.9577138829075,2.337350542313246,-0.0006110951415127076,0.0003852136861383362,0.00022160352085460544,0.999999714532471
2025/04/09 11:15:48.710792442,1744190148,709653621,piren,-479.99286307000364,-299.9628465537827,2.335544046333687,0.0009716683118007643,3.5414947120432887e-05,0.0003979471965107682,0.9999994481220988
2025/04/09 11:15:48.768670034,1744190148,768275014,piren,-479.9931372611287,-299.96945670932524,2.3330859425749306,-0.0010509266131592697,4.023062664579625e-06,0.0003982479911945522,0.9999993684676037
2025/04/09 11:15:48.810439047,1744190148,810099795,piren,-479.9938775257074,-299.9709893205835,2.3327349267734117,-0.0008045494497529044,-5.806454448302672e-05,0.00048258260086419174,0.999999558221265
2025/04/09 11:15:48.869545952,1744190148,869173983,piren,-479.9940768031373,-299.9727001342247,2.3323099331267447,0.0006785681932338583,-0.0001777116270433435,0.0004825460594100688,0.999999637556477
2025/04/09 11:15:48.921005564,1744190148,920631894,piren,-479.9948254276236,-299.9766131161119,2.330966555543727,-0.0009458332119399095,-0.00024971063074661465,0.0005919828880712192,0.9999993462999845
2025/04/09 11:15:48.971471651,1744190148,970361036,piren,-479.9950588485346,-299.9768474741651,2.3311565000915637,-0.0036729040660753035,-0.0002737832756717993,0.0005922491294335514,0.9999930420054972
2025/04/09 11:15:49.22469669,1744190149,22054273,piren,-479.9956604031013,-299.97256876848405,2.333194175839806,-0.0007727736518321344,-0.00034929322820010544,0.0006666602605085493,0.9999994181894412
2025/04/09 11:15:49.52602549,1744190149,51347451,piren,-479.99581063136986,-299.9725085662367,2.333265986592839,0.004113414867577785,-0.0002589923116478389,0.0006673360074979434,0.9999912836638941
2025/04/09 11:15:49.115103859,1744190149,113202830,piren,-479.9959872447239,-299.98994447493817,2.3263184391867022,0.027571923123969444,-0.0006932129817893689,0.0007802523298497561,0.9996192773837996
2025/04/09 11:15:49.164602228,1744190149,163189208,piren,-479.996532642096,-300.03385266042574,2.3066089943735135,-0.027753806414857668,-0.0007080755737142483,0.0007432683876142137,0.99961426180831
2025/04/09 11:15:49.215600327,1744190149,215254504,piren,-479.9973553803367,-299.9722212068475,2.3313968021233684,0.0012880082144214058,-0.0006287294367047924,0.0008292100496408042,0.9999986290714746
2025/04/09 11:15:49.264343267,1744190149,263969384,piren,-479.9973955951091,-299.976919874113,2.330183979962859,0.02827330642292435,-0.00053300694021319,0.0008460277355652926,0.9995997300342712
2025/04/09 11:15:49.315137964,1744190149,314760080,piren,-479.99751705433084,-300.02483133013124,2.309031838199995,-0.020388963046909486,-0.00033658706146043533,0.0008994218121643735,0.999791662265407
2025/04/09 11:15:49.366177085,1744190149,365719256,piren,-479.9969924484382,-299.97738263345497,2.3287694399359644,-0.013997898612326875,-0.0004004546373745839,0.0008979563303923661,0.9999015412254104
2025/04/09 11:15:49.417032411,1744190149,416684838,piren,-479.99692133702285,-299.953881928399,2.338848924375766,-0.0018592222365939556,-0.0002140053440033314,0.0009815385974033227,0.9999977670356918
2025/04/09 11:15:49.467501474,1744190149,465927005,piren,-479.9962111460242,-299.957461417791,2.3377964013446215,-0.006475627186978942,-0.00019904690413453707,0.0009790772401622049,0.9999785337899124
2025/04/09 11:15:49.508807658,1744190149,507317471,piren,-479.9958928400168,-299.9521300814158,2.3401492089276785,-0.016614882042805455,-7.873693019642763e-05,0.0010315251575453536,0.9998614281244421
2025/04/09 11:15:49.556868414,1744190149,556483084,piren,-479.995895579194,-299.9491865104997,2.341336054427559,-0.013016704444369837,-5.951890303028227e-05,0.001028862268098636,0.9999147480187206
2025/04/09 11:15:49.617819834,1744190149,617457464,piren,-479.99478518643787,-299.9265077031145,2.3502834613302,-0.012608003286166191,6.451443464774234e-05,0.0010930243714296188,0.9999199164876892
2025/04/09 11:15:49.659137012,1744190149,658794932,piren,-479.9940382433317,-299.9197334986031,2.3528350985473145,0.0010746820078556649,7.36563851627795e-05,0.0010922394674040918,0.9999988233224402
2025/04/09 11:15:49.719363849,1744190149,718952283,piren,-479.99362648317674,-299.93807804599027,2.3451976259492966,-0.004378380694725927,0.00013349039704893282,0.0011356090339101465,0.9999897611250468
2025/04/09 11:15:49.770254924,1744190149,768602657,piren,-479.99295379052,-299.9422906390196,2.3433891095276,-0.020383690147587827,5.420107434530327e-05,0.0011347125208673137,0.9997915856145748
2025/04/09 11:15:49.810028631,1744190149,809622762,piren,-479.99269033931944,-299.9404476948621,2.344064379845839,-0.004381635026647519,6.806852173670795e-05,0.001167027822026578,0.9999897172907491
2025/04/09 11:15:49.869613228,1744190149,869296518,piren,-479.99216410959144,-299.9477546523101,2.341031966278989,0.029592639977061148,3.3140096238438894e-05,0.001165364768125828,0.9995613620413103
2025/04/09 11:15:49.911175082,1744190149,910822828,piren,-479.9918713595346,-299.94687831690345,2.341315364408579,-0.007611080627287189,3.215799130968722e-05,0.0011749772719410368,0.9999703444832547
2025/04/09 11:15:49.961728949,1744190149,961419305,piren,-479.9915448264714,-299.9417956933045,2.343498154494981,-0.029887086658698225,-4.576155428218358e-05,0.001177747576532424,0.9995525863443012
2025/04/09 11:15:50.24754891,1744190150,24330473,piren,-479.9915210272952,-299.90241180506933,2.3584264511524307,0.00045364097157025437,-0.0009958913290166818,0.001258468716093959,0.9999986093324431
2025/04/09 11:15:50.62008831,1744190150,61678011,piren,-479.9927584866287,-299.9270077428137,2.348916286858264,0.02124773525382664,2.4283026643501646e-05,0.0012551350213529586,0.9997734532347796
2025/04/09 11:15:50.115323259,1744190150,114211309,piren,-479.99190101967895,-299.9787869446802,2.326995719356575,-0.028841539852149798,-0.00017096958531176513,0.001189363195983445,0.9995832740515148
2025/04/09 11:15:50.153957633,1744190150,153553826,piren,-479.99142030358144,-299.9317790176111,2.345854804679148,-0.0029660280068492142,-0.00013509778903271914,0.001193970051094296,0.9999948794178734
2025/04/09 11:15:50.215179232,1744190150,213853690,piren,-479.9908159783473,-299.9423385318036,2.342599092951563,-0.00576861495267937,-0.0011527845075854721,0.001153616069804502,0.9999820315082518
2025/04/09 11:15:50.263957436,1744190150,263505629,piren,-479.9918101330252,-299.9455366207617,2.3421584350462785,0.004351998867673826,-0.0009229971876355903,0.0011636574110248112,0.9999894269858444
2025/04/09 11:15:50.316146955,1744190150,314884595,piren,-479.99192595149304,-299.9650646886676,2.334756565545306,0.03148272434798447,-0.00020271793158466633,0.0010738106902933053,0.9995036987943919
2025/04/09 11:15:50.365570226,1744190150,365244127,piren,-479.99042376515507,-300.02395533809243,2.308827523879604,0.03166740415887613,-0.0002430938527824715,0.0010724162750870645,0.9994978570975279
2025/04/09 11:15:50.417360551,1744190150,417003779,piren,-479.98909058294,-300.0663020073379,2.2902432197474205,0.030588519050732135,-0.00021713524939777085,0.0009532707240002427,0.9995315836077884
2025/04/09 11:15:50.466432174,1744190150,466089636,piren,-479.98779909810634,-300.09418621235596,2.278162152396833,0.029287825724088803,-0.00035623178354959325,0.0009563629697587366,0.9995704986308579
2025/04/09 11:15:50.517916718,1744190150,517513589,piren,-479.98665416726055,-300.1113148456426,2.2709177634480486,0.002896999664856636,-0.00027806893862915093,0.0009160132683851446,0.9999953454843175
2025/04/09 11:15:50.559197211,1744190150,558822453,piren,-479.98541723195075,-300.07862104754156,2.2862733690381973,-0.022889043766349947,-0.00022096351836045451,0.000909473308219252,0.9997375734205889
2025/04/09 11:15:50.620112173,1744190150,619048532,piren,-479.98394404812456,-300.01109659113195,2.3147473649323635,0.004841392972132969,-0.00017727682177566585,0.0008938085492644182,0.9999878652230212
2025/04/09 11:15:50.658762008,1744190150,658447071,piren,-479.98230129593225,-300.0091571672672,2.316723617597049,0.0008936321004897481,-0.00020559241387510044,0.0008932097493884632,0.9999991806645504
2025/04/09 11:15:50.720898492,1744190150,719985618,piren,-479.9805721609967,-300.0011867911904,2.320947785030491,0.0032386691779485643,0.000155042235150821,0.0008637945803713332,0.9999943704055458
2025/04/09 11:15:50.770903439,1744190150,770426985,piren,-479.9782312746742,-299.99947160792306,2.3222756437553107,-0.0193064239741276,1.2786288823039006e-05,0.0008089523037399362,0.999813286282
2025/04/09 11:15:50.821729860,1744190150,820814698,piren,-479.97620484079266,-299.9602689485943,2.338409495242942,0.016945428606717296,0.0001095803945528863,0.00080876559087185,0.9998560828137671
2025/04/09 11:15:50.862173161,1744190150,860856422,piren,-479.9739071664291,-299.99336788962313,2.3245254129748028,-0.004207448707584869,-0.0002934692368007511,0.0008087993978535569,0.9999907785048391
2025/04/09 11:15:50.922751994,1744190150,922293982,piren,-479.9720906981201,-299.98200621479486,2.329789671730873,-0.026940106506618024,-0.000288177231987876,0.0008325826417473781,0.9996366612031792
2025/04/09 11:15:50.972952615,1744190150,972496592,piren,-479.9701693489492,-299.9354811236852,2.34824296641193,0.003676107161590453,0.0008488837050447077,0.0008372097017163992,0.9999925323283705
2025/04/09 11:15:51.9603428,1744190151,8537849,piren,-479.9661185323531,-299.95529778022234,2.340650472239585,-0.02627657189156206,0.0008202469993133545,0.0007480191891154677,0.999654094890718
2025/04/09 11:15:51.66010371,1744190151,64576930,piren,-479.96233428468923,-299.918473131962,2.355303890026384,-0.020043592602818454,0.0008037220279730765,0.0007428443979901439,0.9997985080048252
2025/04/09 11:15:51.116469022,1744190151,116088685,piren,-479.95866389654753,-299.90325828038425,2.361784942092168,-0.025059198385282838,0.0006365142081934805,0.0006594789758261346,0.9996855488169418
2025/04/09 11:15:51.159437346,1744190151,158295725,piren,-479.9555155110069,-299.88457355794475,2.3693394628969586,0.011974666530322557,0.0008074962113429234,0.0006324375965493083,0.9999277750588003
2025/04/09 11:15:51.208845639,1744190151,208237870,piren,-479.9532190440854,-299.87474492530174,2.373490261653768,0.03334539744431628,0.0007162606585349452,0.0005911047186442854,0.9994434561470505
2025/04/09 11:15:51.271234362,1744190151,270900438,piren,-479.9488836123316,-300.0318782837528,2.306078048330596,-0.022126426115155532,0.0006550582275095561,0.0005276376098887645,0.9997548268273786
2025/04/09 11:15:51.321265345,1744190151,320874297,piren,-479.9455943242107,-299.9836923470803,2.3271841556152713,0.02963621406861852,0.0006379655741184866,0.0004890353923788882,0.9995604277180997
2025/04/09 11:15:51.361123442,1744190151,360750640,piren,-479.94227603245383,-300.0356225771191,2.3055154658365278,0.03429332760502316,0.0005748511058209772,0.0004820963952827856,0.9994115292566152
2025/04/09 11:15:51.411910314,1744190151,411603867,piren,-479.9395854848422,-300.0428800854054,2.3024694999729216,-0.027984172374658528,0.0005044712519682609,0.0006029331840178409,0.9996080572288506
2025/04/09 11:15:51.475075699,1744190151,474715483,piren,-479.935291817319,-299.93391162854306,2.3488648762094573,0.00231667852589852,0.0004992599198932375,0.0005870604211726463,0.9999970195456594
2025/04/09 11:15:51.513551603,1744190151,513092278,piren,-479.93174617005184,-299.95592881086895,2.341590364820072,0.004362642356731138,0.0003565777504479576,0.0006076463458887794,0.9999902354372734
2025/04/09 11:15:51.565198052,1744190151,564279011,piren,-479.92789715726906,-299.97504521047773,2.335058229574707,-0.00030321126630630227,0.0003454680343922306,0.0005349881066922484,0.9999997512512145
2025/04/09 11:15:51.615703806,1744190151,614125430,piren,-479.92388887256,-299.9812046623711,2.33364359788265,-0.0009444854264602456,0.00037067227934309586,0.000535285066508526,0.9999993420094025
2025/04/09 11:15:51.666041496,1744190151,664589117,piren,-479.9197312389933,-299.98467235497776,2.333060660939702,0.004149046471084354,0.0003336588203557781,0.0005335141211535645,0.9999911946851607
2025/04/09 11:15:51.716252296,1744190151,715021141,piren,-479.91525234683536,-299.9957454585986,2.3290368071717755,0.0316872418207231,0.00026849420066060064,0.0006204481847582417,0.9994976046298008
2025/04/09 11:15:51.766632316,1744190151,765590467,piren,-479.91082695327384,-300.04905650628984,2.305200128046994,0.025368267484297716,0.0004358977331579948,0.0006199167745261045,0.9996778864720396
2025/04/09 11:15:51.816070890,1744190151,815553676,piren,-479.905838782432,-300.0765995842632,2.2932877235140547,-0.023415843370380756,0.0004859820084515198,0.0006160771037614841,0.9997255036007352
2025/04/09 11:15:51.867143311,1744190151,866150084,piren,-479.9007799352805,-300.0137919468302,2.3194613018453505,0.02102728168632407,0.0005205415824466018,0.0005966671639836043,0.9997785887133414
2025/04/09 11:15:51.918005214,1744190151,916936441,piren,-479.8953928284994,-300.04304843777874,2.307329740784617,-0.006339246771295629,0.0005843961756277562,0.0006092836511669574,0.9999795503933643
2025/04/09 11:15:51.968461704,1744190151,967493869,piren,-479.88995969751943,-300.0180203444393,2.3186434481621627,0.0032624323612351572,0.0005516754519289035,0.0005837316624964015,0.9999943557073862
2025/04/09 11:15:52.19982026,1744190152,18902271,piren,-479.8844026851251,-300.0159981428603,2.320124062756518,0.017880562567962083,0.000729544047158489,0.0005754984448678251,0.9998396981763009
2025/04/09 11:15:52.68774837,1744190152,68429575,piren,-479.87849300395715,-300.0386832950817,2.3104395722973763,-0.02271230758841296,0.0006848909534365392,0.0006487774666582664,0.9997415971620817
2025/04/09 11:15:52.120503824,1744190152,119364463,piren,-479.872447040504,-299.9865562858312,2.331710454916519,-0.025136949719052747,0.0006512387554118818,0.0006461871214146746,0.9996835959888055
2025/04/09 11:15:52.160007393,1744190152,159044827,piren,-479.86644632309253,-299.94503344078385,2.3484517855384377,-0.009111271320667613,0.0008542379773024559,0.0006364951439817398,0.9999579240579731
2025/04/09 11:15:52.222194157,1744190152,221851516,piren,-479.8598018935993,-299.94280479890045,2.350028396784705,0.002484253536973875,0.0008212521481903575,0.0005640064938905696,0.9999964179565585
2025/04/09 11:15:52.275642397,1744190152,274196753,piren,-479.85343275668413,-299.9615658638797,2.3428155401469057,0.03071698138943419,0.0007973089560351832,0.0005115372819282258,0.9995276732949213
2025/04/09 11:15:52.322677384,1744190152,322293829,piren,-479.84685155730375,-300.0220284045704,2.3161625897239544,-0.003711310748974671,0.0007873613023918878,0.0005387759736277199,0.9999926579506243
2025/04/09 11:15:52.374503733,1744190152,373173432,piren,-479.8402213343044,-300.0084377128006,2.3227743808177905,0.03197130145347162,0.0007705964866598775,0.0005744564299063778,0.99948832512653
2025/04/09 11:15:52.424361024,1744190152,424031092,piren,-479.83329495251917,-300.057850177603,2.3008483339813592,0.028204336473189047,0.0007607099265718528,0.0005749440178039908,0.9996017237699679
2025/04/09 11:15:52.464203467,1744190152,463844257,piren,-479.82716577481887,-300.0860138793202,2.2887113825200487,0.005868009843029423,0.0006700362054285069,0.0005903120372529962,0.9999823843666769
2025/04/09 11:15:52.515713536,1744190152,515190735,piren,-479.81982400135183,-300.0700140091539,2.2967608884936817,-0.01644856834060772,0.0006169759741975912,0.0006068332081699665,0.9998643386448228
2025/04/09 11:15:52.566102828,1744190152,565704727,piren,-479.81259627533615,-300.02048623581936,2.3181008088414212,0.002010003324200358,0.0005946328620246435,0.0005964081527602973,0.9999976252950361
2025/04/09 11:15:52.616251489,1744190152,615931426,piren,-479.8050801235622,-300.01623007422285,2.3209555987662864,0.006894769231420969,0.0005180701268179752,0.0005929357237846287,0.9999759208040044
2025/04/09 11:15:52.667439450,1744190152,666108495,piren,-479.7977012964163,-300.0215963337026,2.3194843745099667,-0.024956976668951966,0.0005065041047318343,0.0006088202279320676,0.9996882124477948
2025/04/09 11:15:52.707006244,1744190152,705974191,piren,-479.7899864953491,-299.97186392563697,2.339805949267186,-0.01064745312307014,0.00046344692130115435,0.000602412371434994,0.9999430254060868
2025/04/09 11:15:52.767436979,1744190152,767050106,piren,-479.78229982177436,-299.9610533968896,2.3450549462898946,0.010856452284806629,0.00045855023920947846,0.0005913191312036727,0.9999407870054862
2025/04/09 11:15:52.819431522,1744190152,818206630,piren,-479.77424840485094,-299.98987758210274,2.3335709857514484,0.014022646459454662,0.0004251066092202683,0.0005815560526251726,0.9999014183724322
2025/04/09 11:15:52.871487559,1744190152,870164982,piren,-479.7661625361336,-300.01628759480457,2.3228247835965496,0.007151091470594689,0.0004257971787889399,0.0005817626373488803,0.9999741707363123
2025/04/09 11:15:52.922347115,1744190152,921279125,piren,-479.7577230108566,-300.0239597482703,2.320153414489207,0.012053095362543282,0.0002739522065534167,0.0005815042278404224,0.9999271521942001
2025/04/09 11:15:52.972908185,1744190152,972518321,piren,-479.74957206141164,-300.03752100499247,2.3146783811801437,0.031032196585781116,0.00045694100484507957,0.0005802451399887005,0.9995181125400164
2025/04/09 11:15:53.12936166,1744190153,12308195,piren,-479.7421704223055,-300.0408906511753,2.3135959586674124,-0.0028657115186848884,0.0004949501521533873,0.0005953651587324432,0.9999955941213773
2025/04/09 11:15:53.63325179,1744190153,62071197,piren,-479.7317526804942,-300.0110115817732,2.3264477446090397,0.00024493532440886175,0.0004624329587940306,0.0005938549220210962,0.9999996867493396
2025/04/09 11:15:53.125186788,1744190153,124551554,piren,-479.7226957913747,-300.00817224266166,2.3278158003169693,-0.024897632860002777,0.0004965916554272377,0.0006053559683127965,0.9996896992661513
2025/04/09 11:15:53.164792280,1744190153,164404733,piren,-479.71454463347413,-299.96359424272504,2.3452919473163902,0.025045325015682476,0.0005737149816601648,0.0005836830239572315,0.9996859816262836
2025/04/09 11:15:53.216934681,1744190153,215788734,piren,-479.70458867198664,-300.01545911012187,2.32273176582605,0.0021109346540945256,0.0005936395376666025,0.0005969261206049454,0.9999974176097617
2025/04/09 11:15:53.265764847,1744190153,265444698,piren,-479.69477430890714,-300.01473022640255,2.323617934348438,-0.012785500093428489,0.0005616549188353718,0.0006047639637176491,0.9999179215273929
2025/04/09 11:15:53.305451634,1744190153,305105006,piren,-479.6848732284835,-299.98900175417396,2.334459481940959,-0.024773547072216438,0.0006128414494876747,0.0006095539816672706,0.9996927149053163
2025/04/09 11:15:53.366814168,1744190153,366428132,piren,-479.6749422569535,-299.9501797401179,2.349842512757022,0.00960941239381845,0.0006484192226239086,0.0005890886748101686,0.9999534447765508
2025/04/09 11:15:53.418555014,1744190153,418208960,piren,-479.6646387408926,-299.9805788082147,2.337517170986934,-0.01144187830036578,0.0006553298606485835,0.0006194350359049638,0.9999341329627516
2025/04/09 11:15:53.471410443,1744190153,470903658,piren,-479.65453373980455,-299.9674588896785,2.3432123810065035,0.004121403380142151,0.0006465294793565159,0.0006174082716080435,0.999991107380879
2025/04/09 11:15:53.519619705,1744190153,519248590,piren,-479.64418545409075,-299.98444455674627,2.336483911347478,0.006451557556221895,0.0006384827099989285,0.0006161779879859521,0.9999787948099774
2025/04/09 11:15:53.570219302,1744190153,569192477,piren,-479.63382242431186,-300.0007677583679,2.3299016441993405,0.005731724902944379,0.0006800228019247369,0.0006163936561298972,0.9999831523368214
2025/04/09 11:15:53.621819224,1744190153,621412085,piren,-479.6231348791052,-300.011361741589,2.3256940698235486,-0.023769911516155463,0.0005995719269337978,0.0006372556864649944,0.9997170728387151
2025/04/09 11:15:53.659555509,1744190153,659235395,piren,-479.6127127176731,-299.9690885892712,2.342537592349592,-0.013317929506117994,0.000664114748939159,0.000632590393818003,0.9999108917971962
2025/04/09 11:15:53.722780965,1744190153,721590746,piren,-479.60174072220667,-299.9567920292341,2.3479031051500288,-0.026148178431183562,0.0005873867295215052,0.0006462207634299383,0.9996576964842945
2025/04/09 11:15:53.761122971,1744190153,760717218,piren,-479.59106141230865,-299.92665308753925,2.3597463924509317,-0.02689038581719768,0.0005786679203895875,0.000649450863309073,0.9996380097353323
2025/04/09 11:15:53.823929179,1744190153,822788692,piren,-479.5799444324146,-299.9042520275056,2.368574606269062,0.0015137501367114181,0.0005461769796503412,0.0006344497428524821,0.999998503861258
2025/04/09 11:15:53.865082786,1744190153,863579566,piren,-479.5690873620249,-299.93739599537804,2.355826792185736,-0.004101744736175779,0.0004925998132135788,0.000637832844039348,0.9999912630642361
2025/04/09 11:15:53.923838471,1744190153,923491910,piren,-479.5578761262876,-299.9522014232261,2.3504899228105094,-0.010160905471537671,0.0004763299306591965,0.0006480369782560566,0.9999480532297018
2025/04/09 11:15:53.977246050,1744190153,974741238,piren,-479.5467478564047,-299.95306489175283,2.350650883620064,0.002375772586754764,0.0004042737257596648,0.000661473728128681,0.9999968773550635
2025/04/09 11:15:54.18325297,1744190154,17936036,piren,-479.5362106358863,-299.9751892228793,2.342014244761388,0.003316966340935448,0.0005499660355482071,0.000660286182162595,0.9999941296296747
2025/04/09 11:15:54.58261830,1744190154,57888003,piren,-479.5242572644449,-299.9926450964347,2.335203616774607,0.02922522983558031,-4.723963134868878e-05,0.0006613744333412143,0.9995726318248883
2025/04/09 11:15:54.121112559,1744190154,120731670,piren,-479.51306240495586,-300.04800742868656,2.310768163667646,-0.007079131845079674,0.00011227815164942229,0.0007230471843453178,0.9999746749236732
2025/04/09 11:15:54.170753879,1744190154,170409757,piren,-479.5015934060001,-300.026871041938,2.320307141246789,0.023385218639055193,0.00016770330573417306,0.0007725952190507729,0.9997262157818172
2025/04/09 11:15:54.223111889,1744190154,221902163,piren,-479.4895253498646,-300.0621187906064,2.3050864120565007,0.004363551887753496,0.0001753209037475789,0.0007757156479630252,0.9999901634229894
2025/04/09 11:15:54.260751211,1744190154,259386629,piren,-479.4787791582445,-300.0707557439561,2.301549706228153,-0.026679021308812327,0.0001410536932908962,0.0007785667246451701,0.9996437384187002
2025/04/09 11:15:54.326098634,1744190154,324204989,piren,-479.46562835164826,-299.95968452635077,2.3467793749046457,0.03230997834875221,9.189503563339032e-05,0.0008146106409168337,0.9994775601602616
2025/04/09 11:15:54.373190045,1744190154,372807672,piren,-479.4536401454713,-300.0276909526238,2.317284717312756,-0.000745779233524677,0.0004459540914866277,0.0008542592087276026,0.9999992575894682
2025/04/09 11:15:54.424345915,1744190154,423230653,piren,-479.44062157193395,-300.02158194969803,2.321121213424562,0.02535743993975886,0.0005661991865503176,0.0008439396701298147,0.9996779318480608
2025/04/09 11:15:54.475594777,1744190154,474508002,piren,-479.4277192289272,-300.06009842292775,2.3046301787402066,0.0015876891676634415,0.0005437057428026741,0.000711177756222494,0.9999983389253061
2025/04/09 11:15:54.525357753,1744190154,524994659,piren,-479.4148107037129,-300.04791176650724,2.3106904823576246,-0.0002711547337733399,0.0006146294379109785,0.000712167032236922,0.9999995207618265
2025/04/09 11:15:54.565164821,1744190154,564795856,piren,-479.40366749286505,-300.0347680270077,2.3168474432324366,-0.007542481799853469,0.0005871774829292628,0.0007157230170487871,0.9999711265488946
2025/04/09 11:15:54.617409615,1744190154,616788291,piren,-479.38995005017864,-300.01360369613514,2.326044410816258,0.03143604768426797,0.000690447654982828,0.0006919965183166421,0.9995052872940928
2025/04/09 11:15:54.670097907,1744190154,669677218,piren,-479.37672766552106,-300.06295319537116,2.3037886747027634,-0.02726349306315103,0.0005876627708966141,0.0007321659034665029,0.9996278410146213
2025/04/09 11:15:54.706930952,1744190154,705983398,piren,-479.36436698476746,-300.0687646494953,2.301314700456288,-0.01608523087924201,0.0006320972486457756,0.0007256895941200104,0.9998701611585591
2025/04/09 11:15:54.768682586,1744190154,768356179,piren,-479.3504356947091,-299.9872433554057,2.336001610153313,-0.02667587928530724,0.0006423438623165041,0.0007262849714302487,0.9996436651971834
2025/04/09 11:15:54.820174094,1744190154,819804797,piren,-479.33694105601154,-299.94659470554916,2.3523293925855375,9.440021175442762e-05,0.0006043996502509158,0.0007088299218803205,0.9999995616748063
2025/04/09 11:15:54.859238306,1744190154,858235259,piren,-479.3241098469022,-299.96364416490627,2.3461630409409837,-0.014853548542925085,0.0005368397965504478,0.0007180733723182391,0.9998892780049938
2025/04/09 11:15:54.910462653,1744190154,910113868,piren,-479.3108390307015,-299.95105693697303,2.35176012081632,0.028914060316093625,0.0005855722806494851,0.0006879290573427477,0.999581492913286
2025/04/09 11:15:54.973978626,1744190154,972299312,piren,-479.297634850235,-300.0156696045924,2.3238109693252427,0.010880673382269867,0.000508989999300545,0.0006946184621571812,0.9999404329164417
2025/04/09 11:15:55.24708107,1744190155,23469883,piren,-479.284242938359,-300.0325613842442,2.3175883208540085,0.023747645924468035,0.00048327086511129635,0.0006854283699841599,0.9997176331096029
2025/04/09 11:15:55.74931980,1744190155,74509225,piren,-479.2709130260554,-300.06589254482896,2.303455961990771,-0.025768663711712887,0.00042779445172343427,0.0007144446696785949,0.9996675860160886
2025/04/09 11:15:55.104488435,1744190155,104159034,piren,-479.2603792536817,-300.07177366146743,2.301032175800357,-0.025813740281659243,0.00037239853202678127,0.0007160326654567429,0.999666444084839
2025/04/09 11:15:55.167703077,1744190155,166345927,piren,-479.2453155509161,-299.96319685836414,2.346076133991623,-0.004688722132801148,0.0004044321000700826,0.0007070931807650736,0.9999886761052205
2025/04/09 11:15:55.218198475,1744190155,216908882,piren,-479.23106115626746,-299.96904862552674,2.3449032700385075,-0.003977934023691228,0.00038450573185637286,0.0007071602007126536,0.9999917640264323
2025/04/09 11:15:55.268517880,1744190155,267227002,piren,-479.21710755111087,-299.9750011407799,2.3433969314432406,-0.0008813927326282849,0.0003329775897590641,0.000696565604020031,0.9999993135343318
2025/04/09 11:15:55.318645107,1744190155,318233501,piren,-479.2029604671416,-299.98477751377004,2.34007925141459,0.03028471468632064,0.0003743953945073573,0.0006836644983797739,0.9995410089072436
2025/04/09 11:15:55.370380235,1744190155,368563359,piren,-479.1889573860284,-300.04368054863073,2.3141949047122936,0.030919455554289123,0.00035433794313726445,0.0006774824335593938,0.9995215869256655
2025/04/09 11:15:55.419676550,1744190155,419303313,piren,-479.17451749862374,-300.08688813264115,2.2951666283124115,0.03511792468726897,0.0003383047498598144,0.0006772000651971629,0.9993828887446629
2025/04/09 11:15:55.471603790,1744190155,470483377,piren,-479.16040002677966,-300.12396282484434,2.2784250056073683,-0.02251231341846204,0.0003438641389675742,0.0006924778551170394,0.9997462667979427
2025/04/09 11:15:55.522041950,1744190155,521710992,piren,-479.1458484047456,-300.0538028696589,2.3083357555291633,-0.027071170299940814,0.0003692167924553105,0.0006926800991257181,0.9996332005349923
2025/04/09 11:15:55.573165015,1744190155,572584019,piren,-479.1316225740236,-299.9948154043085,2.3329640915319074,-0.03128854486805446,0.00039537401662535966,0.0006858758407135239,0.9995100800961229
2025/04/09 11:15:55.624503615,1744190155,623303235,piren,-479.11707904296367,-299.94529300019536,2.3531408766268918,-0.027093278945486306,0.000513100420732533,0.0006841300744371117,0.9996325439530176
2025/04/09 11:15:55.674229477,1744190155,673464255,piren,-479.1024902702187,-299.9175043715276,2.364829882464568,0.03194167041065187,0.0005965359942134465,0.0006564782322790107,0.9994893410499761
2025/04/09 11:15:55.724137500,1744190155,723704522,piren,-479.0874247258527,-299.9969006876302,2.331060285205901,0.002717230932928531,0.0005909854475835017,0.0006739284085737835,0.9999959065980011
2025/04/09 11:15:55.757488766,1744190155,757064656,piren,-479.07408207467785,-300.00600282291515,2.3288485646381676,-0.0036671525425754094,0.0006165795851960719,0.0006774433171196299,0.999992856420683
2025/04/09 11:15:55.818977879,1744190155,817722044,piren,-479.058265484307,-300.00167721444075,2.331751269481484,0.002163455071004392,0.0006463153860037981,0.0006677542524197287,0.9999972279175758
2025/04/09 11:15:55.876517950,1744190155,876102591,piren,-479.04222053037483,-300.0082788522381,2.3297615601306436,0.002437493992917863,0.0006431039148214972,0.0006690252865993278,0.9999965987169933
2025/04/09 11:15:55.924883092,1744190155,924064330,piren,-479.02721729302243,-300.0134405473727,2.3281188714819168,0.02310668631050375,0.000684671124996297,0.000656313009836805,0.9997325549998018
2025/04/09 11:15:55.975940960,1744190155,975218819,piren,-479.0122084199858,-300.05134767458753,2.311560437808475,-0.004701354148427221,0.0006407338113287184,0.0006748239410561364,0.9999885156050557
2025/04/09 11:15:56.16041336,1744190156,15725858,piren,-478.99820657810176,-300.0316628101112,2.320288112776819,0.0025135787010533628,0.0007738251192211449,0.0006944659549132871,0.9999963004100745
2025/04/09 11:15:56.58807157,1744190156,58132124,piren,-478.9827251731275,-300.02977783521,2.3214740729225434,0.030383616532766205,0.0007810338532769849,0.0006722325715168582,0.9995377801443424
2025/04/09 11:15:56.109220322,1744190156,108886140,piren,-478.9677438616515,-300.031812195441,2.320845396595575,-0.003389464458810812,0.000726048805006644,0.0006936721470151807,0.9999937515818624
2025/04/09 11:15:56.174812786,1744190156,171304541,piren,-478.95192694471655,-300.0103763629021,2.330126814816834,0.02221458963587393,0.0007661356112706846,0.0006725229686564356,0.9997527058009853
2025/04/09 11:15:56.213843600,1744190156,213463915,piren,-478.9375154018207,-300.04732576606125,2.313903709715238,-0.027023344982660177,0.000544405799773723,0.0007022737298424221,0.9996344078011129
2025/04/09 11:15:56.256415232,1744190156,255325270,piren,-478.9221456882697,-299.9909954190414,2.3365238611376333,0.0027285376225159347,0.0005720992088553653,0.0006854352426588175,0.9999958789732416
2025/04/09 11:15:56.309022650,1744190156,307971106,piren,-478.90593649844146,-300.0010893038974,2.3331037018975755,0.0031290609990751055,0.0004686302699435764,0.0007041982831663338,0.9999947467200577
2025/04/09 11:15:56.371662191,1744190156,370640900,piren,-478.8908770012465,-300.0094485182365,2.330229578292813,0.00047892503177552015,0.0005064984029902263,0.0007210979629308551,0.9999994970538284
2025/04/09 11:15:56.410083871,1744190156,409691338,piren,-478.87530767876405,-300.0112034779701,2.3300169492558567,0.0008308607929325434,0.00045389204541796297,0.0007208755250313824,0.999999291995165
2025/04/09 11:15:56.471916446,1744190156,471320779,piren,-478.85998426772295,-300.01318631393707,2.329590485508335,-0.008772338138633986,0.0004095936994050567,0.0007179624440673972,0.9999611806697858
2025/04/09 11:15:56.522672667,1744190156,522082484,piren,-478.84427902395396,-299.998549362758,2.335884891248802,-0.02686082898368127,0.00038899450787187523,0.0007269291168388911,0.9996388428445754
2025/04/09 11:15:56.573621422,1744190156,572654964,piren,-478.82895767511724,-299.95743650929813,2.351949366183788,-0.0012096578479365231,0.0004203543836375806,0.0007321360510783485,0.9999989120028511
2025/04/09 11:15:56.624266048,1744190156,623419118,piren,-478.81305237083023,-299.97178573930137,2.346561207783508,-0.02001498189178151,0.0003853040925411444,0.0007398465012915658,0.9997993322001083
2025/04/09 11:15:56.661789246,1744190156,660569380,piren,-478.79742186988267,-299.9507206403521,2.3550326706619935,-0.01486809126918677,0.0003908628581460605,0.0007377403603359385,0.9998891152659869
2025/04/09 11:15:56.725377742,1744190156,724111373,piren,-478.78133702527526,-299.944657747096,2.357665441828391,-0.008437017227802804,0.0004033679004096375,0.000804440390329497,0.9999640028072476
2025/04/09 11:15:56.776279840,1744190156,775078213,piren,-478.7653559504821,-299.9516783437215,2.355063900245464,-0.028861867450865365,0.00040757071105114077,0.0008576407380738496,0.9995829585110626
2025/04/09 11:15:56.826012691,1744190156,824907558,piren,-478.7489134713508,-299.92213205564076,2.3661339929319865,-0.02845952659930091,0.0004227424064473914,0.0008554554683270591,0.9995944901961711
2025/04/09 11:15:56.862322399,1744190156,861952131,piren,-478.73371571513377,-299.91518987864623,2.3689855555667663,-0.024889730846434418,0.0004198679417900274,0.0008513581293086425,0.9996897519724003
2025/04/09 11:15:56.926729593,1744190156,926336609,piren,-478.716324642999,-299.89862623648486,2.3750005645587566,0.001918010412305133,0.00048712629440038455,0.0008553953422977867,0.9999976761187198
2025/04/09 11:15:56.954896372,1744190156,954517326,piren,-478.70188743407937,-299.9387919703623,2.3590813787755476,0.025366053973344255,0.0004960698432186731,0.0008463419978185048,0.9996777485398757
2025/04/09 11:15:57.6804243,1744190157,6488965,piren,-478.685117817841,-299.9358033530919,2.3602978968724986,0.031086242746987406,0.00024618057073519454,0.0008751075816817147,0.9995162925604177
2025/04/09 11:15:57.72760922,1744190157,72429919,piren,-478.66786808917686,-300.0690561607028,2.3022824568517657,0.019790105640913807,0.00041742283796290076,0.000942044008641115,0.9998036257335646
2025/04/09 11:15:57.109333215,1744190157,108091830,piren,-478.65142300207987,-300.0807401998191,2.2971216806333645,0.010685981917886627,0.0003776855163313938,0.0009471827113685352,0.9999423833346663
2025/04/09 11:15:57.172063153,1744190157,171623687,piren,-478.6339047560025,-300.0759804240807,2.3009989966032203,0.03125864100926641,0.0004667042051656548,0.0008641771877429707,0.9995108467381567
2025/04/09 11:15:57.224729560,1744190157,223726993,piren,-478.61660275816587,-300.1108697014034,2.285154117511493,0.02710299960779662,0.0005320621065090452,0.0008659155509680319,0.9996321295918981
2025/04/09 11:15:57.276130949,1744190157,275467475,piren,-478.5995276054743,-300.1280873830229,2.277526312421416,-0.030705517633809697,0.0004084962816578419,0.0009261799861432045,0.9995279618441202
2025/04/09 11:15:57.328485221,1744190157,327345064,piren,-478.58284216385846,-300.0423370659965,2.312706513163567,-0.015569995062787547,0.0005379851718780537,0.000921552092365137,0.9998782108674239
2025/04/09 11:15:57.377768285,1744190157,376923761,piren,-478.56621904359713,-300.00606795956537,2.328787036778197,0.0023914896043586023,0.000604834960477367,0.0009115711559559158,0.9999965419891064
2025/04/09 11:15:57.420111036,1744190157,419683357,piren,-478.55114459658967,-300.01075148068537,2.327983479557988,-0.027363597505480192,0.0005615701840574545,0.0010252783177706196,0.9996248631235908
2025/04/09 11:15:57.468291375,1744190157,467075756,piren,-478.53351713648186,-299.9636116194907,2.347090979334861,0.001173181224625404,0.0005981449480788302,0.00111709619859004,0.9999985089811476
2025/04/09 11:15:57.518378792,1744190157,517078440,piren,-478.5156111131689,-299.97858284545885,2.341898208073484,-0.02855689306726629,0.0005261854260508618,0.0011361461174066833,0.999591384596347
2025/04/09 11:15:57.568606343,1744190157,568250196,piren,-478.4983598774919,-299.9395011774096,2.357461530352558,0.000819930144219118,0.0005617206732250507,0.0010247084548905463,0.9999989810779941
2025/04/09 11:15:57.619563344,1744190157,618523537,piren,-478.480868757828,-299.96184606721573,2.3492038507977275,0.0017042144958073458,0.00048430271960098995,0.0010241288932736508,0.9999979061297269
2025/04/09 11:15:57.669897550,1744190157,669525952,piren,-478.4638744416956,-299.9800642046538,2.342410837172269,-0.00041809006958088264,0.00044010286294084015,0.0010621138624120209,0.9999992517118736
2025/04/09 11:15:57.719960592,1744190157,719568708,piren,-478.4465553253695,-299.98988375409266,2.3389493602541065,-0.016245731608915955,0.0004179970553009535,0.0010708118790178744,0.9998673686268957
2025/04/09 11:15:57.770096275,1744190157,769818812,piren,-478.4296612714246,-299.970435671493,2.3470541743304967,0.01431263411645257,0.0004402032099170556,0.0010987840797956577,0.9998968683815989
2025/04/09 11:15:57.822851832,1744190157,821548586,piren,-478.41211239817204,-300.0079969068649,2.331460811335963,0.03234471441591603,0.0003821998708807064,0.0010903985814129948,0.9994761049687708
2025/04/09 11:15:57.872737555,1744190157,871614640,piren,-478.39510289120983,-300.0646694411386,2.3061820312009056,0.014601979829138979,0.00037928635213838936,0.0011373598747640616,0.9998926666094956
2025/04/09 11:15:57.923527580,1744190157,922015909,piren,-478.377640023168,-300.0758624537859,2.3020366789729687,0.015065777670496518,0.0003612597674433105,0.0011369769933644318,0.9998857930373249
2025/04/09 11:15:57.960902634,1744190157,960374508,piren,-478.3604220655356,-300.08392057055204,2.2990262756708044,-0.011142482761704212,0.0003111832502718501,0.0011458487672859484,0.99993721566581
2025/04/09 11:15:58.10277498,1744190158,9929072,piren,-478.3430212457677,-300.09221835694046,2.2956474121190995,0.02983018079948749,0.0004139696335526842,0.0012911101344547146,0.9995540615580695
2025/04/09 11:15:58.75051902,1744190158,74747646,piren,-478.3248700892412,-300.1337398522989,2.2763271642395857,-0.03022135213909365,0.0003130580804872535,0.001427664267754484,0.9995421620143203
2025/04/09 11:15:58.125096444,1744190158,124381855,piren,-478.307200906648,-300.04674027365695,2.3120896236637636,-0.028347192940914524,0.0003782832033431137,0.0014265154637989252,0.9995970481188008
2025/04/09 11:15:58.177809014,1744190158,175181301,piren,-478.289625633968,-299.9870083395945,2.3368119183497096,0.0030342486427662784,0.00045833703475243407,0.0012795605002132423,0.9999944729783574
2025/04/09 11:15:58.226402525,1744190158,225865662,piren,-478.2713658509479,-299.99740310463835,2.3337877840026997,0.029632929455849923,0.0005284200231225304,0.0012692493250034118,0.9995599027923714
2025/04/09 11:15:58.281587533,1744190158,280161064,piren,-478.25343576997443,-300.0492544335665,2.3112882771170398,0.019189477422054412,0.00047678678017766356,0.0013297556522449158,0.999814867053166
2025/04/09 11:15:58.314543709,1744190158,314082519,piren,-478.2358042115077,-300.05125242252734,2.31034319362033,-0.000960905471623486,0.0005386803167950533,0.0013390650053415236,0.9999984966934212
2025/04/09 11:15:58.378743144,1744190158,378367633,piren,-478.2173132764092,-300.02564591695966,2.3230041364655194,0.0042722911004693725,0.0005465597669899943,0.0013860770386945485,0.999989763743418
2025/04/09 11:15:58.408499512,1744190158,408165064,piren,-478.2012848614095,-300.0272737433988,2.322745809931249,0.005462607328126276,0.0006664009461646486,0.0013852869662064288,0.9999838982758568
2025/04/09 11:15:58.455649815,1744190158,455119799,piren,-478.18205024537104,-300.0302515167331,2.321735405604849,-0.025708123815114718,0.0007074952639394888,0.0014053329766233668,0.9996682534018889
2025/04/09 11:15:58.516483508,1744190158,516121233,piren,-478.16237437163073,-299.97960797940357,2.341811141549523,-0.028474122510423066,0.000737311672646615,0.0015173351006055567,0.9995931064252851
2025/04/09 11:15:58.571397342,1744190158,571018639,piren,-478.143628334191,-299.9388180513225,2.3577524226662456,-0.015364501968558078,0.0007251352720506092,0.0015786043460341078,0.9998804499871043
2025/04/09 11:15:58.622701423,1744190158,621705865,piren,-478.12474398755006,-299.93247807139625,2.3607277282645454,-0.02931653276622998,0.0006774312814301421,0.001588199138068562,0.9995686867929203
2025/04/09 11:15:58.673250584,1744190158,671986055,piren,-478.1063924801414,-299.904992806545,2.3712420677318637,0.00803341006203265,0.0007069873154371957,0.0014397083051997156,0.9999664453028948
2025/04/09 11:15:58.722876656,1744190158,722509532,piren,-478.0877569936735,-299.9491920834897,2.353633063126556,-0.027203419119613496,0.0006027167639113504,0.0014643694897023918,0.999628664226223
2025/04/09 11:15:58.773175177,1744190158,772846889,piren,-478.06968426481063,-299.92209947344253,2.364313542528477,0.003098283691645603,0.0006497079670242493,0.0014639353811863407,0.9999939176869644
2025/04/09 11:15:58.826219687,1744190158,823433742,piren,-478.05094168260206,-299.9544634081705,2.3517825326632043,-0.0016807824750306327,0.0004019193912909002,0.0014668198498911105,0.9999974309320012
2025/04/09 11:15:58.862022086,1744190158,860749703,piren,-478.03319577019647,-299.97027228552577,2.3459479268504135,-0.03017911381468157,5.759165975868099e-05,0.0014719237313879415,0.9995434213745245
2025/04/09 11:15:58.918757900,1744190158,914590614,piren,-478.01514138419446,-299.9334172265775,2.360186501019173,-0.02675804535727569,5.135325750679198e-05,0.0015420191226250758,0.9996407487435306
2025/04/09 11:15:58.959615234,1744190158,958163442,piren,-477.9991649730804,-299.91367525412437,2.3680124038774877,-0.0032700895923400176,8.549273963110192e-05,0.001540616508292836,0.9999934628315447
2025/04/09 11:15:59.16114140,1744190159,15753400,piren,-477.97958101012586,-299.9390494356315,2.3584922816157396,0.01747634999519892,8.770530351621299e-05,0.0014859356089493945,0.9998461689149942
2025/04/09 11:15:59.75356388,1744190159,74978919,piren,-477.96149611384135,-299.99264928404176,2.336293465777376,0.018831757587213352,0.00027491916290637837,0.001471664137808044,0.9998215458422047
2025/04/09 11:15:59.123085114,1744190159,122782689,piren,-477.9423912630468,-300.0332265406002,2.319383640002512,0.02998655011979024,0.00030422781528151283,0.0014674945080977782,0.9995491787387045
2025/04/09 11:15:59.161214742,1744190159,159987600,piren,-477.9236230196425,-300.0801041206021,2.2987379931932193,0.03019486238911796,0.0002975818980158202,0.001467674739140422,0.9995429093646637
2025/04/09 11:15:59.225767763,1744190159,225385184,piren,-477.90430979722834,-300.1135906580903,2.2839576654226654,-0.016903438446559775,0.00025478848335348624,0.0014111083067352025,0.9998560984586026
2025/04/09 11:15:59.276651859,1744190159,275420303,piren,-477.88599869629627,-300.0575831231774,2.3080683060411116,-0.023627457932022148,0.0002672206967722513,0.0013787334626721177,0.9997198462163331
2025/04/09 11:15:59.328428965,1744190159,328113839,piren,-477.8670958267228,-300.00540441654886,2.3298257655095576,0.0006811871976386117,0.0003072733908556698,0.001371866050006158,0.9999987797745585
2025/04/09 11:15:59.378980085,1744190159,378625306,piren,-477.8485224221616,-300.00876780277184,2.32943253172871,-0.00425892663759157,0.00048581247995945143,0.0014106485585439479,0.999989817748548
2025/04/09 11:15:59.427819724,1744190159,427477733,piren,-477.82925374519397,-300.0028088571094,2.332587645610448,-0.03103957759294223,0.0006224172468051413,0.0014263678374267057,0.9995169446759845
2025/04/09 11:15:59.459846709,1744190159,458843925,piren,-477.8124955825724,-299.9529717311444,2.3519876217020093,0.0010092650168181943,0.0006921308165871974,0.0014057141827508884,0.9999982631518393
2025/04/09 11:15:59.509204724,1744190159,507840328,piren,-477.7923424297354,-299.97179688878606,2.344949776319808,0.029899891549799343,0.0006942887406690311,0.0012829979504988152,0.9995518337558658
2025/04/09 11:15:59.556365581,1744190159,555016143,piren,-477.77271190110457,-300.0333988158974,2.317988016310943,0.023549637625131906,0.0006946355319692178,0.0012882047290120574,0.9997215975349232
2025/04/09 11:15:59.619189223,1744190159,618876626,piren,-477.7529427970895,-300.06702120267676,2.3037130478173107,0.005293871245983522,0.0006620585714723518,0.0012744688974438791,0.999984956054194
2025/04/09 11:15:59.671074335,1744190159,670164386,piren,-477.7339443888705,-300.0602843353253,2.307412096438278,0.02382727556146626,0.0007161781385756344,0.0011991452669560343,0.9997151144595248
2025/04/09 11:15:59.722364548,1744190159,721085176,piren,-477.7146830316437,-300.0857249891224,2.2963223378953854,0.009238770663066833,0.0006663350197088903,0.0012097391830718667,0.9999563678708115
2025/04/09 11:15:59.758194626,1744190159,757777980,piren,-477.69590865945304,-300.07917773175865,2.2996880546459217,0.0015625514107689789,0.0006737037197482493,0.00121476313999192,0.999997814451062
2025/04/09 11:15:59.809203746,1744190159,808877878,piren,-477.67619080796754,-300.085730186849,2.2969846836569086,-0.030448027225489123,0.0007578975702004365,0.0012621496655220072,0.9995352671154585
2025/04/09 11:15:59.861001962,1744190159,858815997,piren,-477.6576370692167,-299.95507590756534,2.3495497119914286,-0.03024464066949186,0.0007143501196648477,0.0012622564100610572,0.9995414739386431
2025/04/09 11:15:59.928029140,1744190159,927654332,piren,-477.63766871689126,-299.918158362113,2.364415783629931,0.008250439620481444,0.0007678233604289903,0.0011877919984675128,0.9999649643080123
2025/04/09 11:15:59.965339783,1744190159,964455299,piren,-477.6194342045052,-299.95829740770085,2.348919680628688,-0.00912792181333819,0.000630349152323397,0.0012005462517977322,0.9999574202894906
2025/04/09 11:16:00.12821625,1744190160,12334706,piren,-477.60321360855204,-299.9590395423926,2.3495357730497646,0.002431737803794438,0.0006477706010312929,0.0011700562302138688,0.999996148999045
2025/04/09 11:16:00.70808192,1744190160,70402730,piren,-477.5839286756119,-299.97876376415354,2.342105288038899,0.02842796936460464,0.0007033218474086451,0.0010388388282388363,0.9995950563653629
2025/04/09 11:16:00.121155458,1744190160,120828665,piren,-477.56431509560764,-300.0361292895378,2.3171152965955835,-0.03050679403968127,0.0006708184913924758,0.0010819530352019905,0.9995337487536885
2025/04/09 11:16:00.174414646,1744190160,172419304,piren,-477.5454865651215,-299.978234252136,2.340396227620067,-0.0015643356894502018,0.0004817902058237232,0.0011921889126930182,0.9999979497067206
2025/04/09 11:16:00.224926878,1744190160,224613611,piren,-477.52610344414745,-299.9858431786882,2.3383694868622773,-0.026105538140935417,0.0005126551623037267,0.0012066238250596115,0.9996583326927264
2025/04/09 11:16:00.274208655,1744190160,273797484,piren,-477.507718355608,-299.94989189986944,2.352902575968581,0.012792721726251817,0.0005948994937423538,0.0011581923256725984,0.999917322060161
2025/04/09 11:16:00.326473418,1744190160,324281182,piren,-477.4887463697381,-299.98988476464905,2.336799555946209,-0.0023202119165965296,0.0005057814348301693,0.0011669107628946478,0.9999964995544104
2025/04/09 11:16:00.375458957,1744190160,375089876,piren,-477.47038459011765,-299.99346896232305,2.336035733747488,0.0011513501522177395,0.000527279965559291,0.0011448537973888498,0.9999985428381621
2025/04/09 11:16:00.410877278,1744190160,410519750,piren,-477.45129841333727,-299.99377282841846,2.3360418268791743,-0.027910275717726807,0.000468166007902186,0.0011581407660575692,0.9996096518341124
2025/04/09 11:16:00.476009575,1744190160,475668829,piren,-477.433264410299,-299.92322285597237,2.3635940947953196,0.003036476231062868,0.0005688621068773496,0.0011281047757335644,0.9999945917791839
2025/04/09 11:16:00.526467011,1744190160,526154915,piren,-477.41415310345974,-299.95486562200097,2.351245471891703,0.02357939127779611,0.0006437651289737528,0.0011165511326446656,0.9997211367111308
2025/04/09 11:16:00.563111326,1744190160,562720569,piren,-477.39556530059434,-300.0119526972166,2.3268588499668126,-0.002763717154525876,0.0006179650929479772,0.0011329196156326968,0.9999953482290697
2025/04/09 11:16:00.627195479,1744190160,626833792,piren,-477.37668358430614,-300.00882810720543,2.3288240460310403,-0.0007379753321904198,0.000630536365067003,0.0010803811665051483,0.9999989452958621
2025/04/09 11:16:00.681275436,1744190160,680949969,piren,-477.3581879209614,-300.00949875685825,2.3289552998847185,0.030570060971331404,0.000699800750395642,0.001038687745990333,0.9995318418033942
2025/04/09 11:16:00.714295407,1744190160,713839010,piren,-477.3392093560733,-300.01239754289514,2.3278257415583288,-0.0024315865594330623,0.0006831794909880493,0.0010610639452592414,0.9999962473909045
2025/04/09 11:16:00.765213474,1744190160,764862226,piren,-477.32085705422156,-300.0044342870683,2.3313583396310484,-0.031645811448255096,0.0004744784339326375,0.0010726660348559867,0.9994984576654309
2025/04/09 11:16:00.827992072,1744190160,826286328,piren,-477.3046761698636,-299.95279049272165,2.3509815743074873,-0.0012435774474496915,0.0005248672447246738,0.0011106231080387386,0.9999984722717429
2025/04/09 11:16:00.859660224,1744190160,858357722,piren,-477.2855656095825,-299.96745518956953,2.3453352229111966,0.010923121777502895,0.0005474217238636171,0.0011046633579249836,0.9999395809042444
2025/04/09 11:16:00.923455202,1744190160,922266482,piren,-477.2663128054502,-299.9983353860927,2.3324805346889326,-0.0011323184784300454,0.000674969451367587,0.001124318743519557,0.9999984990881067
2025/04/09 11:16:00.961675192,1744190160,961371011,piren,-477.24712626068066,-300.0002215281431,2.331921056283572,-0.0028911024689118304,0.0006665425040500329,0.0011254290292623554,0.9999949653158783
2025/04/09 11:16:01.11710940,1744190161,11303749,piren,-477.22810609953314,-299.99840412789666,2.332791735364905,-0.02736805256479072,0.0004931947832620188,0.001144303854689892,0.9996246480686662
