time,header_stamp_secs,header_stamp_nsecs,header_frame_id,twist_linear_x,twist_linear_y,twist_linear_z,twist_angular_x,twist_angular_y,twist_angular_z
2025/04/09 11:15:46.122339249,1744190146,119049685,piren,-0.001241390739232876,0.10969496737984624,0.04003184302756075,-5.2414007577602794e-05,-0.0007088062011770555,-0.0023164727026125475
2025/04/09 11:15:46.174251186,1744190146,172065622,piren,-0.0014697833436912255,0.07319556942916275,0.028372341653304288,-0.0018098893940429674,-0.0004954119260676275,0.0
2025/04/09 11:15:46.222348239,1744190146,220291416,piren,-0.0021364219557653916,-0.05040098600375134,-0.023607792155107526,-0.0004126648592843494,-0.0002703977604864297,-0.002285817661755837
2025/04/09 11:15:46.254064747,1744190146,251964092,piren,-0.0021703910301312055,-0.028407099393643904,-0.011979398223809308,0.0009689557290925434,-4.266657130953983e-05,0.0
2025/04/09 11:15:46.313174533,1744190146,311161415,piren,-0.0020092257994747263,-0.032442248380584744,-0.012206871465983224,0.000915352981820522,0.0002059971221331054,-0.002439319946053426
2025/04/09 11:15:46.354497686,1744190146,352160052,piren,-0.0020092257994747263,-0.032442248380584744,-0.012206871465983224,-0.0005765215262790751,0.0004324658691743758,0.0
2025/04/09 11:15:46.413460765,1744190146,411596357,piren,-0.001295945001356805,-0.005513032492808665,0.00017377275555432656,-0.0005829915303719278,0.000620110411703638,-0.00232487077837784
2025/04/09 11:15:46.455955649,1744190146,453822539,piren,-0.00048203899459621545,0.12250696868381959,0.04878416551055054,-0.000853820718706108,0.0007720718060808606,0.0
2025/04/09 11:15:46.514179363,1744190146,512692712,piren,-0.0003905737779405093,0.08099913656064922,0.033152353063550424,-0.0011002203784732125,0.0005247438074094593,-0.00243008263648411
2025/04/09 11:15:46.564559273,1744190146,562945623,piren,0.002483106512454477,-0.06442632602079362,-0.03039225466173788,-0.0010971404772879252,-4.7600035436061114e-05,0.0
2025/04/09 11:15:46.616615085,1744190146,614878787,piren,0.004347818068526984,-0.1553901727364519,-0.07019478251849981,0.0006718530984033001,7.081064318629915e-05,0.0005920791098131366
2025/04/09 11:15:46.666350599,1744190146,663788039,piren,0.002914191930267415,0.008345630128815118,-0.0024323971522296206,0.0007572300281774861,0.0001775859756557411,0.0
2025/04/09 11:15:46.717459774,1744190146,715732364,piren,0.0019965593166489356,0.11306428640218649,0.04103425682319539,-0.0008258817229080694,0.00030038964094608334,0.0028505185163903908
2025/04/09 11:15:46.767190157,1744190146,764925625,piren,0.0011507866609918069,0.07599069949274048,0.02893724232422521,-0.0023946834126877697,0.0004064404167516081,0.0
2025/04/09 11:15:46.817315857,1744190146,815847254,piren,-0.00016647158690829243,-0.04797725766156877,-0.0233712255514483,-0.0007825551883861902,0.0005119587033639052,0.0025024878521570913
2025/04/09 11:15:46.859210980,1744190146,857374293,piren,-0.0004134145891839493,-0.025600434690568403,-0.011684544206200439,0.0008248408891241573,0.0005292003527748675,0.0
2025/04/09 11:15:46.913807745,1744190146,909316362,piren,-0.0004134145891839493,-0.025600434690568403,-0.011684544206200439,0.0009250399822370455,0.0016159233336538023,0.003038797874333474
2025/04/09 11:15:46.971901744,1744190146,968597442,piren,-0.017774518354144665,-0.03303209099749442,-0.01282113373685547,-0.0003575313303991867,0.002793084043082832,0.0
2025/04/09 11:15:47.22568724,1744190147,20145902,piren,-0.01407812315146656,-0.01414591100656257,-0.004692660913669397,-0.00012913814081733785,0.003051431453324516,-0.0053704623083397655
2025/04/09 11:15:47.71569096,1744190147,69494899,piren,-0.010167790095874797,0.11978150292725326,0.04631863991747735,-0.00020905028332800365,0.0026107645592565935,0.0
2025/04/09 11:15:47.123996168,1744190147,121073460,piren,-0.004074459398589161,0.0820868702940515,0.03224732790607199,-0.00029489422762183395,0.0019255162673837722,-0.013106740776325614
2025/04/09 11:15:47.172835082,1744190147,170395311,piren,-0.0011722065047706479,-0.06074048015375415,-0.03019583611307332,-0.00014060924721528485,0.0011532788612412062,0.0
2025/04/09 11:15:47.204475436,1744190147,202961419,piren,0.0010570359515441026,-0.15067811932772204,-0.06952276434128171,0.0017326797601429442,0.00032764244801189874,-0.0129119814191974
2025/04/09 11:15:47.255560966,1744190147,253012521,piren,0.0010570359515441026,-0.15067811932772204,-0.06952276434128171,0.0018512289833352688,-0.0004878667148365742,0.0
2025/04/09 11:15:47.315185205,1744190147,313288848,piren,0.0043570415856720585,0.11792365560941101,0.042149869469686164,0.0002106860316748743,-0.0012103786778228766,-0.011480775597940023
2025/04/09 11:15:47.371442444,1744190147,366460172,piren,0.0038343445648934076,0.08074530996063908,0.030328933641980187,-0.0014003266121795574,-0.001843331480347353,0.0
2025/04/09 11:15:47.417565726,1744190147,415013899,piren,0.0028678854033387406,-0.044252600481195295,-0.02198880831052355,0.00011973031098101387,-0.0024275826475524307,-0.011164828082318853
2025/04/09 11:15:47.457703191,1744190147,455332164,piren,0.0024193178796395013,-0.023591220693379038,-0.010548137408303744,0.0015883481778814,-0.0029250796333669124,0.0
2025/04/09 11:15:47.518362711,1744190147,515788330,piren,0.002278554865733903,-0.029207920471208165,-0.010975862329032877,0.0014792799925140753,-0.005287000039488572,-0.011015995555617568
2025/04/09 11:15:47.567674548,1744190147,565534165,piren,0.014503505831453375,-0.03525032278221264,-0.012204546638090702,2.2375894515176427e-05,-0.006045558929999468,0.0
2025/04/09 11:15:47.609588558,1744190147,607658334,piren,0.012011020043019023,-0.017888344042512508,-0.003952385070535398,2.019947229186435e-05,-0.005976531113924722,0.0022137099466897608
2025/04/09 11:15:47.684922790,1744190147,682212578,piren,0.009796586518359626,0.11439229464363047,0.047086799953163457,-0.00027370377433455414,-0.005516156088498512,0.002175743251432501
2025/04/09 11:15:47.719181482,1744190147,717453201,piren,0.0065005178024876015,0.07502293293509861,0.032952216177100986,-0.0005975541409812299,-0.0047497101091350065,0.0
2025/04/09 11:15:47.769334686,1744190147,767132365,piren,0.0030119133361495272,-0.06932930436883002,-0.02968963958196936,-0.0006631734956873867,-0.0036725694464400283,0.0
2025/04/09 11:15:47.819699639,1744190147,818093524,piren,0.0005459594147396362,-0.1597062374932648,-0.06896177056150987,0.0010605382190781044,-0.0023956025603070873,0.017847763121003543
2025/04/09 11:15:47.869877813,1744190147,868146129,piren,0.0005893582062526636,0.004203915363996169,-0.0009864168898470471,0.0009842804558030677,-0.0009828886437159192,0.0
2025/04/09 11:15:47.922627618,1744190147,920094811,piren,0.000865190343938602,0.11012580502119813,0.04284518412628559,-0.000734659576007826,0.0005359693435324026,0.02461374246027474
2025/04/09 11:15:47.973826634,1744190147,969938780,piren,0.001787653812743892,0.07394433522645155,0.03082514886135323,-0.0024371093431324493,0.00199778279548271,0.0
2025/04/09 11:15:48.14125459,1744190148,12326914,piren,6.802548455198988e-05,-0.04925036552235726,-0.02164023347564912,-0.0009722133300763546,0.0032454179693292445,0.029735898274701605
2025/04/09 11:15:48.73965912,1744190148,71963960,piren,0.0009646462549426446,-0.025533172224095343,-0.010024409272217464,0.0004965846002788269,0.004280652815760675,0.007986707504592232
2025/04/09 11:15:48.114198791,1744190148,112606634,piren,0.0023418520403538506,-0.02789398650411387,-0.010387474695732715,0.0005194223767568276,0.005797186899929484,0.0
2025/04/09 11:15:48.157075994,1744190148,152534183,piren,-0.0008829341076761837,-0.029151310523639055,-0.011073920767866577,-0.0008375872203253168,0.006946941101666128,0.0
2025/04/09 11:15:48.214825608,1744190148,213340119,piren,-0.003458291617380374,-0.008625252051388105,-0.0031397652179183475,-0.0006893935705067719,0.007617040433607371,0.032991498322903746
2025/04/09 11:15:48.266146588,1744190148,264366919,piren,-0.003038063072381183,0.12670551303685892,0.04756372612356616,-0.0007978432958368638,0.0077890767680851535,0.0066033091021380904
2025/04/09 11:15:48.316243276,1744190148,314533301,piren,-0.0009877814926312484,0.09015716052053899,0.03311268556671509,-0.0008889157131831614,0.007406467113218125,0.0
2025/04/09 11:15:48.366618075,1744190148,364800826,piren,0.0007695466607856442,-0.05135481523816457,-0.029616645462289502,-0.000841271736964312,0.006616090131415474,0.0
2025/04/09 11:15:48.417793056,1744190148,415499312,piren,0.00020250944180589517,-0.13790784231473485,-0.06813062952364388,0.0011555068664960233,0.005511145647159665,0.033852972606194506
2025/04/09 11:15:48.457098739,1744190148,455251756,piren,0.0015436159178989408,0.02760537088188353,-0.0001863993187406071,0.0019056036495230853,0.004051922307371865,0.0
2025/04/09 11:15:48.518249613,1744190148,516364490,piren,0.0017213565065958471,0.1257441677572842,0.04068864763552364,0.0006222733072609358,0.002405049769189245,0.03152650421130506
2025/04/09 11:15:48.560312693,1744190148,556875262,piren,0.002792014310352905,0.08137619329063452,0.02534962119061357,0.00011590852975649693,0.0006600819245175033,0.0
2025/04/09 11:15:48.619149712,1744190148,616880768,piren,0.002306653863570326,0.05835200223541503,0.018000632831168085,0.00028152938028041955,-0.0010738977323498371,0.02990298566542602
2025/04/09 11:15:48.668581891,1744190148,666653033,piren,0.002903177797588804,0.04099549502284387,0.012407571670719998,0.0006045895980150141,-0.0027163351401962954,0.0
2025/04/09 11:15:48.711390565,1744190148,709653621,piren,0.002016401960645461,0.024865403025660246,0.006963258011365549,0.0005157794061016934,-0.004012062408744324,0.02960478470910403
2025/04/09 11:15:48.770585261,1744190148,768275014,piren,0.0011845044519304872,0.007430614245868106,0.0007318055734885113,0.000540685040583019,-0.005023103334254402,0.0
2025/04/09 11:15:48.811699382,1744190148,810099795,piren,-0.0005956123779924302,0.003178618309902937,-0.0001316452678640196,0.0006013251134308376,-0.005692381127976979,0.02695848567839876
2025/04/09 11:15:48.871056600,1744190148,869173983,piren,-0.00097270319802191,-0.000974715000211312,-0.0010616324727781038,0.00045285290957295066,-0.00604273385978735,0.0
2025/04/09 11:15:48.922732383,1744190148,920631894,piren,-0.0025254826685340874,-0.009560295351775515,-0.003926139994997132,0.00042072699136513447,-0.006021625010358117,0.02531254054430694
2025/04/09 11:15:48.971928596,1744190148,970361036,piren,-0.0027659388508254694,-0.00902758982811067,-0.003071331788659367,0.0005092446505483631,-0.005665858364521186,0.0
2025/04/09 11:15:49.23656728,1744190149,22054273,piren,-0.003786017026595792,0.00151720269341238,0.0018097574863045448,4.186918871915203e-05,-0.004957782920876653,0.022872504217652852
2025/04/09 11:15:49.53481310,1744190149,51347451,piren,-0.003786017026595792,0.00151720269341238,0.0018097574863045448,-0.00016073438033916004,-0.004074605525939418,0.0
2025/04/09 11:15:49.115186420,1744190149,113202830,piren,-0.003789398665730906,-0.034844166884840905,-0.012805049303790712,-0.0008477948881696538,-0.0027904634959720807,0.022043939671289214
2025/04/09 11:15:49.165081572,1744190149,163189208,piren,-0.0045771631432671624,-0.1285252456638773,-0.055174034030161294,0.0003872628385622969,-0.001281444836354982,0.0
2025/04/09 11:15:49.217221505,1744190149,215254504,piren,-0.005883414922300281,0.023121521801522216,0.0062147536647305865,0.0005107648228069344,0.00018513961697367654,0.01976389165123781
2025/04/09 11:15:49.266097499,1744190149,263969384,piren,-0.005324450823172802,0.010130481194255449,0.0028343235648819343,-0.0009909312151664483,0.0015842785255703931,0.0
2025/04/09 11:15:49.316286595,1744190149,314760080,piren,-0.004990801922940583,-0.09750154704702257,-0.044497794358062115,0.00019180069994291526,0.00277370554538446,0.018840989249245
2025/04/09 11:15:49.368075489,1744190149,365719256,piren,-0.0032711811363242225,0.018771850081793634,0.004306363269429188,0.000938598446165552,0.003755249053132546,0.0
2025/04/09 11:15:49.418288228,1744190149,416684838,piren,-0.0027409042992530804,0.06886677378838608,0.02621827980858457,-0.000621639323874191,0.0045247442111418686,0.017699509606476378
2025/04/09 11:15:49.467931306,1744190149,465927005,piren,-0.0008598607996191197,0.053306183067297716,0.020983656500585486,-8.865422673075797e-05,0.004938400196098252,0.0
2025/04/09 11:15:49.509123400,1744190149,507317471,piren,-5.501102214110806e-05,0.05911587023883836,0.023835472820096033,0.0002395422931050583,0.005028000183360946,0.016210948521452443
2025/04/09 11:15:49.558709172,1744190149,556483084,piren,-5.501102214110806e-05,0.05911587023883836,0.023835472820096033,0.00012407013779827065,0.00484674689466437,0.0
2025/04/09 11:15:49.619122058,1744190149,617457464,piren,0.0022268914010055672,0.09980635178058032,0.03981777977845128,0.0009649351744308235,0.004362259974310057,0.015070044263412984
2025/04/09 11:15:49.660645297,1744190149,658794932,piren,0.003640087680287259,0.10379894750667513,0.04107518741978674,0.0004782896122011642,0.0036173503472195514,0.0
2025/04/09 11:15:49.721758884,1744190149,718952283,piren,0.0041430497836700015,0.05127654873244861,0.01945058145000226,0.0002946211282815072,0.0026832784951615757,0.013524638582256308
2025/04/09 11:15:49.770261332,1744190149,768602657,piren,0.005178480023369055,0.03622549255151167,0.013273326695180655,0.0004940126723127271,0.0016138886207333314,0.0
2025/04/09 11:15:49.811627962,1744190149,809622762,piren,0.005178480023369055,0.03622549255151167,0.013273326695180655,0.0014091347357909542,0.0004978157941152549,0.011927130036503931
2025/04/09 11:15:49.873000199,1744190149,869296518,piren,0.005736643902946533,0.017172410561170144,0.005553386291162721,-0.00019528994649136209,-0.0005992921201224941,0.0
2025/04/09 11:15:49.913385943,1744190149,910822828,piren,0.005736643902946533,0.017172410561170144,0.005553386291162721,0.00025789780573111826,-0.0016812366892789922,0.009547180311482552
2025/04/09 11:15:49.964768341,1744190149,961419305,piren,0.005821067678925836,0.025886698418207704,0.009498042101391858,0.0010609627243448377,-0.002602794608687885,0.0
2025/04/09 11:15:50.26181452,1744190150,24330473,piren,0.005199454850117043,0.11041878808468931,0.04157598164114803,0.0007364936329816596,-0.0028616751140870867,0.010123086465417121
2025/04/09 11:15:50.63017543,1744190150,61678011,piren,0.0019965488038451514,0.04614137801013381,0.01682010151934322,-0.00018092436943628352,-0.0031851665106657832,0.0
2025/04/09 11:15:50.115776726,1744190150,114211309,piren,0.0036729026056491493,-0.07424055162455263,-0.03383143654707224,0.0013817397362906056,-0.003632068607798889,0.006182178081772369
2025/04/09 11:15:50.155745898,1744190150,153553826,piren,0.004340222540031398,0.0383390468929974,0.011776202603193668,0.0015251841317515365,-0.0038842367338492493,0.0
2025/04/09 11:15:50.215933210,1744190150,213853690,piren,0.005191434879225206,0.010525693728823143,0.0032058268400682426,0.0011282926316418522,-0.0035316750537171906,0.004130015830684214
2025/04/09 11:15:50.265796839,1744190150,263505629,piren,0.00240480979850873,0.0022478713299278474,0.0018700765546064862,0.00047874308910008176,-0.0028401476046396837,0.0
2025/04/09 11:15:50.316526882,1744190150,314884595,piren,0.0018727242111253948,-0.04141170775301364,-0.01479481794324256,0.00025724319789914606,-0.002235006408535798,0.0005357301660424822
2025/04/09 11:15:50.367772262,1744190150,365244127,piren,0.0050058436428116766,-0.16775201686014043,-0.0707986306822203,0.000265541277368596,-0.001738120088730329,0.0
2025/04/09 11:15:50.419007526,1744190150,417003779,piren,0.007401959693333999,-0.2428703850151578,-0.10408470723870093,-0.00010185677343993648,-0.0011613683606261189,-0.0034487283293102677
2025/04/09 11:15:50.467993676,1744190150,466089636,piren,0.009441664418318403,-0.27758980495132163,-0.11925521029031995,-0.0005486323411703182,-0.0004487259580730479,0.0
2025/04/09 11:15:50.519674737,1744190150,517513589,piren,0.010908901544235057,-0.2839823037145834,-0.12174759863259897,0.0009925582034791386,0.0001919103659182694,-0.0038276908908109145
2025/04/09 11:15:50.562426317,1744190150,558822453,piren,0.012454969091868412,-0.18000706025022736,-0.07419536162004295,0.0027101469821783552,0.0008025558243993181,0.0
2025/04/09 11:15:50.621648393,1744190150,619048532,piren,0.014301195644020487,-0.00929166018513572,-0.0024035220439102695,0.001286064629643673,0.0014401948902574315,-0.003768169913837479
2025/04/09 11:15:50.660211230,1744190150,658447071,piren,0.016370953827618002,-0.0039536476866487875,0.002254662617268751,2.5724340222955704e-05,0.001931891183921833,0.0
2025/04/09 11:15:50.722065561,1744190150,719985618,piren,0.01834499137557942,0.014213071603990077,0.011386043143194188,0.0005869526287554726,0.00212506060399874,-0.004006009592216585
2025/04/09 11:15:50.772589147,1744190150,770426985,piren,0.021529109721768698,0.016461188445646233,0.013084386195616589,0.0011034395194347416,0.0022420300307437594,-0.0006164758100810626
2025/04/09 11:15:50.822604100,1744190150,820814698,piren,0.023575365366104967,0.10171045477291042,0.04744846354675903,3.219316165848261e-05,0.002242814952496078,0.0
2025/04/09 11:15:50.862922161,1744190150,860856422,piren,0.026063084379484285,0.01684724835590712,0.011319287770939143,0.0020935072603413545,0.0022788407775093714,0.0
2025/04/09 11:15:50.923818336,1744190150,922293982,piren,0.02713648202966397,0.04018408591346086,0.02173251027088593,0.0005844664970223837,0.002284224108116976,-0.003332173599455121
2025/04/09 11:15:50.974362403,1744190150,972496592,piren,0.02839491295617336,0.13913539531076818,0.06033650295188909,2.54458084757927e-05,0.001532883666685822,0.0
2025/04/09 11:15:51.10408451,1744190151,8537849,piren,0.03483818246418196,0.08226679331437478,0.03790727246437416,0.0005738305197040343,0.0005553929530923889,-0.007671613200712913
2025/04/09 11:15:51.66520463,1744190151,64576930,piren,0.03938848095654066,0.15499225813855444,0.06627352971723506,-0.0008022866821858673,-0.00037839992446152536,0.0
2025/04/09 11:15:51.119130924,1744190151,116088685,piren,0.04300377463682708,0.17093421612298695,0.07303528169476403,0.0008603864913869768,-0.001172702513450619,-0.007575282996058716
2025/04/09 11:15:51.160622456,1744190151,158295725,piren,0.044956781708970085,0.19241021418283705,0.08125810647686046,-3.0057358521133643e-05,-0.001992778506996744,0.0
2025/04/09 11:15:51.210520078,1744190151,208237870,piren,0.044956781708970085,0.19241021418283705,0.08125810647686046,-0.000726441840501082,-0.0026618307781709877,-0.006952015921314413
2025/04/09 11:15:51.273351486,1744190151,270900438,piren,0.04928849294315114,-0.15466370117524092,-0.06748224178456146,0.0008771756335128491,-0.0031897441156210557,-0.0011958844068489167
2025/04/09 11:15:51.323113189,1744190151,320874297,piren,0.05099309677070778,-0.029974291936332526,-0.012896423045066267,-0.0016482959671510595,-0.0034874302770199466,0.0
2025/04/09 11:15:51.362857819,1744190151,360750640,piren,0.05265577282862068,-0.14203417400103718,-0.05961153999508253,-0.0002417465156731709,-0.003589701453220668,0.0
2025/04/09 11:15:51.413215227,1744190151,411603867,piren,0.05265577282862068,-0.14203417400103718,-0.05961153999508253,0.0003463542604238436,-0.0034920673542247747,-0.00557039166119726
2025/04/09 11:15:51.479016283,1744190151,474715483,piren,0.05619553992087276,0.09954305637775175,0.04317428878352666,-8.039676506022978e-05,-0.003164089686555343,0.0
2025/04/09 11:15:51.514619823,1744190151,513092278,piren,0.05886671360622131,0.04138098766816253,0.02300403523943225,0.0005823008908675621,-0.002614055890572964,-0.004285379182648836
2025/04/09 11:15:51.567361330,1744190151,564279011,piren,0.06089187505276641,-0.005694981625811148,0.005934863527452462,-0.0006602585246348213,-0.0018880185024741996,-0.0005627459513807236
2025/04/09 11:15:51.615811490,1744190151,614125430,piren,0.06289658352097831,-0.018740315720970124,0.0021174624633612765,-0.0007337750759164138,-0.0010673171086933437,0.0
2025/04/09 11:15:51.666620229,1744190151,664589117,piren,0.06516767983289355,-0.02437060384663712,0.0005873059578352397,0.000762323463642397,-0.00019752646642269198,0.0
2025/04/09 11:15:51.716447903,1744190151,715021141,piren,0.06772579656812923,-0.04621510628912803,-0.008422571762691065,-0.0005012379042225638,0.0008878101629081497,-0.0017382054632430182
2025/04/09 11:15:51.767781872,1744190151,765590467,piren,0.07007482213521143,-0.15958816432435013,-0.06046757528549874,-0.00045779873075663834,0.0016893923234903498,0.0
2025/04/09 11:15:51.817350999,1744190151,815553676,piren,0.07321710015171448,-0.20273974570468453,-0.08010150784263387,0.0011326031726141541,0.00231375381830342,-0.002053200445458241
2025/04/09 11:15:51.867678150,1744190151,866150084,piren,0.07635251105425596,-0.04070493553476809,-0.013062989249921123,1.4428111065547147e-05,0.0028185382399425886,0.0
2025/04/09 11:15:51.918732282,1744190151,916936441,piren,0.07966273043725779,-0.10110881788300503,-0.038543116782771836,-7.41153050610168e-05,0.0031385213724303062,-0.0016906858133206243
2025/04/09 11:15:51.969533415,1744190151,967493869,piren,0.08291851654116728,-0.03429240626201137,-0.009132282784076289,0.00031453815517162956,0.0032946559633986582,-0.0001937413304739266
2025/04/09 11:15:52.20497324,1744190152,18902271,piren,0.085845289662484,-0.025900635125208297,-0.004803686111844734,0.00029426123754228877,0.003197183130142653,0.0
2025/04/09 11:15:52.70457417,1744190152,68429575,piren,0.08948104331202558,-0.07345089033110527,-0.025795205377000474,0.0017251525641459472,0.002919529518816948,-0.00018380573323093102
2025/04/09 11:15:52.121122410,1744190152,119364463,piren,0.0927730345649252,0.050727883538547736,0.024403449366526435,0.0010974972063583527,0.0026850174902393596,0.0
2025/04/09 11:15:52.161386181,1744190152,159044827,piren,0.09581708818982407,0.1373828742473506,0.05890301793975361,-7.203214870560719e-05,0.0020383272121309447,0.0
2025/04/09 11:15:52.224217291,1744190152,221851516,piren,0.09948144041873093,0.12641624319894615,0.05558145058335242,-0.001051251126900039,0.0013645821902724489,-0.0022218295914566985
2025/04/09 11:15:52.276837438,1744190152,274196753,piren,0.10274095116483295,0.0708750560206681,0.03346371758392444,-0.001312367152788505,0.0005746089222465691,-0.00037946832486558267
2025/04/09 11:15:52.324361086,1744190152,322293829,piren,0.10569233129808708,-0.07155754813252316,-0.02957544084323692,-0.0009656754545801027,-0.0003335908327324485,0.0
2025/04/09 11:15:52.377062921,1744190152,373173432,piren,0.10863573139790787,-0.03336933222576591,-0.011581371436972875,-0.0013968315480654035,-0.0011138296415125432,-0.00021182491489846447
2025/04/09 11:15:52.426412609,1744190152,424031092,piren,0.11159282094463378,-0.1393687555721499,-0.0589863335830305,-0.0024645646195494823,-0.0018103731976075847,0.0
2025/04/09 11:15:52.465800556,1744190152,463844257,piren,0.11531536130005406,-0.1895995168628815,-0.0807281786337011,0.0002591761295894783,-0.0023849938406315615,-0.0001831965769020992
2025/04/09 11:15:52.516597707,1744190152,515190735,piren,0.11855441491993587,-0.13253649090947875,-0.05368238623775737,3.364628239798145e-05,-0.0028229115519454017,0.0
2025/04/09 11:15:52.568807747,1744190152,565704727,piren,0.12146770211916191,-0.0077590709157903115,-0.00029954427365125325,-0.000842280817316996,-0.003064069195122098,-0.00010820043630703212
2025/04/09 11:15:52.617674939,1744190152,615931426,piren,0.12427301132584034,0.0025883177531795584,0.006079631591259382,0.0005837666348429377,-0.0031229631913157834,0.0
2025/04/09 11:15:52.668692968,1744190152,666108495,piren,0.12696265954778027,-0.009623451708603192,0.002139225618319085,0.0007459122844635983,-0.0029876308895938836,-7.426269845032888e-05
2025/04/09 11:15:52.707677135,1744190152,705974191,piren,0.12965952639574424,0.10200412430517641,0.04706130066368673,0.00021070628841555507,-0.0026667638800231858,0.0
2025/04/09 11:15:52.769735333,1744190152,767050106,piren,0.13241779798909192,0.11476083015154469,0.05352774506675645,-2.097667403127882e-05,-0.002188705193305899,0.0
2025/04/09 11:15:52.819880246,1744190152,818206630,piren,0.13524402847210695,0.03763780117328676,0.02191262227499601,-0.0004348801114862321,-0.0015957144997418556,-0.00020854311900645058
2025/04/09 11:15:52.871913819,1744190152,870164982,piren,0.1379590142140387,-0.0253026064670394,-0.004441986153651083,0.0010907616331435573,-0.0009193330141779143,-2.045349504416925e-05
2025/04/09 11:15:52.923796745,1744190152,921279125,piren,0.1406839855034832,-0.03941364419965797,-0.009862923426861752,0.0005269932272325299,-4.5719277068443655e-05,0.0
2025/04/09 11:15:52.975140391,1744190152,972518321,piren,0.1431457037902419,-0.06516804824568684,-0.02093375942288949,-0.0011511501023270033,0.0007058289408413196,-8.891870164527273e-06
2025/04/09 11:15:53.14332160,1744190153,12308195,piren,0.1431457037902419,-0.06516804824568684,-0.02093375942288949,-0.000664083502539488,0.0013579407477084286,0.0
2025/04/09 11:15:53.63744353,1744190153,62071197,piren,0.15005487986086338,0.003862142024672683,0.008004869418738297,-0.0007869257000577937,0.001947792050222585,0.0
2025/04/09 11:15:53.126541774,1744190153,124551554,piren,0.15311317152963969,0.009733503637426071,0.0101348190739394,0.001242771444105148,0.0023976075180864626,7.910883447155525e-05
2025/04/09 11:15:53.166228253,1744190153,164404733,piren,0.1575628832903931,0.10794183283369416,0.04807192393653993,8.626222607239256e-05,0.002712450768164358,5.124822976083346e-05
2025/04/09 11:15:53.218209344,1744190153,215788734,piren,0.16179349532917517,-0.019586918410368553,-0.007527677471390229,-0.00020031610664324726,0.002865123038533848,0.0
2025/04/09 11:15:53.267182575,1744190153,265444698,piren,0.16567733158590275,-0.015796671122143408,-0.004724121800730055,-0.00011483043670592242,0.002851141414957543,6.855703561059268e-05
2025/04/09 11:15:53.307266002,1744190153,305105006,piren,0.16889405816832553,0.04317692235799765,0.019907227096076258,0.0011149190052744578,0.0026500415717457273,0.0
2025/04/09 11:15:53.368152339,1744190153,366428132,piren,0.17223584400394432,0.1246719553713319,0.05188887054940566,-0.0002272954758850189,0.002310372704920034,0.0
2025/04/09 11:15:53.419744066,1744190153,418208960,piren,0.17532989559822457,0.04277012227034899,0.018527516750495833,-4.739374334564487e-05,0.0018397003156428316,0.0004852981128511259
2025/04/09 11:15:53.472671843,1744190153,470903658,piren,0.17836199292328278,0.06718970521510524,0.029132052134223242,2.7550645343424053e-05,0.0012980166208394813,0.00010596067517862161
2025/04/09 11:15:53.521947617,1744190153,519248590,piren,0.18115988821991783,0.02182796323004365,0.01087805327196564,0.000600353376014737,0.0006591625835171604,0.0
2025/04/09 11:15:53.571809640,1744190153,569192477,piren,0.1838873956182852,-0.016895851059098306,-0.004969845315793704,0.00039032354455429243,-1.0677655063005729e-05,0.0
2025/04/09 11:15:53.623111287,1744190153,621412085,piren,0.18656915109113476,-0.03850582145255432,-0.01375206373310361,0.0010437348734048191,-0.0006745908987176852,0.0005861545698777714
2025/04/09 11:15:53.661285763,1744190153,659235395,piren,0.18915768118645251,0.05969914928605245,0.025201807758120878,0.00034395218811258564,-0.0013104200547275245,0.0
2025/04/09 11:15:53.723275797,1744190153,721590746,piren,0.19189751813669323,0.08019721091095558,0.034242963870807955,0.0003136997966789879,-0.0018369894774569193,0.0006701632381400505
2025/04/09 11:15:53.762643257,1744190153,760717218,piren,0.19444580928761757,0.1383274916416212,0.05678432883108436,0.00013051221364325207,-0.002257668421416826,0.0
2025/04/09 11:15:53.824676508,1744190153,822788692,piren,0.19676467824538127,0.17218736206432364,0.06986709280801941,-0.0008895633074730983,-0.0025166742789218964,0.0007524567861542658
2025/04/09 11:15:53.869920498,1744190153,863579566,piren,0.19932318976211724,0.07964792394545836,0.033875519525544476,-0.001085767516832422,-0.002625252860018315,0.0
2025/04/09 11:15:53.925922717,1744190153,923491910,piren,0.20155892696852795,0.03767950817832568,0.018159546249458473,-0.0005968845749409436,-0.0026589688631145263,0.0008213489108356218
2025/04/09 11:15:53.977252259,1744190153,974741238,piren,0.20398171265064782,0.03158988166683228,0.016507280074396405,-0.00045499265555103363,-0.0024327223765180724,0.0002752394034123037
2025/04/09 11:15:54.19636424,1744190154,17936036,piren,0.20711830280465626,-0.020737363389480394,-0.004334944446514995,-8.215136957392651e-05,-0.00219255279209994,0.0
2025/04/09 11:15:54.59688887,1744190154,57888003,piren,0.21071201409131396,-0.05723175945868208,-0.01899027383194428,-0.001225965232662766,-0.001643297925324399,0.0
2025/04/09 11:15:54.122569061,1744190154,120731670,piren,0.21146357815819106,-0.1737249043956126,-0.07112528167629079,-0.0005493194839377729,-0.0008150877753654045,0.0029305879956331208
2025/04/09 11:15:54.172283177,1744190154,170409757,piren,0.21352061767347555,-0.10750015125663595,-0.04204410421548771,-0.0005972405516072257,-2.626776411378243e-05,0.000690552676389291
2025/04/09 11:15:54.224880687,1744190154,221902163,piren,0.2159372325960249,-0.1735535592825272,-0.07106763922303151,-0.0010133634715348216,0.0007467485813819266,0.0
2025/04/09 11:15:54.261537098,1744190154,259386629,piren,0.2159372325960249,-0.1735535592825272,-0.07106763922303151,0.000788778095236206,0.0014668867725527435,0.0
2025/04/09 11:15:54.326105433,1744190154,324204989,piren,0.22015648183000855,0.07584841248735755,0.030532751990700643,-0.0005729151123990771,0.002648229511043663,0.004607125077975543
2025/04/09 11:15:54.375453113,1744190154,372807672,piren,0.22266225938665235,-0.0836106426539118,-0.03836619620003852,-0.000738554072725618,0.003018386856178574,0.00026603311685645495
2025/04/09 11:15:54.426110351,1744190154,423230653,piren,0.22614030831568932,-0.06047391991655788,-0.025452989284133313,-0.0011891231469325393,0.00314375066344944,0.0
2025/04/09 11:15:54.476561920,1744190154,474508002,piren,0.2296714319602416,-0.1393523743807691,-0.05927406168493547,6.659741988527177e-05,0.003087627731581665,7.384958726236529e-05
2025/04/09 11:15:54.527659687,1744190154,524994659,piren,0.23207711084642146,-0.09631921879658877,-0.03902132364496893,-0.0003907745075784375,0.002845149307656915,0.0
2025/04/09 11:15:54.567380140,1744190154,564795856,piren,0.2365296629857767,-0.058675355318291635,-0.02192144373674019,0.0007662508814784518,0.0024459421315685555,0.0
2025/04/09 11:15:54.619048109,1744190154,616788291,piren,0.23945844586305615,-0.004801494706816831,0.001072826447154538,-0.0004043277832264699,0.0018860501281124482,0.00016879488278261607
2025/04/09 11:15:54.671449412,1744190154,669677218,piren,0.24236006230257776,-0.11394715320893739,-0.048508052627855486,0.0011093259484608663,0.001243354582222193,4.682008115780174e-05
2025/04/09 11:15:54.707879889,1744190154,705983398,piren,0.24236006230257776,-0.11394715320893739,-0.048508052627855486,0.00039750102632716427,0.0005409105098799762,0.0
2025/04/09 11:15:54.770130401,1744190154,768356179,piren,0.24620074426788965,0.06763680253457094,0.028761606875068325,0.0012692765513202134,-0.00021460423867607892,2.9101588718650078e-05
2025/04/09 11:15:54.822266273,1744190154,819804797,piren,0.24744737551350232,0.15008653345316814,0.06169405482131296,-0.00029929084509957036,-0.0009072120838882957,0.0
2025/04/09 11:15:54.859921071,1744190154,858235259,piren,0.24895055742349548,0.09581084854780782,0.04125482676192363,-5.715264690331069e-05,-0.0015532552365137029,0.0
2025/04/09 11:15:54.911690353,1744190154,910113868,piren,0.2499067948977882,0.11280272137873906,0.04896510309275329,-0.0013685423631496771,-0.0020885564257056744,-3.180581331291662e-05
2025/04/09 11:15:54.976146439,1744190154,972299312,piren,0.25133530423709094,-0.04339388030089139,-0.018619076417914812,-0.0009371069778988515,-0.002501174704600154,-3.5548653354298214e-05
2025/04/09 11:15:55.25994931,1744190155,23469883,piren,0.2522810599498826,-0.07596073883009921,-0.03031420432352155,-0.00048185668482610773,-0.0027791342381442655,0.0
2025/04/09 11:15:55.76509270,1744190155,74509225,piren,0.2533144718165659,-0.1414281514844788,-0.05828682231228582,0.0010613898171797015,-0.0028822104128093397,-6.34278739801391e-05
2025/04/09 11:15:55.105825312,1744190155,104159034,piren,0.2533144718165659,-0.1414281514844788,-0.05828682231228582,0.0010054435513553632,-0.002793198286464179,0.0
2025/04/09 11:15:55.168297589,1744190155,166345927,piren,0.25847722968160275,0.0994410441743639,0.04161011561072528,-0.0004555234423121483,-0.0025480834585272856,-8.943932773284272e-05
2025/04/09 11:15:55.218329589,1744190155,216908882,piren,0.2608002505459354,0.07514090465915613,0.03427734661062694,-0.0012612729304770822,-0.002144473126972723,0.0
2025/04/09 11:15:55.269102930,1744190155,267227002,piren,0.2629149519797921,0.05358511302092664,0.027131321744041516,-0.001153572993837393,-0.0016245742039171114,-0.000119790448641666
2025/04/09 11:15:55.321913825,1744190155,318233501,piren,0.26447119011781983,0.025765930563102286,0.01667369200988844,-0.0014063007348822205,-0.0010221158629330788,0.0
2025/04/09 11:15:55.370398577,1744190155,368563359,piren,0.26635908859420854,-0.10799196946777556,-0.04269636052220739,-0.0012304123134824635,-0.0003616756746157553,-0.00014548411485907104
2025/04/09 11:15:55.420810668,1744190155,419303313,piren,0.26765221238733833,-0.19153310587289524,-0.08004946173590034,3.204123822698726e-07,0.00030035680228579763,0.0
2025/04/09 11:15:55.475836442,1744190155,470483377,piren,0.2691069947311007,-0.2525173530574193,-0.10830771814491733,0.0018725379425532725,0.0009251536082821683,-0.00016430449426126177
2025/04/09 11:15:55.523380269,1744190155,521710992,piren,0.27035778951949396,-0.06741544608530603,-0.029319105975161006,0.0005604443779087395,0.0015142242337523265,0.0
2025/04/09 11:15:55.574600731,1744190155,572584019,piren,0.27201054792067225,0.07115301003741478,0.02866562058147508,-0.0005784169050690191,0.0020085489003662995,-0.00018417566977572397
2025/04/09 11:15:55.624793184,1744190155,623303235,piren,0.2734899553669493,0.173149513359931,0.07025853894497373,0.0007127555648190157,0.0023100029038489634,0.0
2025/04/09 11:15:55.676124534,1744190155,673464255,piren,0.27561682235768786,0.2157274215950565,0.08845375666775972,-0.0006852436949178765,0.0024522616385200076,-0.000148300559837972
2025/04/09 11:15:55.725546145,1744190155,723704522,piren,0.27782776918897983,0.014790581734678204,0.003363984730814812,0.000127231013081712,0.0024085713791894533,0.0
2025/04/09 11:15:55.760925193,1744190155,757064656,piren,0.28160726265823544,-0.0068197259972748656,-0.0018656657003209114,-0.0015988654441037075,0.002304272415368333,0.0
2025/04/09 11:15:55.823436927,1744190155,817722044,piren,0.28410906969643296,0.003584704098921072,0.004801947160537529,0.00014714781076880635,0.00199442140096548,-0.0002977465846818109
2025/04/09 11:15:55.878504267,1744190155,876102591,piren,0.28522776843960856,-0.011523712076495931,-0.0002041416428312402,0.0003202429558474222,0.001618839170202026,5.217734905742884e-05
2025/04/09 11:15:55.926729856,1744190155,924064330,piren,0.28622893694582674,-0.021688897369585895,-0.003831887845569775,-0.0008414789473074516,0.0011601767943560106,0.0
2025/04/09 11:15:55.977104050,1744190155,975218819,piren,0.28739798408432765,-0.10349692882164163,-0.0402014154522682,-0.0006316654750789396,0.0006480046505068773,0.0
2025/04/09 11:15:56.17495729,1744190156,15725858,piren,0.28941595864421293,-0.049266280912297594,-0.016732944694298972,0.00039574128973233905,0.0001422351969372976,0.0005850765208529956
2025/04/09 11:15:56.60477698,1744190156,58132124,piren,0.2917564708924602,-0.039618544910126736,-0.012243279687745095,-0.0005153854692122728,-0.0004993224710197016,0.0
2025/04/09 11:15:56.110722751,1744190156,108886140,piren,0.2917564708924602,-0.039618544910126736,-0.012243279687745095,0.0001944609683630995,-0.0011155747148410438,0.00025442445978047325
2025/04/09 11:15:56.174863545,1744190156,171304541,piren,0.2944870882931356,0.009148302822404718,0.008357818643962395,-0.0001583881600511355,-0.001655972419435639,0.0
2025/04/09 11:15:56.215159398,1744190156,213463915,piren,0.29709695189612845,-0.07388682711921321,-0.028533504808471825,0.0009525744452908775,-0.002052269201031649,2.219949794351302e-05
2025/04/09 11:15:56.257441712,1744190156,255325270,piren,0.29834766539606805,0.0594885366153903,0.024899129016165845,0.0007421260344182668,-0.0022932467100151696,0.0
2025/04/09 11:15:56.310005207,1744190156,307971106,piren,0.298710974636697,0.029942570985076574,0.014321042757774906,0.0008023437306691868,-0.002344116773126803,0.0006383180674106736
2025/04/09 11:15:56.372745427,1744190156,370640900,piren,0.29909979889430377,0.008048953548450276,0.00634758203976489,0.0008024414029378198,-0.0022813196456407496,0.00023668759337069304
2025/04/09 11:15:56.412024012,1744190156,409691338,piren,0.2997708575835988,0.0032353494926610207,0.005154883885467501,3.1408415076611044e-05,-0.0020767770635776823,0.0
2025/04/09 11:15:56.473550998,1744190156,471320779,piren,0.30057705747908603,-0.001530211451608943,0.003635345795442649,-0.000329695049437426,-0.0017503079565445087,0.00031198452927343277
2025/04/09 11:15:56.523845399,1744190156,522082484,piren,0.30097681942966137,0.031179560964847017,0.017208784075805283,0.0011145199942150352,-0.0013529322418193682,0.0
2025/04/09 11:15:56.574703940,1744190156,572654964,piren,0.30187001374520167,0.11911444398961063,0.05101489040915403,-0.00010961464769390641,-0.0008762442160175044,0.0004223598971035995
2025/04/09 11:15:56.626278520,1744190156,623419118,piren,0.3029557800990007,0.0737021176247708,0.03324884099513596,0.0004393732910480432,-0.0003516647606617832,0.0
2025/04/09 11:15:56.662324482,1744190156,660569380,piren,0.30416987539001655,0.11236250502493017,0.04839699667633219,0.00033100837506189846,0.0001878036338712923,0.0
2025/04/09 11:15:56.726037778,1744190156,724111373,piren,0.3054230817832378,0.11309445230099295,0.04875971233900493,-0.00015962548206224517,0.0007448223281475336,0.002626980830721904
2025/04/09 11:15:56.776680885,1744190156,775078213,piren,0.30709966423282836,0.08495962933661753,0.03757493273642573,0.0002184663055548822,0.0012340512748407774,0.0005803254436095161
2025/04/09 11:15:56.827486032,1744190156,824907558,piren,0.30842333540781525,0.1408845722401565,0.05786962538312217,0.0002900394664482718,0.0016637278004846623,0.0
2025/04/09 11:15:56.864042975,1744190156,861952131,piren,0.30842333540781525,0.1408845722401565,0.05786962538312217,0.00098979360253923,0.001985171974081418,0.0
2025/04/09 11:15:56.928098320,1744190156,926336609,piren,0.3113637787898826,0.15971522293962145,0.06396281337350515,-0.00022474534886597977,0.0021975352558018493,0.0032723503992526624
2025/04/09 11:15:56.956082031,1744190156,954517326,piren,0.31583118609000865,0.05628623361722014,0.022911338458736448,-0.002664480454464761,0.002297145866706279,0.0
2025/04/09 11:15:57.8229708,1744190157,6488965,piren,0.31583118609000865,0.05628623361722014,0.022911338458736448,-0.0009972263846312682,0.002060320571459018,0.003207355360479904
2025/04/09 11:15:57.74778677,1744190157,72429919,piren,0.3190247104236734,-0.22666326871126333,-0.10011592695896993,0.0003720172561026951,0.0020421886986032815,0.0009321263302112569
2025/04/09 11:15:57.110351035,1744190157,108091830,piren,0.3190247104236734,-0.22666326871126333,-0.10011592695896993,-0.0006504715412561365,0.001895651065955182,0.0
2025/04/09 11:15:57.174737479,1744190157,171623687,piren,0.3221724098193137,-0.19252434800446283,-0.08135461657093222,-0.0007780947992020228,0.0016229563074758979,0.0009379526363536243
2025/04/09 11:15:57.225655834,1744190157,223726993,piren,0.3232753362770838,-0.24774638721755765,-0.107138440008897,-0.001878801266565718,0.0011848789573826017,0.0
2025/04/09 11:15:57.278051233,1744190157,275467475,piren,0.32432209747576074,-0.2577315224236372,-0.11186097919284171,-2.013549607000632e-05,0.0007141071986753106,0.0010713359354035375
2025/04/09 11:15:57.329362199,1744190157,327345064,piren,0.3244606016142827,-0.037783057668502845,-0.020926664722419372,0.001360974895851934,0.00017052477898650147,0.0
2025/04/09 11:15:57.379958937,1744190157,376923761,piren,0.325628548560235,0.04699256824883373,0.01712040440756333,0.0005632463806203824,-0.0004117425616114151,0.0
2025/04/09 11:15:57.421182186,1744190157,419683357,piren,0.3294487894163924,0.032299189214791066,0.013773736845998742,0.0013190134235553375,-0.0009836836859745972,0.0043265852575868
2025/04/09 11:15:57.468864341,1744190157,467075756,piren,0.3322185952503334,0.13349405070271125,0.05471636257056964,0.00039765052997367133,-0.0015226326293871046,0.001146254213918931
2025/04/09 11:15:57.519865332,1744190157,517078440,piren,0.3343352774768848,0.08507952439395006,0.03696948203023921,0.001112626487667616,-0.0019628847842115163,0.0
2025/04/09 11:15:57.570728810,1744190157,568250196,piren,0.33564522477372544,0.16251428270347779,0.06746389553137425,0.0003900806143521709,-0.0023026163449988927,0.0012017626722877449
2025/04/09 11:15:57.620406967,1744190157,618523537,piren,0.3364063523756615,0.09439502069994879,0.041449048526535026,0.0006137339389083486,-0.002480538970452272,0.0
2025/04/09 11:15:57.671538673,1744190157,669525952,piren,0.33691395650107575,0.043449618417343946,0.021760496817888598,-1.4508625430338708e-05,-0.0024857129005217806,0.0012571661607241264
2025/04/09 11:15:57.721258949,1744190157,719568708,piren,0.3370308694785765,0.016676473815778,0.011588730656717762,0.0008011348175301871,-0.0023426385575834483,0.0
2025/04/09 11:15:57.773072460,1744190157,769818812,piren,0.3374155828207224,0.05806028212814446,0.028323561498912388,-0.00020306686777109493,-0.0020644028589134286,0.001316226184135108
2025/04/09 11:15:57.823462697,1744190157,821548586,piren,0.3377181608474532,-0.03207782145382232,-0.00958085133661158,0.0001004962995833392,-0.0016674679787213216,0.0
2025/04/09 11:15:57.873535928,1744190157,871614640,piren,0.3381034758854642,-0.15447469853229456,-0.06469974466621516,0.0014452365326492864,-0.0011821196890717232,0.0013583911156681886
2025/04/09 11:15:57.923547935,1744190157,922015909,piren,0.33856114870927767,-0.16182795135614475,-0.0665734189199565,0.0004395292042952349,-0.0006325412561034634,0.0
2025/04/09 11:15:57.962052545,1744190157,960374508,piren,0.3393420370280185,-0.16181925756586685,-0.0658928979075732,0.00020450676651074945,-3.5382805186560074e-05,0.0
2025/04/09 11:15:58.13144283,1744190158,9929072,piren,0.3393420370280185,-0.16181925756586685,-0.0658928979075732,-0.0009227911723031982,0.0005646493364951466,0.005684910690692469
2025/04/09 11:15:58.80538811,1744190158,74747646,piren,0.34177338586505385,-0.23082490798192343,-0.0990084771221138,0.00010577519738284117,0.0011300446719276628,0.0013939201191360518
2025/04/09 11:15:58.128290529,1744190158,124381855,piren,0.34232217651901947,-0.011321270202688583,-0.008310997719874189,0.0005977503347847771,0.0016145479778019998,0.0
2025/04/09 11:15:58.177815320,1744190158,175181301,piren,0.34344883227313433,0.12268915912914047,0.04755596852124987,0.0003714268925359659,0.0019806717213587104,0.0014717229071925528
2025/04/09 11:15:58.227417881,1744190158,225865662,piren,0.3445389749821973,0.08547896752620539,0.03536645508538284,-0.0012862269498387776,0.0022220691279024145,0.0
2025/04/09 11:15:58.281766091,1744190158,280161064,piren,0.34623236092988946,-0.03923467323234041,-0.018558682203761744,-0.0018797139881320069,0.0023488204536436467,0.0015323465140927482
2025/04/09 11:15:58.316353233,1744190158,314082519,piren,0.34623236092988946,-0.03923467323234041,-0.018558682203761744,-0.0009272285824829122,0.002314139528239702,0.0
2025/04/09 11:15:58.380224145,1744190158,378367633,piren,0.34879960937009885,0.018196003924413104,0.009738433008859092,0.0005294480742239476,0.0021388142946725517,0.0018363421317533993
2025/04/09 11:15:58.410840303,1744190158,408165064,piren,0.3527079738142223,0.012917906262373376,0.008277176639062122,0.0007970146284632921,0.002269912314546336,0.0
2025/04/09 11:15:58.457629062,1744190158,455119799,piren,0.3563587367246331,0.004867775941784145,0.005113992165988167,0.001140542693483939,0.0017368502102718814,0.0
2025/04/09 11:15:58.517510044,1744190158,516121233,piren,0.35824367877849034,0.11685525198413409,0.04913330957727167,0.0003932622988299779,0.0011159820421477523,0.004722296303397168
2025/04/09 11:15:58.572448360,1744190158,571018639,piren,0.35998416517491055,0.1944870824574081,0.0790868384344378,-0.0003631101618484852,0.00042773399610404736,0.0008781955877834882
2025/04/09 11:15:58.623093768,1744190158,621705865,piren,0.3611565960800366,0.18653569926577793,0.07673625365122445,0.0003183912221900768,-0.00025416886393079326,0.0
2025/04/09 11:15:58.674147643,1744190158,671986055,piren,0.3618988691982398,0.22693780947329278,0.0915955835968919,-0.0007910653790786714,-0.0009020689186391284,0.000798078213066879
2025/04/09 11:15:58.724799547,1744190158,722509532,piren,0.36234260227793164,0.10301109547863227,0.04208915140239212,0.0010534123185889587,-0.0015088024770582502,0.0
2025/04/09 11:15:58.775071471,1744190158,772846889,piren,0.3623658781194539,0.15181033279209252,0.06116288059088893,0.00031633523407806737,-0.002003833634765261,0.0006896461418007267
2025/04/09 11:15:58.826226210,1744190158,823433742,piren,0.36259595233195835,0.06252454223199487,0.02631979654384152,-0.000627443855978201,-0.00231816890579925,0.0
2025/04/09 11:15:58.862948318,1744190158,860749703,piren,0.3622170006458422,0.020523867314068356,0.010462330477120207,0.00039589931886420073,-0.0022627404388420288,0.0
2025/04/09 11:15:58.918764122,1744190158,914590614,piren,0.3598636558769617,0.10012890763905483,0.04091948749085324,0.001378449470719829,-0.002049161408957218,0.002727449894550824
2025/04/09 11:15:58.963890799,1744190158,958163442,piren,0.36110598273544425,0.13448093491647334,0.05442004462907446,-0.00025783317781242235,-0.0016833801557474127,0.0
2025/04/09 11:15:59.18740944,1744190159,15753400,piren,0.3612333070035224,0.06186555855283579,0.026698715277358055,-0.0017499553009317059,-0.0012219262547051536,0.0006616719208225958
2025/04/09 11:15:59.77517108,1744190159,74978919,piren,0.3621859443042017,-0.06397941131199339,-0.025537958227426587,-0.00044563625188257904,-0.0008153806488212286,-0.0002159796143508539
2025/04/09 11:15:59.124385743,1744190159,122782689,piren,0.3635808459294826,-0.14690842746235838,-0.060224576191044946,-0.0005963858610587965,-0.00040744576420775875,0.0
2025/04/09 11:15:59.162465445,1744190159,159987600,piren,0.3650361869129033,-0.23482531590307198,-0.09944021791641476,-0.0005235278564849591,2.2372463745050657e-05,0.0
2025/04/09 11:15:59.227238768,1744190159,225385184,piren,0.36560315363726703,-0.2820048111782854,-0.1207525817497789,0.0007001270019449102,0.00041267843258812736,-0.0017556811793593742
2025/04/09 11:15:59.278264540,1744190159,275420303,piren,0.36583701335439445,-0.12632190606218513,-0.053804421508334255,0.0020422241459526476,0.0007920625007398479,-0.00045501775445617467
2025/04/09 11:15:59.329780636,1744190159,328113839,piren,0.36585165177716633,0.004165251590074914,0.0007358953043958213,0.0001733488193508906,0.001142922891630106,0.0
2025/04/09 11:15:59.380332394,1744190159,378625306,piren,0.36667916980791276,-0.0037703637288360892,-0.00021942697769576484,-0.0012622400652874438,0.0013942608351278684,-0.0005354897994324894
2025/04/09 11:15:59.429463876,1744190159,427477733,piren,0.3678187554542551,0.009902149078516087,0.006817826158183475,0.00025519333051921575,0.0013897260737390478,0.0
2025/04/09 11:15:59.461885627,1744190159,458843925,piren,0.3720528967363866,0.11979729793852113,0.04933044098617605,0.00023483711803159226,0.0012531508541260322,0.0
2025/04/09 11:15:59.510735291,1744190159,507840328,piren,0.37522036725927177,0.06455634162243754,0.02817009824940688,-0.0007805116256882882,0.0010857540273247384,-0.0039070216735154015
2025/04/09 11:15:59.557247964,1744190159,555016143,piren,0.3772586301377036,-0.07950689546778464,-0.03487370555843194,-0.0014071940722196095,0.0008707327297802364,0.0
2025/04/09 11:15:59.620713102,1744190159,618876626,piren,0.37827092760599085,-0.14518679956745487,-0.0626320802962166,-0.00031450490886378275,0.0005861120419241983,-0.003861016010061597
2025/04/09 11:15:59.671885583,1744190159,670164386,piren,0.3785471624391907,-0.11411420771864883,-0.04746563249058583,-0.0007784049762139303,0.00027857508229758854,-0.0007691892530923078
2025/04/09 11:15:59.722850469,1744190159,721085176,piren,0.37849800120488947,-0.1577362981858643,-0.06673865917733367,-0.0004140779157865969,-5.484127983512554e-05,0.0
2025/04/09 11:15:59.760539151,1744190159,757777980,piren,0.37829586338330085,-0.12571180270369967,-0.05186539025748581,0.00018381009653674606,-0.00037576561519014776,0.0
2025/04/09 11:15:59.810940724,1744190159,808877878,piren,0.37829586338330085,-0.12571180270369967,-0.05186539025748581,0.00020321943332476722,-0.0006987494466400342,-0.0035338357522218763
2025/04/09 11:15:59.861009219,1744190159,858815997,piren,0.37744853056365213,0.15921975553560497,0.0629068445103872,0.0002634537461175476,-0.0010464617929416987,0.0
2025/04/09 11:15:59.929189925,1744190159,927654332,piren,0.3755493394534373,0.22174812262746835,0.0882341078896445,-0.0010405189035285532,-0.0012866346519874452,-0.003916292615269001
2025/04/09 11:15:59.967161474,1744190159,964455299,piren,0.37468966881174354,0.10809613033316036,0.04406816254833962,-0.0006374657601772628,-0.001448927783005289,0.0
2025/04/09 11:16:00.13849998,1744190160,12334706,piren,0.3764474933328988,0.09655341691209268,0.04140418203864867,-0.0006237329491410767,-0.0015284758078784799,-0.004905788927710067
2025/04/09 11:16:00.71999699,1744190160,70402730,piren,0.3776213677448145,0.042025022667030315,0.020305232255173413,-0.0010866787598854126,-0.001509270677194994,-0.0010587810451938174
2025/04/09 11:16:00.125756220,1744190160,120828665,piren,0.3779125740311888,-0.09028894659504674,-0.03756345007289888,0.00036569950127973396,-0.0016349085042642883,0.0
2025/04/09 11:16:00.175479931,1744190160,172419304,piren,0.3779070676296219,0.04838542830957504,0.018339836593309032,-0.00048552270823572354,-0.001371210090439084,-0.0009197058492476207
2025/04/09 11:16:00.226659247,1744190160,224613611,piren,0.3764323975430675,0.025766916265547304,0.011672264509678941,0.00028121046834485297,-0.0010083017298671251,0.0
2025/04/09 11:16:00.275878459,1744190160,273797484,piren,0.3756234325911469,0.10281464983013375,0.04267930134459979,-0.00032209081164302295,-0.0006530354296530554,-0.0008373502398421414
2025/04/09 11:16:00.326479907,1744190160,324281182,piren,0.3751268105854711,0.002253264409909944,0.002043008277574275,-0.0005258416690647925,-0.00021954108952655486,0.0
2025/04/09 11:16:00.376892840,1744190160,375089876,piren,0.37445846094483437,-0.005961656529689378,0.00011954330821878226,0.0005010849413125432,0.00019801581815670447,-0.0007028022019501111
2025/04/09 11:16:00.412499389,1744190160,410519750,piren,0.37445846094483437,-0.005961656529689378,0.00011954330821878226,0.001417834856349908,0.0005887665409916518,0.0
2025/04/09 11:16:00.478031948,1744190160,475668829,piren,0.37302965295425616,0.14131950586488512,0.05737106093242693,-0.0005090299944501534,0.0009880782412936525,-0.0005757596025753154
2025/04/09 11:16:00.528084840,1744190160,526154915,piren,0.372773362604949,0.05480406093633958,0.02335389778200251,-0.001978547365244069,0.001311488262527433,0.0
2025/04/09 11:16:00.564492931,1744190160,562720569,piren,0.37299753108677625,-0.07811143872868356,-0.033418996688197214,-0.0003368755287013928,0.0015535945057381128,0.0
2025/04/09 11:16:00.628622778,1744190160,626833792,piren,0.37263706711632993,-0.062303587084216044,-0.02525923926336518,0.00030883125361052735,0.0016634776618729124,-0.0020560889690316377
2025/04/09 11:16:00.683016984,1744190160,680949969,piren,0.3723245444251465,-0.05686885161940168,-0.022159857278680667,0.00034575899451249064,0.001646035194414811,-0.00020560385131077389
2025/04/09 11:16:00.716691592,1744190160,713839010,piren,0.3723245444251465,-0.05686885161940168,-0.022159857278680667,-0.00013086306788356495,0.001578768660639421,0.0
2025/04/09 11:16:00.766468142,1744190160,764862226,piren,0.3717944937360703,-0.034237972066466824,-0.012457892799821839,0.0006415016648244651,0.0014464352905448653,0.0
2025/04/09 11:16:00.828011889,1744190160,826286328,piren,0.37253361171092414,0.08423328452759037,0.032505496057958175,0.0005363431069601281,0.001315138572081522,-0.0007114896085542056
2025/04/09 11:16:00.860252733,1744190160,858357722,piren,0.37372533494781285,0.042307134753809664,0.016354557162523157,-0.00016212312940349247,0.0011154471826403923,0.0
2025/04/09 11:16:00.924190085,1744190160,922266482,piren,0.37418306292379433,-0.031115039967562694,-0.014066975316476521,0.00012768035808343437,0.0007777767486250468,-5.855269757352675e-05
2025/04/09 11:16:00.964876504,1744190160,961371011,piren,0.3744962228682657,-0.03178716038114558,-0.013719100754134322,-0.00043763305852054354,0.00038387938057064515,0.0
2025/04/09 11:16:01.13103610,1744190161,11303749,piren,0.3739132078238986,-0.024110259306462607,-0.010213995364102507,0.0011258358621064205,-9.382416425844683e-06,0.00016836094110239382
2025/04/09 11:16:01.80829062,1744190161,78739241,piren,0.37269220093262495,0.07429244353356793,0.02784535313897897,-0.0010361930902635906,-0.0003352191391135349,9.956251109750997e-05
2025/04/09 11:16:01.129452246,1744190161,128060654,piren,0.3709197148475601,-0.05728585545912224,-0.028385136052765964,-0.0009851636507200573,-0.0006782277223889657,0.0
2025/04/09 11:16:01.183679369,1744190161,180643485,piren,0.3699880244309048,-0.034975804675787134,-0.017231014494108625,0.0005202990108486201,-0.0010280193723393638,0.00016353016077590626
2025/04/09 11:16:01.214981297,1744190161,213288165,piren,0.37159777877986977,0.08079217693853011,0.02836580869918385,0.0003180273785815839,-0.0012714008291718657,0.0
2025/04/09 11:16:01.272883268,1744190161,271243673,piren,0.3724695256205455,0.03223406379447611,0.010543989260091625,-0.001327098172145363,-0.0014365263353369401,0.0003194053133124237
2025/04/09 11:16:01.323985337,1744190161,321631484,piren,0.37266617329178237,-0.09739105316248256,-0.04527993553903969,-0.001249356480359605,-0.0015320487732860407,0.0
2025/04/09 11:16:01.374915900,1744190161,372086292,piren,0.372291407467083,-0.05943393612205924,-0.02705476513119152,7.16533773806183e-05,-0.0015427468791731176,0.0004515554725506923
2025/04/09 11:16:01.423307395,1744190161,421511197,piren,0.3709282120249559,0.07025593053203905,0.024499242789126175,0.00026413992797363054,-0.0014339483450961723,0.0
2025/04/09 11:16:01.474535249,1744190161,472629036,piren,0.3698180084469191,0.026973714121549926,0.009172402918630942,0.00046838283185125307,-0.0012726944502746882,0.0006429421323697784
2025/04/09 11:16:01.524139290,1744190161,522763607,piren,0.36858947496311933,-0.003743756875019391,-0.0018759102339025533,-0.0010915575343310845,-0.0010607378399680137,0.0
2025/04/09 11:16:01.575386967,1744190161,573616826,piren,0.36786548064192226,-0.06796049928784682,-0.028470743731432796,-0.0006794233866167189,-0.0008536537290582833,0.0007077971973526492
2025/04/09 11:16:01.626186696,1744190161,624208015,piren,0.3667518117509194,-0.019145589882055135,-0.007494596864196276,0.0010587352011406511,-0.0007312028976125184,0.0
2025/04/09 11:16:01.676708459,1744190161,674926317,piren,0.365191959307595,0.08572929117353836,0.03341644385381491,-0.0008018624410610276,-0.00026661328395378265,0.0008809217672405887
2025/04/09 11:16:01.713385124,1744190161,710411558,piren,0.365191959307595,0.08572929117353836,0.03341644385381491,-0.002294736770245484,0.00024914138306006195,0.0
2025/04/09 11:16:01.763441869,1744190161,760844187,piren,0.3635682512186127,-0.04331837274189651,-0.02119418713423827,-0.0009674935333453508,0.0007485627555018522,0.0
2025/04/09 11:16:01.815619376,1744190161,812895699,piren,0.3616377422035844,-0.049690132851219586,-0.02200571324063852,-6.778752766591959e-05,0.0011863458699341199,0.0036774251148877658
2025/04/09 11:16:01.883719625,1744190161,881745297,piren,0.359158394699171,-0.17531139472594087,-0.07699465790184838,0.0015847949778450194,0.0015094791152024064,0.0008931791961847292
2025/04/09 11:16:01.918007228,1744190161,915753146,piren,0.3601775971795183,-0.0006056827386602126,-0.005683882092967357,0.0004560860474862677,0.0017077013676527423,0.0
2025/04/09 11:16:01.961828604,1744190161,959108519,piren,0.3608186538066098,0.007153450301711822,5.099492464601379e-05,-0.0005531033739486287,0.001781422720216532,0.0
2025/04/09 11:16:02.13684390,1744190162,11659612,piren,0.36034626634295874,0.043197285265887224,0.01627115282868558,-0.00039043911051543027,0.0017309201085053847,0.0057247726308816875
2025/04/09 11:16:02.61536098,1744190162,56881244,piren,0.36034626634295874,0.043197285265887224,0.01627115282868558,-0.0006125636417973984,0.0015896306411604519,0.0
2025/04/09 11:16:02.109814873,1744190162,108092320,piren,0.36028438757111925,-0.06757073346839215,-0.03220662761882735,0.0011645026358709516,0.0013971061630663872,0.004203471827413752
2025/04/09 11:16:02.162044070,1744190162,158516101,piren,0.3564924899145813,-0.06651590195810977,-0.029573583654659074,0.0027816651373018053,0.0011867112558019673,0.0
2025/04/09 11:16:02.228590475,1744190162,225989286,piren,0.35370053740462076,0.05981209460237541,0.021504176538197226,0.0014388337942883261,0.0009386098018556081,0.005400434215927844
2025/04/09 11:16:02.280063542,1744190162,277751630,piren,0.35170298717971543,0.16340006854857153,0.06213989175361476,0.0006567297963706795,0.0006111361984393835,0.0013313855952478053
2025/04/09 11:16:02.316494648,1744190162,314459116,piren,0.3500047854736755,0.1125344769447564,0.04328224344121984,0.0015872777586858032,0.00021804827332591042,0.0
2025/04/09 11:16:02.367848139,1744190162,365114749,piren,0.34823836092523436,0.1831908218572606,0.07060117225974806,0.00032518952765448806,-0.00015869602251516231,0.0
2025/04/09 11:16:02.417946652,1744190162,415938581,piren,0.3466623336337767,0.1705844058722049,0.06670343757367263,-0.0010109786287900257,-0.00051721128792273,0.00603091934008922
2025/04/09 11:16:02.483502221,1744190162,480820368,piren,0.34561099581183097,0.08175190663928321,0.031605268547050966,0.0002614892899058013,-0.0008253051949868518,0.0012363396997118479
2025/04/09 11:16:02.516002020,1744190162,514069656,piren,0.3467634910700331,0.042345977254262715,0.01649906811392867,-0.0005150024929387083,-0.0011395520635857997,0.0
2025/04/09 11:16:02.572547787,1744190162,570953891,piren,0.34758403691189466,0.021678645722931714,0.008675160734938459,-0.0005678779592839617,-0.0014123824519591782,0.001278608461760629
2025/04/09 11:16:02.623095283,1744190162,621617636,piren,0.34715037440191787,0.00919997076134666,0.003941515150028607,-0.00014415169712012692,-0.0015616671762769916,0.0
2025/04/09 11:16:02.674683647,1744190162,673221952,piren,0.34523381945455234,-0.002644185607960141,-0.0007399528940148052,-0.0014077251136524517,-0.0013575198831531432,0.0014091478530030162
2025/04/09 11:16:02.724054591,1744190162,722349657,piren,0.3427714372337055,-0.0862548657736171,-0.03696555246185049,-0.0010095969936858723,-0.0010476624573317265,0.0
2025/04/09 11:16:02.776294090,1744190162,774069423,piren,0.3404971702198514,-0.08889040074291199,-0.03763197386640975,0.001433972953548416,-0.0006924432357050081,0.0011510509743033039
2025/04/09 11:16:02.824637596,1744190162,823039241,piren,0.33784269431839725,0.03607457146504191,0.011610694949664692,0.001115151761599148,-0.0002097046505415541,0.0
2025/04/09 11:16:02.875827818,1744190162,873840260,piren,0.33573052010365295,0.11802068062102068,0.04377238788279101,-0.000624373350908891,0.00023563426535425918,0.0007792035913165154
2025/04/09 11:16:02.926606234,1744190162,924100517,piren,0.33477499005321126,-0.04915609188933569,-0.027619700171404908,-0.0018586196230956386,0.0005232444058950188,0.0
