time,header_stamp_secs,header_stamp_nsecs,header_frame_id,twist_linear_x,twist_linear_y,twist_linear_z,twist_angular_x,twist_angular_y,twist_angular_z
2025/04/09 11:15:46.122326440,1744190146,119049685,piren,-0.0016905169835936189,0.1095319311670992,0.04045953018449768,-5.2414007577602794e-05,-0.0007088062011770555,-0.0023164727026125475
2025/04/09 11:15:46.174236969,1744190146,172065622,piren,-0.0017681091428266517,0.0744878768259204,0.02476229823853524,-0.0018098893940429674,-0.0004954119260676275,0.0
2025/04/09 11:15:46.222638421,1744190146,220291416,piren,-0.0019251971071883442,-0.05029179744915968,-0.023857499131160854,-0.0004126648592843494,-0.0002703977604864297,-0.002285817661755837
2025/04/09 11:15:46.254052483,1744190146,251964092,piren,-0.002052032392347003,-0.028480921968110702,-0.011823963882547658,0.0009689557290925434,-4.266657130953983e-05,0.0
2025/04/09 11:15:46.313210902,1744190146,311161415,piren,-0.0018757704005331853,-0.03252797234990494,-0.01199819484323233,0.000915352981820522,0.0002059971221331054,-0.002439319946053426
2025/04/09 11:15:46.354482041,1744190146,352160052,piren,-0.0018740620431587456,-0.0324063238036553,-0.012323240169650964,-0.0005765215262790751,0.0004324658691743758,0.0
2025/04/09 11:15:46.413452533,1744190146,411596357,piren,-0.0012747895842764687,-0.0055171263957071726,-0.0001985586399282545,-0.0005829915303719278,0.000620110411703638,-0.00232487077837784
2025/04/09 11:15:46.455931915,1744190146,453822539,piren,-0.0010003710852564702,0.12228624752191321,0.049327045998646846,-0.000853820718706108,0.0007720718060808606,0.0
2025/04/09 11:15:46.514160860,1744190146,512692712,piren,-0.0007969507314764866,0.08279576950074714,0.028360476149172215,-0.0011002203784732125,0.0005247438074094593,-0.00243008263648411
2025/04/09 11:15:46.564677520,1744190146,562945623,piren,0.002816664751266502,-0.06609335061452314,-0.026539439521934112,-0.0010971404772879252,-4.7600035436061114e-05,0.0
2025/04/09 11:15:46.616683175,1744190146,614878787,piren,0.004985424921855944,-0.15113424884337878,-0.07890437987042959,0.0006718530984033001,7.081064318629915e-05,0.0005920791098131366
2025/04/09 11:15:46.666317616,1744190146,663788039,piren,0.002885027851498828,0.008481005050201662,-0.001951353477493793,0.0007572300281774861,0.0001775859756557411,0.0
2025/04/09 11:15:46.717516400,1744190146,715732364,piren,0.0015566264445038818,0.11291171347539282,0.04147108891668479,-0.0008258817229080694,0.00030038964094608334,0.0028505185163903908
2025/04/09 11:15:46.767171873,1744190146,764925625,piren,0.0008572337809088815,0.07731879909221226,0.02518617021003837,-0.0023946834126877697,0.0004064404167516081,0.0
2025/04/09 11:15:46.817566123,1744190146,815847254,piren,2.419975977901084e-05,-0.047860728703972476,-0.023609515276406024,-0.0007825551883861902,0.0005119587033639052,0.0025024878521570913
2025/04/09 11:15:46.859185384,1744190146,857374293,piren,-0.00031168530203309143,-0.025666851352279516,-0.011541114989798179,0.0008248408891241573,0.0005292003527748675,0.0
2025/04/09 11:15:46.913781982,1744190146,909316362,piren,-0.00038167487930354136,-0.025676826552949335,-0.011516798328160703,0.0009250399822370455,0.0016159233336538023,0.003038797874333474
2025/04/09 11:15:46.971964950,1744190146,968597442,piren,-0.01767252449997166,-0.03305165860889666,-0.0129113806266317,-0.0003575313303991867,0.002793084043082832,0.0
2025/04/09 11:15:47.22560644,1744190147,20145902,piren,-0.014024329333756537,-0.013855484896632837,-0.005627178790623477,-0.00012913814081733785,0.003051431453324516,-0.0053704623083397655
2025/04/09 11:15:47.71430679,1744190147,69494899,piren,-0.01070759384349186,0.11953724870888134,0.046825232598932634,-0.00020905028332800365,0.0026107645592565935,0.0
2025/04/09 11:15:47.123861242,1744190147,121073460,piren,-0.004488948498898281,0.0838117373713684,0.027389554054637756,-0.00029489422762183395,0.0019255162673837722,-0.013106740776325614
2025/04/09 11:15:47.172817395,1744190147,170395311,piren,-0.0008587576387953848,-0.06241706136782286,-0.02656955967812145,-0.00014060924721528485,0.0011532788612412062,0.0
2025/04/09 11:15:47.205203717,1744190147,202961419,piren,0.001828972949304162,-0.14648133107472627,-0.07796346731208566,0.0017326797601429442,0.00032764244801189874,-0.0129119814191974
2025/04/09 11:15:47.255740596,1744190147,253012521,piren,0.0018322144795523345,-0.14648310592262972,-0.07796005644018007,0.0018512289833352688,-0.0004878667148365742,0.0
2025/04/09 11:15:47.315166812,1744190147,313288848,piren,0.0037476337123360007,0.11776755485660619,0.042642022989443716,0.0002106860316748743,-0.0012103786778228766,-0.011480775597940023
2025/04/09 11:15:47.371397836,1744190147,366460172,piren,0.0034179695488256697,0.08214677203730064,0.026354825416927137,-0.0014003266121795574,-0.001843331480347353,0.0
2025/04/09 11:15:47.417547800,1744190147,415013899,piren,0.003111970885553765,-0.0441308529049236,-0.022199292016714896,0.00011973031098101387,-0.0024275826475524307,-0.011164828082318853
2025/04/09 11:15:47.457695197,1744190147,455332164,piren,0.0025481721447673474,-0.02363812241296213,-0.01041191543863879,0.0015883481778814,-0.0029250796333669124,0.0
2025/04/09 11:15:47.518434064,1744190147,515788330,piren,0.0025147081356753677,-0.02927540605965639,-0.010742012261632631,0.0014792799925140753,-0.005287000039488572,-0.011015995555617568
2025/04/09 11:15:47.567659436,1744190147,565534165,piren,0.0147123353622393,-0.03513403849947847,-0.012289606307798486,2.2375894515176427e-05,-0.006045558929999468,0.0
2025/04/09 11:15:47.609581114,1744190147,607658334,piren,0.012096407306251757,-0.01753149223539992,-0.005118839036760182,2.019947229186435e-05,-0.005976531113924722,0.0022137099466897608
2025/04/09 11:15:47.684910655,1744190147,682212578,piren,0.009257070140687404,0.11422027216992686,0.0476106394508028,-0.00027370377433455414,-0.005516156088498512,0.002175743251432501
2025/04/09 11:15:47.719224803,1744190147,717453201,piren,0.006152485111685853,0.07684863597667488,0.028512801060964797,-0.0005975541409812299,-0.0047497101091350065,0.0
2025/04/09 11:15:47.769313528,1744190147,767132365,piren,0.0033322072933140738,-0.0709461783048711,-0.02554672079162824,-0.0006631734956873867,-0.0036725694464400283,0.0
2025/04/09 11:15:47.819757322,1744190147,818093524,piren,0.0011442423137747082,-0.15554843861462597,-0.07788119233162308,0.0010605382190781044,-0.0023956025603070873,0.017847763121003543
2025/04/09 11:15:47.869983742,1744190147,868146129,piren,0.0005776988230239077,0.004255075819078714,-0.0007442174462241063,0.0009842804558030677,-0.0009828886437159192,0.0
2025/04/09 11:15:47.922598163,1744190147,920094811,piren,0.0005095472090754264,0.1099587496273033,0.04327776600929474,-0.000734659576007826,0.0005359693435324026,0.02461374246027474
2025/04/09 11:15:47.973674975,1744190147,969938780,piren,0.0015641489397464987,0.07537043566197957,0.02716617541683658,-0.0024371093431324493,0.00199778279548271,0.0
2025/04/09 11:15:48.14119149,1744190148,12326914,piren,0.00019333722054777652,-0.04914161200902231,-0.02188532445057225,-0.0009722133300763546,0.0032454179693292445,0.029735898274701605
2025/04/09 11:15:48.74086398,1744190148,71963960,piren,0.001007429010748729,-0.025586092469655927,-0.009884288866778768,0.0004965846002788269,0.004280652815760675,0.007986707504592232
2025/04/09 11:15:48.114273457,1744190148,112606634,piren,0.002364583675320273,-0.02795860783669153,-0.010207025840154609,0.0005194223767568276,0.005797186899929484,0.0
2025/04/09 11:15:48.157061755,1744190148,152534183,piren,-0.0008560645355453341,-0.0291122845634015,-0.01117820379433254,-0.0008375872203253168,0.006946941101666128,0.0
2025/04/09 11:15:48.214884307,1744190148,213340119,piren,-0.0034505987495834782,-0.008397525119642752,-0.0037131953380895393,-0.0006893935705067719,0.007617040433607371,0.032991498322903746
2025/04/09 11:15:48.266139009,1744190148,264366919,piren,-0.0030423988714786084,0.12649993952799346,0.04810752552817311,-0.0007978432958368638,0.0077890767680851535,0.0066033091021380904
2025/04/09 11:15:48.316218983,1744190148,314533301,piren,-0.000995154181234913,0.09193998149979794,0.02778108566661761,-0.0008889157131831614,0.007406467113218125,0.0
2025/04/09 11:15:48.366598161,1744190148,364800826,piren,0.0007800761855410284,-0.052986845829504504,-0.026586473794641758,-0.000841271736964312,0.006616090131415474,0.0
2025/04/09 11:15:48.417847506,1744190148,415499312,piren,0.0002668682448930994,-0.13379448542738928,-0.07589045468191503,0.0011555068664960233,0.005511145647159665,0.033852972606194506
2025/04/09 11:15:48.457090688,1744190148,455251756,piren,0.001540813439500204,0.027576274600130683,0.0012841220569728491,0.0019056036495230853,0.004051922307371865,0.0
2025/04/09 11:15:48.518241973,1744190148,516364490,piren,0.0017082769221645907,0.12579730654963253,0.040524613439459414,0.0006222733072609358,0.002405049769189245,0.03152650421130506
2025/04/09 11:15:48.560292878,1744190148,556875262,piren,0.00278448963678,0.08129455178231983,0.025611051147227736,0.00011590852975649693,0.0006600819245175033,0.0
2025/04/09 11:15:48.619129314,1744190148,616880768,piren,0.002317213475659753,0.05829740138592085,0.018175343534794223,0.00028152938028041955,-0.0010738977323498371,0.02990298566542602
2025/04/09 11:15:48.668569382,1744190148,666653033,piren,0.002911764346274942,0.040979010011758486,0.012459905902712195,0.0006045895980150141,-0.0027163351401962954,0.0
2025/04/09 11:15:48.711521963,1744190148,709653621,piren,0.002035705430633876,0.0248772756371446,0.006915068105338859,0.0005157794061016934,-0.004012062408744324,0.02960478470910403
2025/04/09 11:15:48.770559386,1744190148,768275014,piren,0.0011904159632272974,0.007428113868373458,0.0007474305706228111,0.000540685040583019,-0.005023103334254402,0.0
2025/04/09 11:15:48.811680017,1744190148,810099795,piren,-0.0005925590947590288,0.003179399360331332,-0.0001264609353202525,0.0006013251134308376,-0.005692381127976979,0.02695848567839876
2025/04/09 11:15:48.871031878,1744190148,869173983,piren,-0.000974021161911213,-0.0009752152636722678,-0.0010599633559636391,0.00045285290957295066,-0.00604273385978735,0.0
2025/04/09 11:15:48.922711025,1744190148,920631894,piren,-0.002538760554477881,-0.009549854552554244,-0.003942950425081303,0.00042072699136513447,-0.006021625010358117,0.02531254054430694
2025/04/09 11:15:48.972125985,1744190148,970361036,piren,-0.002778316126643395,-0.009001507009390026,-0.0031360334576464553,0.0005092446505483631,-0.005665858364521186,0.0
2025/04/09 11:15:49.23881338,1744190149,22054273,piren,-0.003782726595469734,0.0015194475530935499,0.001814747843401487,4.186918871915203e-05,-0.004957782920876653,0.022872504217652852
2025/04/09 11:15:49.53461417,1744190149,51347451,piren,-0.0037830440748775757,0.0015370989244782305,0.0017991541128285539,-0.00016073438033916004,-0.004074605525939418,0.0
2025/04/09 11:15:49.115173041,1744190149,113202830,piren,-0.003860709670213708,-0.035490927629126444,-0.010859731704118022,-0.0008477948881696538,-0.0027904634959720807,0.022043939671289214
2025/04/09 11:15:49.166121534,1744190149,163189208,piren,-0.00484901711914464,-0.12525902716724613,-0.06221355457337918,0.0003872628385622969,-0.001281444836354982,0.0
2025/04/09 11:15:49.217196954,1744190149,215254504,piren,-0.005837266422715799,0.023147182784251413,0.006162528258936024,0.0005107648228069344,0.00018513961697367654,0.01976389165123781
2025/04/09 11:15:49.266085942,1744190149,263969384,piren,-0.005304455217918942,0.010283641313831257,0.0022625852548687026,-0.0009909312151664483,0.0015842785255703931,0.0
2025/04/09 11:15:49.316470306,1744190149,314760080,piren,-0.0051958009505929225,-0.09559724061889763,-0.0484322694250804,0.00019180069994291526,0.00277370554538446,0.018840989249245
2025/04/09 11:15:49.368464732,1744190149,365719256,piren,-0.0032339146668571035,0.018649749657084314,0.00483284386089991,0.000938598446165552,0.003755249053132546,0.0
2025/04/09 11:15:49.418479860,1744190149,416684838,piren,-0.0025945274862610645,0.06877404138793708,0.02647532705771531,-0.000621639323874191,0.0045247442111418686,0.017699509606476378
2025/04/09 11:15:49.468115996,1744190149,465927005,piren,-0.0007472549582590725,0.053031524683001485,0.02167259453219906,-8.865422673075797e-05,0.004938400196098252,0.0
2025/04/09 11:15:49.509102016,1744190149,507317471,piren,7.002180881950241e-05,0.058291278129897844,0.025786447909598803,0.0002395422931050583,0.005028000183360946,0.016210948521452443
2025/04/09 11:15:49.558789849,1744190149,556483084,piren,6.891315214947695e-05,0.058475357010605314,0.025366252745034745,0.00012407013779827065,0.00484674689466437,0.0
2025/04/09 11:15:49.619182293,1744190149,617457464,piren,0.0024386530962532023,0.09876555181924394,0.042321876523406216,0.0009649351744308235,0.004362259974310057,0.015070044263412984
2025/04/09 11:15:49.660628617,1744190149,658794932,piren,0.0038608872723873214,0.10387880100736956,0.04085255211275697,0.0004782896122011642,0.0036173503472195514,0.0
2025/04/09 11:15:49.721740808,1744190149,718952283,piren,0.004254051742220022,0.051094719538234794,0.019899927367906644,0.0002946211282815072,0.0026832784951615757,0.013524638582256308
2025/04/09 11:15:49.770247078,1744190149,768602657,piren,0.005258527946957922,0.03564253074329048,0.014739133405791211,0.0004940126723127271,0.0016138886207333314,0.0
2025/04/09 11:15:49.811605966,1744190149,809622762,piren,0.00526105298807312,0.03609559864334842,0.013590925190878126,0.0014091347357909542,0.0004978157941152549,0.011927130036503931
2025/04/09 11:15:49.872980279,1744190149,869296518,piren,0.005776683791721987,0.017457468854147975,0.004528528748543556,-0.00019528994649136209,-0.0005992921201224941,0.0
2025/04/09 11:15:49.913372155,1744190149,910822828,piren,0.005776516345677126,0.017072358724214018,0.0058144039719780554,0.00025789780573111826,-0.0016812366892789922,0.009547180311482552
2025/04/09 11:15:49.964749004,1744190149,961419305,piren,0.005882271276246599,0.025259206576810463,0.011026792617091516,0.0010609627243448377,-0.002602794608687885,0.0
2025/04/09 11:15:50.26158384,1744190150,24330473,piren,0.005560102767305563,0.11044291837684604,0.04146507421767556,0.0007364936329816596,-0.0028616751140870867,0.010123086465417121
2025/04/09 11:15:50.63181530,1744190150,61678011,piren,0.0021124716458775926,0.04680917862282359,0.014844764973658737,-0.00018092436943628352,-0.0031851665106657832,0.0
2025/04/09 11:15:50.115760565,1744190150,114211309,piren,0.0034863930403710107,-0.07217482489155903,-0.038057266498631614,0.0013817397362906056,-0.003632068607798889,0.006182178081772369
2025/04/09 11:15:50.155867352,1744190150,153553826,piren,0.004434890065330899,0.03825804182661214,0.012002207372543629,0.0015251841317515365,-0.0038842367338492493,0.0
2025/04/09 11:15:50.216077881,1744190150,213853690,piren,0.0052231804912168224,0.010476062379919807,0.0033149740383486876,0.0011282926316418522,-0.0035316750537171906,0.004130015830684214
2025/04/09 11:15:50.265782951,1744190150,263505629,piren,0.0024134836337792375,0.002258437036244371,0.0018460175800364324,0.00047874308910008176,-0.0028401476046396837,0.0
2025/04/09 11:15:50.316708268,1744190150,314884595,piren,0.0017773601028165966,-0.04226465821922586,-0.012159890198623367,0.00025724319789914606,-0.002235006408535798,0.0005357301660424822
2025/04/09 11:15:50.367756943,1744190150,365244127,piren,0.004609582109767594,-0.17190771689273088,-0.06003942340829538,0.000265541277368596,-0.001738120088730329,0.0
2025/04/09 11:15:50.419051330,1744190150,417003779,piren,0.006891096413157377,-0.24879422880121105,-0.08904147186066744,-0.00010185677343993648,-0.0011613683606261189,-0.0034487283293102677
2025/04/09 11:15:50.467986119,1744190150,466089636,piren,0.00882510277830038,-0.28411369570129436,-0.10280357725874198,-0.0005486323411703182,-0.0004487259580730479,0.0
2025/04/09 11:15:50.519659819,1744190150,517513589,piren,0.01032072409158264,-0.2847024035223694,-0.12010601488501518,0.0009925582034791386,0.0001919103659182694,-0.0038276908908109145
2025/04/09 11:15:50.562382870,1744190150,558822453,piren,0.012096097854118918,-0.17644501082405978,-0.08236177664996264,0.0027101469821783552,0.0008025558243993181,0.0
2025/04/09 11:15:50.621635979,1744190150,619048532,piren,0.014283705146668291,-0.009340070808482934,-0.002318384919662023,0.001286064629643673,0.0014401948902574315,-0.003768169913837479
2025/04/09 11:15:50.660196311,1744190150,658447071,piren,0.016364795588282414,-0.00397885759966995,0.0022550211371812332,2.5724340222955704e-05,0.001931891183921833,0.0
2025/04/09 11:15:50.722049021,1744190150,719985618,piren,0.01836606469221815,0.014254832114734,0.01129953629804859,0.0005869526287554726,0.00212506060399874,-0.004006009592216585
2025/04/09 11:15:50.772534056,1744190150,770426985,piren,0.02155495782781195,0.015908928497066127,0.013710005094366682,0.0011034395194347416,0.0022420300307437594,-0.0006164758100810626
2025/04/09 11:15:50.822716697,1744190150,820814698,piren,0.023731111047831564,0.10322171513659521,0.04398048485295267,3.219316165848261e-05,0.002242814952496078,0.0
2025/04/09 11:15:50.862909392,1744190150,860856422,piren,0.02609690585890065,0.016709279830923213,0.011445168950375752,0.0020935072603413545,0.0022788407775093714,0.0
2025/04/09 11:15:50.924012079,1744190150,922293982,piren,0.027215498837543532,0.038910415228722094,0.023848430348199848,0.0005844664970223837,0.002284224108116976,-0.003332173599455121
2025/04/09 11:15:50.974355103,1744190150,972496592,piren,0.028526604670916812,0.13952776170892903,0.05936041978440904,2.54458084757927e-05,0.001532883666685822,0.0
2025/04/09 11:15:51.10388534,1744190151,8537849,piren,0.03489392676306127,0.0801080839697253,0.042232621314329456,0.0005738305197040343,0.0005553929530923889,-0.007671613200712913
2025/04/09 11:15:51.66504399,1744190151,64576930,piren,0.03950513371860306,0.1521516710609537,0.07249445950807515,-0.0008022866821858673,-0.00037839992446152536,0.0
2025/04/09 11:15:51.120139230,1744190151,116088685,piren,0.04312827283253247,0.16700211347779662,0.08156120047706719,0.0008603864913869768,-0.001172702513450619,-0.007575282996058716
2025/04/09 11:15:51.160615355,1744190151,158295725,piren,0.045073774491295376,0.19424490855105658,0.07670041047359212,-3.0057358521133643e-05,-0.001992778506996744,0.0
2025/04/09 11:15:51.210492673,1744190151,208237870,piren,0.04508010189842049,0.19734744117143302,0.06831877112209961,-0.000726441840501082,-0.0026618307781709877,-0.006952015921314413
2025/04/09 11:15:51.273322757,1744190151,270900438,piren,0.04921969745957611,-0.15158010102844283,-0.07419543994273607,0.0008771756335128491,-0.0031897441156210557,-0.0011958844068489167
2025/04/09 11:15:51.323098964,1744190151,320874297,piren,0.05097866723344513,-0.030733623485841823,-0.011031395978785007,-0.0016482959671510595,-0.0034874302770199466,0.0
2025/04/09 11:15:51.362850461,1744190151,360750640,piren,0.05257976992772438,-0.14583488198065334,-0.04967320896577969,-0.0002417465156731709,-0.003589701453220668,0.0
2025/04/09 11:15:51.413177311,1744190151,411603867,piren,0.05255064353769676,-0.13854155520889894,-0.06741320375857454,0.0003463542604238436,-0.0034920673542247747,-0.00557039166119726
2025/04/09 11:15:51.479116641,1744190151,474715483,piren,0.05626958584979773,0.09967613571354234,0.04276891008073224,-8.039676506022978e-05,-0.003164089686555343,0.0
2025/04/09 11:15:51.514752567,1744190151,513092278,piren,0.05890079010333099,0.04150875025621427,0.022684407108344712,0.0005823008908675621,-0.002614055890572964,-0.004285379182648836
2025/04/09 11:15:51.567335013,1744190151,564279011,piren,0.06088163082613702,-0.005763739757513135,0.0059734579773489315,-0.0006602585246348213,-0.0018880185024741996,-0.0005627459513807236
2025/04/09 11:15:51.615859568,1744190151,614125430,piren,0.06287490859711072,-0.01881164972789589,0.002128615192258069,-0.0007337750759164138,-0.0010673171086933437,0.0
2025/04/09 11:15:51.666602075,1744190151,664589117,piren,0.06514116753922028,-0.024434231938472325,0.0008332803516993805,0.000762323463642397,-0.00019752646642269198,0.0
2025/04/09 11:15:51.716690190,1744190151,715021141,piren,0.06767181830362644,-0.04673862010886582,-0.005439272285959132,-0.0005012379042225638,0.0008878101629081497,-0.0017382054632430182
2025/04/09 11:15:51.767758328,1744190151,765590467,piren,0.06992420970404958,-0.1625348991296385,-0.05223219326035529,-0.00045779873075663834,0.0016893923234903498,0.0
2025/04/09 11:15:51.817331068,1744190151,815553676,piren,0.07305203164974411,-0.19885891202785805,-0.08943675743580648,0.0011326031726141541,0.00231375381830342,-0.002053200445458241
2025/04/09 11:15:51.868127620,1744190151,866150084,piren,0.07631622925526178,-0.041307578700403545,-0.011258619075701781,1.4428111065547147e-05,0.0028185382399425886,0.0
2025/04/09 11:15:51.918719120,1744190151,916936441,piren,0.07958550635738051,-0.1007096479254226,-0.03972945404010775,-7.41153050610168e-05,0.0031385213724303062,-0.0016906858133206243
2025/04/09 11:15:51.969526551,1744190151,967493869,piren,0.08288829249456085,-0.03444775067389065,-0.008816549343172617,0.00031453815517162956,0.0032946559633986582,-0.0001937413304739266
2025/04/09 11:15:52.20549323,1744190152,18902271,piren,0.08582156793322912,-0.026152370244380933,-0.0037475412564835662,0.00029426123754228877,0.003197183130142653,0.0
2025/04/09 11:15:52.70686073,1744190152,68429575,piren,0.08942397209621754,-0.0723224982038259,-0.02898434907281506,0.0017251525641459472,0.002919529518816948,-0.00018380573323093102
2025/04/09 11:15:52.121104802,1744190152,119364463,piren,0.09280418855050662,0.04931438990034864,0.027039896225915797,0.0010974972063583527,0.0026850174902393596,0.0
2025/04/09 11:15:52.161579484,1744190152,159044827,piren,0.09588829851934103,0.13616323902460148,0.061559244581507064,-7.203214870560719e-05,0.0020383272121309447,0.0
2025/04/09 11:15:52.224209370,1744190152,221851516,piren,0.09953322072819884,0.12657899971227238,0.055116385808418725,-0.001051251126900039,0.0013645821902724489,-0.0022218295914566985
2025/04/09 11:15:52.276888705,1744190152,274196753,piren,0.1027644295644,0.0726961085267405,0.02921548952346891,-0.001312367152788505,0.0005746089222465691,-0.00037946832486558267
2025/04/09 11:15:52.324353264,1744190152,322293829,piren,0.10566214173492434,-0.07145054058505455,-0.029939778641917273,-0.0009656754545801027,-0.0003335908327324485,0.0
2025/04/09 11:15:52.377037584,1744190152,373173432,piren,0.10861298218725542,-0.03416066291929281,-0.009253747522946928,-0.0013968315480654035,-0.0011138296415125432,-0.00021182491489846447
2025/04/09 11:15:52.426484026,1744190152,424031092,piren,0.11151423717749098,-0.14259647885599686,-0.05086073525100525,-0.0024645646195494823,-0.0018103731976075847,0.0
2025/04/09 11:15:52.465786811,1744190152,463844257,piren,0.11519746507490712,-0.19066903712856223,-0.07834226504701898,0.0002591761295894783,-0.0023849938406315615,-0.0001831965769020992
2025/04/09 11:15:52.517003568,1744190152,515190735,piren,0.11846339830487117,-0.1308452316088172,-0.05786897216197003,3.364628239798145e-05,-0.0028229115519454017,0.0
2025/04/09 11:15:52.568780644,1744190152,565704727,piren,0.12145861165417238,-0.0079048050322792,-0.00012360744390757424,-0.000842280817316996,-0.003064069195122098,-0.00010820043630703212
2025/04/09 11:15:52.617718275,1744190152,615931426,piren,0.1242696955735404,0.0025254264099050065,0.006173138308596007,0.0005837666348429377,-0.0031229631913157834,0.0
2025/04/09 11:15:52.668667667,1744190152,666108495,piren,0.12694879794393238,-0.009875955715972731,0.0017810748906848606,0.0007459122844635983,-0.0029876308895938836,-7.426269845032888e-05
2025/04/09 11:15:52.707882449,1744190152,705974191,piren,0.12973703793576316,0.10082135187832399,0.04934122185023422,0.00021070628841555507,-0.0026667638800231858,0.0
2025/04/09 11:15:52.769700558,1744190152,767050106,piren,0.13250610466685817,0.11574062624698518,0.051146656931363874,-2.097667403127882e-05,-0.002188705193305899,0.0
2025/04/09 11:15:52.819922644,1744190152,818206630,piren,0.1352698383314425,0.03808179403982162,0.02096573704844674,-0.0004348801114862321,-0.0015957144997418556,-0.00020854311900645058
2025/04/09 11:15:52.871902146,1744190152,870164982,piren,0.1379330229682963,-0.025523206650244663,-0.003961039641405178,0.0010907616331435573,-0.0009193330141779143,-2.045349504416925e-05
2025/04/09 11:15:52.923782539,1744190152,921279125,piren,0.1406430391839441,-0.039802584755915776,-0.00883097733081413,0.0005269932272325299,-4.5719277068443655e-05,0.0
2025/04/09 11:15:52.975113904,1744190152,972518321,piren,0.14308647691945992,-0.06650309672080555,-0.016714890327229417,-0.0011511501023270033,0.0007058289408413196,-8.891870164527273e-06
2025/04/09 11:15:53.14781641,1744190153,12308195,piren,0.1430889134904202,-0.06521781757190173,-0.02116573685512644,-0.000664083502539488,0.0013579407477084286,0.0
2025/04/09 11:15:53.65981523,1744190153,62071197,piren,0.150051896724008,0.003687876973257149,0.008141799459929454,-0.0007869257000577937,0.001947792050222585,0.0
2025/04/09 11:15:53.126737955,1744190153,124551554,piren,0.15311415580552254,0.009027821150566238,0.010754193778321828,0.001242771444105148,0.0023976075180864626,7.910883447155525e-05
2025/04/09 11:15:53.166297346,1744190153,164404733,piren,0.15763800591328198,0.11003422447794814,0.04279182015830008,8.626222607239256e-05,0.002712450768164358,5.124822976083346e-05
2025/04/09 11:15:53.218983257,1744190153,215788734,piren,0.16177875153769203,-0.019811267545195098,-0.007252424485505756,-0.00020031610664324726,0.002865123038533848,0.0
2025/04/09 11:15:53.268682901,1744190153,265444698,piren,0.16566360706763744,-0.015873462022138393,-0.004942958984820693,-0.00011483043670592242,0.002851141414957543,6.855703561059268e-05
2025/04/09 11:15:53.307251286,1744190153,305105006,piren,0.1689201222246913,0.04192689994562782,0.02222328886717084,0.0011149190052744578,0.0026500415717457273,0.0
2025/04/09 11:15:53.367988018,1744190153,366428132,piren,0.17231731122596392,0.12544531200528786,0.04970870397129337,-0.0002272954758850189,0.002310372704920034,0.0
2025/04/09 11:15:53.419954452,1744190153,418208960,piren,0.1753574078948587,0.04211512862468202,0.019728658438106422,-4.739374334564487e-05,0.0018397003156428316,0.0004852981128511259
2025/04/09 11:15:53.472665193,1744190153,470903658,piren,0.17840751125429968,0.0672082305737433,0.028808803154635115,2.7550645343424053e-05,0.0012980166208394813,0.00010596067517862161
2025/04/09 11:15:53.521999667,1744190153,519248590,piren,0.18117287791496778,0.021744739672262526,0.010828283622379588,0.000600353376014737,0.0006591625835171604,0.0
2025/04/09 11:15:53.571783333,1744190153,569192477,piren,0.18387284945058863,-0.01717695960321014,-0.004524456482357929,0.00039032354455429243,-1.0677655063005729e-05,0.0
2025/04/09 11:15:53.623568837,1744190153,621412085,piren,0.18653780340949078,-0.03805173784394509,-0.01534857738488734,0.0010437348734048191,-0.0006745908987176852,0.0005861545698777714
2025/04/09 11:15:53.661273939,1744190153,659235395,piren,0.18919793495078513,0.05876408995213945,0.027030927361942826,0.00034395218811258564,-0.0013104200547275245,0.0
2025/04/09 11:15:53.723488021,1744190153,721590746,piren,0.19195700546256222,0.07804350845575496,0.03860763553157093,0.0003136997966789879,-0.0018369894774569193,0.0006701632381400505
2025/04/09 11:15:53.762848854,1744190153,760717218,piren,0.1945531407837896,0.13481604489639423,0.06435710639729245,0.00013051221364325207,-0.002257668421416826,0.0
2025/04/09 11:15:53.824729232,1744190153,822788692,piren,0.19690699001400552,0.172148656212541,0.06956086805786726,-0.0008895633074730983,-0.0025166742789218964,0.0007524567861542658
2025/04/09 11:15:53.869890624,1744190153,863579566,piren,0.19939066111317985,0.0791122323386658,0.03472312693485565,-0.001085767516832422,-0.002625252860018315,0.0
2025/04/09 11:15:53.925977950,1744190153,923491910,piren,0.2015895962535666,0.0370395189070951,0.01911084034536632,-0.0005968845749409436,-0.0026589688631145263,0.0008213489108356218
2025/04/09 11:15:53.977232353,1744190153,974741238,piren,0.20401002478093003,0.03139847667645406,0.01652257444688926,-0.00045499265555103363,-0.0024327223765180724,0.0002752394034123037
2025/04/09 11:15:54.19760837,1744190154,17936036,piren,0.20709528535646077,-0.02103840714359526,-0.003968570066085683,-8.215136957392651e-05,-0.00219255279209994,0.0
2025/04/09 11:15:54.59675695,1744190154,57888003,piren,0.21063378840902516,-0.0585226409389607,-0.015625791223431218,-0.001225965232662766,-0.001643297925324399,0.0
2025/04/09 11:15:54.122635552,1744190154,120731670,piren,0.2112291109838605,-0.17300646187174645,-0.07353244054055141,-0.0005493194839377729,-0.0008150877753654045,0.0029305879956331208
2025/04/09 11:15:54.172343640,1744190154,170409757,piren,0.2133660236113622,-0.10967650462497432,-0.03689237987265869,-0.0005972405516072257,-2.626776411378243e-05,0.000690552676389291
2025/04/09 11:15:54.224863824,1744190154,221902163,piren,0.21569187805820778,-0.1745016472773835,-0.06947319297974765,-0.0010133634715348216,0.0007467485813819266,0.0
2025/04/09 11:15:54.261523657,1744190154,259386629,piren,0.21569111257810608,-0.16985337334018333,-0.08017176077259043,0.000788778095236206,0.0014668867725527435,0.0
2025/04/09 11:15:54.326070552,1744190154,324204989,piren,0.22027614418151542,0.07730476024905614,0.02562228444352746,-0.0005729151123990771,0.002648229511043663,0.004607125077975543
2025/04/09 11:15:54.375414722,1744190154,372807672,piren,0.2225533192257041,-0.08393380186225803,-0.03829260160393794,-0.000738554072725618,0.003018386856178574,0.00026603311685645495
2025/04/09 11:15:54.426075821,1744190154,423230653,piren,0.22606378914073685,-0.06206159928542418,-0.02208868108682368,-0.0011891231469325393,0.00314375066344944,0.0
2025/04/09 11:15:54.476544339,1744190154,474508002,piren,0.22953693630331742,-0.13986607133364465,-0.05858107420519098,6.659741988527177e-05,0.003087627731581665,7.384958726236529e-05
2025/04/09 11:15:54.527637857,1744190154,524994659,piren,0.23198752387505203,-0.09662861199971522,-0.03878841446544845,-0.0003907745075784375,0.002845149307656915,0.0
2025/04/09 11:15:54.567359514,1744190154,564795856,piren,0.2364717685881738,-0.058678627774025605,-0.022528865766711058,0.0007662508814784518,0.0024459421315685555,0.0
2025/04/09 11:15:54.619021099,1744190154,616788291,piren,0.23944970378854086,-0.005045431694640661,0.0017133527804488926,-0.0004043277832264699,0.0018860501281124482,0.00016879488278261607
2025/04/09 11:15:54.671428347,1744190154,669677218,piren,0.24225542009564097,-0.11149619536788492,-0.054371817573520366,0.0011093259484608663,0.001243354582222193,4.682008115780174e-05
2025/04/09 11:15:54.707867024,1744190154,705983398,piren,0.24225901952258208,-0.11268442874353247,-0.05184758116034153,0.00039750102632716427,0.0005409105098799762,0.0
2025/04/09 11:15:54.770116151,1744190154,768356179,piren,0.24625812462765928,0.06564062774835643,0.03263460753355598,0.0012692765513202134,-0.00021460423867607892,2.9101588718650078e-05
2025/04/09 11:15:54.822250527,1744190154,819804797,piren,0.24758516731767038,0.14974731286187307,0.061964948057219006,-0.00029929084509957036,-0.0009072120838882957,0.0
2025/04/09 11:15:54.861959685,1744190154,858235259,piren,0.24904104280966363,0.09418161881019094,0.04434457291082645,-5.715264690331069e-05,-0.0015532552365137029,0.0
2025/04/09 11:15:54.911751791,1744190154,910113868,piren,0.25000996905101874,0.11510918769506974,0.042665345313362295,-0.0013685423631496771,-0.0020885564257056744,-3.180581331291662e-05
2025/04/09 11:15:54.976134932,1744190154,972299312,piren,0.25129284131553575,-0.044135088533453146,-0.01741079762344425,-0.0009371069778988515,-0.002501174704600154,-3.5548653354298214e-05
2025/04/09 11:15:55.26111913,1744190155,23469883,piren,0.2522031644411105,-0.07765433965885987,-0.02642130607777766,-0.00048185668482610773,-0.0027791342381442655,0.0
2025/04/09 11:15:55.76498110,1744190155,74509225,piren,0.25316721975374284,-0.13860469381018095,-0.06528855194620664,0.0010613898171797015,-0.0028822104128093397,-6.34278739801391e-05
2025/04/09 11:15:55.105808109,1744190155,104159034,piren,0.2531599461688148,-0.13859887052571543,-0.06532910579584876,0.0010054435513553632,-0.002793198286464179,0.0
2025/04/09 11:15:55.168272872,1744190155,166345927,piren,0.25858320364332976,0.09867989304870338,0.04274817835826993,-0.0004555234423121483,-0.0025480834585272856,-8.943932773284272e-05
2025/04/09 11:15:55.219423868,1744190155,216908882,piren,0.2608794028655499,0.07449611640838055,0.03507318817939498,-0.0012612729304770822,-0.002144473126972723,0.0
2025/04/09 11:15:55.269078890,1744190155,267227002,piren,0.2629711565872715,0.05317073458903416,0.027400524046007083,-0.001153572993837393,-0.0016245742039171114,-0.000119790448641666
2025/04/09 11:15:55.321906253,1744190155,318233501,piren,0.2644948784414037,0.026372648559737553,0.015292098337732991,-0.0014063007348822205,-0.0010221158629330788,0.0
2025/04/09 11:15:55.371066249,1744190155,368563359,piren,0.2662386102243071,-0.11077933884724449,-0.03574002320236516,-0.0012304123134824635,-0.0003616756746157553,-0.00014548411485907104
2025/04/09 11:15:55.420903209,1744190155,419303313,piren,0.2674384235643236,-0.197035340426851,-0.06621418269273051,3.204123822698726e-07,0.00030035680228579763,0.0
2025/04/09 11:15:55.475801276,1744190155,470483377,piren,0.26883879021321344,-0.24776270457511007,-0.11938801077332431,0.0018725379425532725,0.0009251536082821683,-0.00016430449426126177
2025/04/09 11:15:55.523372273,1744190155,521710992,piren,0.2702881854390177,-0.06610957310356456,-0.032735422039102284,0.0005604443779087395,0.0015142242337523265,0.0
2025/04/09 11:15:55.574586505,1744190155,572584019,piren,0.27208211646880937,0.06884103456334903,0.03326320307653661,-0.0005784169050690191,0.0020085489003662995,-0.00018417566977572397
2025/04/09 11:15:55.624831672,1744190155,623303235,piren,0.27364689037130424,0.16870786003028165,0.07980482010629153,0.0007127555648190157,0.0023100029038489634,0.0
2025/04/09 11:15:55.676329882,1744190155,673464255,piren,0.27580593757125577,0.2205837555667134,0.07483923999991438,-0.0006852436949178765,0.0024522616385200076,-0.000148300559837972
2025/04/09 11:15:55.725597761,1744190155,723704522,piren,0.27784334196342786,0.014435055719396924,0.003612966484206079,0.000127231013081712,0.0024085713791894533,0.0
2025/04/09 11:15:55.761110165,1744190155,757064656,piren,0.28159989093150645,-0.007188671279348772,-0.0015697724831347988,-0.0015988654441037075,0.002304272415368333,0.0
2025/04/09 11:15:55.823411124,1744190155,817722044,piren,0.28410718313347766,0.003226814524297019,0.005154458630003131,0.00014714781076880635,0.00199442140096548,-0.0002977465846818109
2025/04/09 11:15:55.878495932,1744190155,876102591,piren,0.28521208369265905,-0.011905313844063292,0.0002198200112000664,0.0003202429558474222,0.001618839170202026,5.217734905742884e-05
2025/04/09 11:15:55.926782804,1744190155,924064330,piren,0.2862044034929296,-0.022209313511478385,-0.0024252408772663728,-0.0008414789473074516,0.0011601767943560106,0.0
2025/04/09 11:15:55.977284267,1744190155,975218819,piren,0.2873101983828801,-0.10350390944634509,-0.04080637168538961,-0.0006316654750789396,0.0006480046505068773,0.0
2025/04/09 11:15:56.17571363,1744190156,15725858,piren,0.2893725521987202,-0.04975059937952609,-0.016036174306781125,0.00039574128973233905,0.0001422351969372976,0.0005850765208529956
2025/04/09 11:15:56.60560342,1744190156,58132124,piren,0.29171934563294727,-0.04066724742688563,-0.009346853809521884,-0.0005153854692122728,-0.0004993224710197016,0.0
2025/04/09 11:15:56.110840734,1744190156,108886140,piren,0.29171894919548985,-0.0399408131208303,-0.012089310710588672,0.0001944609683630995,-0.0011155747148410438,0.00025442445978047325
2025/04/09 11:15:56.174697111,1744190156,171304541,piren,0.2944865358934434,0.009124536470724785,0.008403139892853689,-0.0001583881600511355,-0.001655972419435639,0.0
2025/04/09 11:15:56.215223463,1744190156,213463915,piren,0.297027056380711,-0.07266316079595588,-0.03217166121481788,0.0009525744452908775,-0.002052269201031649,2.219949794351302e-05
2025/04/09 11:15:56.257427995,1744190156,255325270,piren,0.2984005299322771,0.05921542744585754,0.024916640026879513,0.0007421260344182668,-0.0022932467100151696,0.0
2025/04/09 11:15:56.310056986,1744190156,307971106,piren,0.29873944641664,0.02961176150788103,0.01441467746263069,0.0008023437306691868,-0.002344116773126803,0.0006383180674106736
2025/04/09 11:15:56.372731282,1744190156,370640900,piren,0.2991045207529381,0.007623810964666008,0.006643065641697966,0.0008024414029378198,-0.0022813196456407496,0.00023668759337069304
2025/04/09 11:15:56.412116874,1744190156,409691338,piren,0.29977041617066125,0.00281194246941597,0.005421986631839643,3.1408415076611044e-05,-0.0020767770635776823,0.0
2025/04/09 11:15:56.473530258,1744190156,471320779,piren,0.30057143685508925,-0.0020275000400936413,0.0038503713300710785,-0.000329695049437426,-0.0017503079565445087,0.00031198452927343277
2025/04/09 11:15:56.524018133,1744190156,522082484,piren,0.30100701752897563,0.029766685617965406,0.019080695242980374,0.0011145199942150352,-0.0013529322418193682,0.0
2025/04/09 11:15:56.574752009,1744190156,572654964,piren,0.30200089909870415,0.1185482517578194,0.051556221328558326,-0.00010961464769390641,-0.0008762442160175044,0.0004223598971035995
2025/04/09 11:15:56.626328510,1744190156,623419118,piren,0.3030366549637172,0.07185945871688014,0.036396376284013425,0.0004393732910480432,-0.0003516647606617832,0.0
2025/04/09 11:15:56.662698319,1744190156,660569380,piren,0.30429502502427824,0.11042146821810771,0.05194758916038241,0.00033100837506189846,0.0001878036338712923,0.0
2025/04/09 11:15:56.726016353,1744190156,724111373,piren,0.3055637696099914,0.1117620427775374,0.050903360110492256,-0.00015962548206224517,0.0007448223281475336,0.002626980830721904
2025/04/09 11:15:56.776671276,1744190156,775078213,piren,0.30721030422927004,0.08211615805018846,0.04264954303992134,0.0002184663055548822,0.0012340512748407774,0.0005803254436095161
2025/04/09 11:15:56.827473381,1744190156,824907558,piren,0.3086086011722347,0.13682874971162282,0.06603737272353552,0.0002900394664482718,0.0016637278004846623,0.0
2025/04/09 11:15:56.864307134,1744190156,861952131,piren,0.30860861434678394,0.13729858790785554,0.06505483049569298,0.00098979360253923,0.001985171974081418,0.0
2025/04/09 11:15:56.928594005,1744190156,926336609,piren,0.31157460659023134,0.15942713432969605,0.06365414395925391,-0.00022474534886597977,0.0021975352558018493,0.0032723503992526624
2025/04/09 11:15:56.956132276,1744190156,954517326,piren,0.3159054986467083,0.05684922319560932,0.020354099799184164,-0.002664480454464761,0.002297145866706279,0.0
2025/04/09 11:15:57.8280457,1744190157,6488965,piren,0.31591996229370806,0.05705346706246066,0.01954192805993181,-0.0009972263846312682,0.002060320571459018,0.003207355360479904
2025/04/09 11:15:57.74763985,1744190157,72429919,piren,0.3186731504515605,-0.23104291374709512,-0.09078985220368145,0.0003720172561026951,0.0020421886986032815,0.0009321263302112569
2025/04/09 11:15:57.111499317,1744190157,108091830,piren,0.31866645271245936,-0.22935245830487294,-0.09500180977121607,-0.0006504715412561365,0.001895651065955182,0.0
2025/04/09 11:15:57.174720200,1744190157,171623687,piren,0.32190508811646384,-0.19777863128622353,-0.06884756431429095,-0.0007780947992020228,0.0016229563074758979,0.0009379526363536243
2025/04/09 11:15:57.225712958,1744190157,223726993,piren,0.3229475639728532,-0.25373787753136673,-0.0931977530943249,-0.001878801266565718,0.0011848789573826017,0.0
2025/04/09 11:15:57.278027214,1744190157,275467475,piren,0.3239484209647491,-0.2509875293057769,-0.12722389679337595,-2.013549607000632e-05,0.0007141071986753106,0.0010713359354035375
2025/04/09 11:15:57.329410829,1744190157,327345064,piren,0.32441398030351565,-0.03771649588060602,-0.021753208158949485,0.001360974895851934,0.00017052477898650147,0.0
2025/04/09 11:15:57.379935770,1744190157,376923761,piren,0.32569294361145773,0.04648113464582012,0.017290805617034825,0.0005632463806203824,-0.0004117425616114151,0.0
2025/04/09 11:15:57.421303101,1744190157,419683357,piren,0.3294968659209758,0.0308118278865913,0.01587151250208114,0.0013190134235553375,-0.0009836836859745972,0.0043265852575868
2025/04/09 11:15:57.470014444,1744190157,467075756,piren,0.3324506535622672,0.13288003450955235,0.054801426175223884,0.00039765052997367133,-0.0015226326293871046,0.001146254213918931
2025/04/09 11:15:57.519857758,1744190157,517078440,piren,0.3344836302590074,0.08206053597221646,0.04209650060205341,0.001112626487667616,-0.0019628847842115163,0.0
2025/04/09 11:15:57.570713135,1744190157,568250196,piren,0.3359018386791371,0.16193686469643323,0.06757509023717835,0.0003900806143521709,-0.0023026163449988927,0.0012017626722877449
2025/04/09 11:15:57.620463485,1744190157,618523537,piren,0.3365589866406071,0.09384710115884679,0.041454162528332575,0.0006137339389083486,-0.002480538970452272,0.0
2025/04/09 11:15:57.671596230,1744190157,669525952,piren,0.3369861736511087,0.04271552444154483,0.022093107233966527,-1.4508625430338708e-05,-0.0024857129005217806,0.0012571661607241264
2025/04/09 11:15:57.721240235,1744190157,719568708,piren,0.33705537228386645,0.01556488351979621,0.012394388014215819,0.0008011348175301871,-0.0023426385575834483,0.0
2025/04/09 11:15:57.773058512,1744190157,769818812,piren,0.3375189043806641,0.05810990227218477,0.026957827631755395,-0.00020306686777109493,-0.0020644028589134286,0.001316226184135108
2025/04/09 11:15:57.823886183,1744190157,821548586,piren,0.3376531913912717,-0.033357848994535755,-0.007204981713432843,0.0001004962995833392,-0.0016674679787213216,0.0
2025/04/09 11:15:57.873520881,1744190157,871614640,piren,0.33779636904222404,-0.15706303015926595,-0.05989380161108902,0.0014452365326492864,-0.0011821196890717232,0.0013583911156681886
2025/04/09 11:15:57.923648400,1744190157,922015909,piren,0.3382362905457962,-0.16452595575643703,-0.061411554307109775,0.0004395292042952349,-0.0006325412561034634,0.0
2025/04/09 11:15:57.962136270,1744190157,960374508,piren,0.33901407442076903,-0.1610903432723381,-0.06928003216786863,0.00020450676651074945,-3.5382805186560074e-05,0.0
2025/04/09 11:15:58.13340882,1744190158,9929072,piren,0.33896858158939014,-0.1663277273626117,-0.0558189216468483,-0.0009227911723031982,0.0005646493364951466,0.005684910690692469
2025/04/09 11:15:58.80525043,1744190158,74747646,piren,0.34118802019839684,-0.22540271217886013,-0.11258870364329994,0.00010577519738284117,0.0011300446719276628,0.0013939201191360518
2025/04/09 11:15:58.128265827,1744190158,124381855,piren,0.3422955986598212,-0.011815645170001377,-0.008708044909853283,0.0005977503347847771,0.0016145479778019998,0.0
2025/04/09 11:15:58.177794173,1744190158,175181301,piren,0.34371865544247676,0.12209717872556523,0.04712817785213607,0.0003714268925359659,0.0019806717213587104,0.0014717229071925528
2025/04/09 11:15:58.227410098,1744190158,225865662,piren,0.3447225423271047,0.08656028368863955,0.030630563424714655,-0.0012862269498387776,0.0022220691279024145,0.0
2025/04/09 11:15:58.281758613,1744190158,280161064,piren,0.3461426820429108,-0.04083209657878364,-0.016691781840034194,-0.0018797139881320069,0.0023488204536436467,0.0015323465140927482
2025/04/09 11:15:58.316336755,1744190158,314082519,piren,0.34614592568033387,-0.0401264329410805,-0.018261969724094843,-0.0009272285824829122,0.002314139528239702,0.0
2025/04/09 11:15:58.380283696,1744190158,378367633,piren,0.348838057505682,0.01731320708453813,0.009968030353549262,0.0005294480742239476,0.0021388142946725517,0.0018363421317533993
2025/04/09 11:15:58.410832359,1744190158,408165064,piren,0.3527312839387862,0.012032909630906169,0.008610990893134092,0.0007970146284632921,0.002269912314546336,0.0
2025/04/09 11:15:58.457594017,1744190158,455119799,piren,0.356362869093205,0.0035842412633353923,0.005835764276850718,0.001140542693483939,0.0017368502102718814,0.0
2025/04/09 11:15:58.517561140,1744190158,516121233,piren,0.3585145367402079,0.11276666860432252,0.056202943062394,0.0003932622988299779,0.0011159820421477523,0.004722296303397168
2025/04/09 11:15:58.572507306,1744190158,571018639,piren,0.36047310163131735,0.19082006996939171,0.08553009020339732,-0.0003631101618484852,0.00042773399610404736,0.0008781955877834882
2025/04/09 11:15:58.623220434,1744190158,621705865,piren,0.3616282216060691,0.18055591507375446,0.08799259904689355,0.0003183912221900768,-0.00025416886393079326,0.0
2025/04/09 11:15:58.674134037,1744190158,671986055,piren,0.3624256207903906,0.227341452548496,0.088458154953608,-0.0007910653790786714,-0.0009020689186391284,0.000798078213066879
2025/04/09 11:15:58.724776691,1744190158,722509532,piren,0.3625849175256718,0.099496484142062,0.04803718465204789,0.0010534123185889587,-0.0015088024770582502,0.0
2025/04/09 11:15:58.775123090,1744190158,772846889,piren,0.362730187824515,0.15112638635295766,0.06069539454186645,0.00031633523407806737,-0.002003833634765261,0.0006896461418007267
2025/04/09 11:15:58.826198391,1744190158,823433742,piren,0.36275632782655476,0.06137126242559216,0.026819572871911963,-0.000627443855978201,-0.00231816890579925,0.0
2025/04/09 11:15:58.863789741,1744190158,860749703,piren,0.36227361488117993,0.018788111486992932,0.011691016768563663,0.00039589931886420073,-0.0022627404388420288,0.0
2025/04/09 11:15:58.918712082,1744190158,914590614,piren,0.3601627798810379,0.09668556689672471,0.0462247397489568,0.001378449470719829,-0.002049161408957218,0.002727449894550824
2025/04/09 11:15:58.963867293,1744190158,958163442,piren,0.36150869917390166,0.1330086739038623,0.05535654404584548,-0.00025783317781242235,-0.0016833801557474127,0.0
2025/04/09 11:15:59.18795178,1744190159,15753400,piren,0.36141242822376074,0.061688284288576915,0.024602502477463123,-0.0017499553009317059,-0.0012219262547051536,0.0006616719208225958
2025/04/09 11:15:59.77502925,1744190159,74978919,piren,0.36200800316275544,-0.0659575454531649,-0.022891449881767504,-0.00044563625188257904,-0.0008153806488212286,-0.0002159796143508539
2025/04/09 11:15:59.124448647,1744190159,122782689,piren,0.36317687908750085,-0.15131386762664856,-0.05105668539750774,-0.0005963858610587965,-0.00040744576420775875,0.0
2025/04/09 11:15:59.162451577,1744190159,159987600,piren,0.36439169284978745,-0.2414630781338025,-0.08483501496651635,-0.0005235278564849591,2.2372463745050657e-05,0.0
2025/04/09 11:15:59.227224410,1744190159,225385184,piren,0.3648755995158592,-0.27879575434696885,-0.13004725953475316,0.0007001270019449102,0.00041267843258812736,-0.0017556811793593742
2025/04/09 11:15:59.278251112,1744190159,275420303,piren,0.3655211872169375,-0.12465173467761298,-0.05954046357290117,0.0020422241459526476,0.0007920625007398479,-0.00045501775445617467
2025/04/09 11:15:59.330089919,1744190159,328113839,piren,0.3658611848123776,0.0031625906879247175,0.0009557398247410998,0.0001733488193508906,0.001142922891630106,0.0
2025/04/09 11:15:59.380385265,1744190159,378625306,piren,0.3666671316231448,-0.004804360917701863,0.00010032594026900835,-0.0012622400652874438,0.0013942608351278684,-0.0005354897994324894
2025/04/09 11:15:59.429565985,1744190159,427477733,piren,0.36783573908249195,0.008397004877066086,0.007844204009647956,0.00025519333051921575,0.0013897260737390478,0.0
2025/04/09 11:15:59.462079052,1744190159,458843925,piren,0.3723198920585922,0.11885077277127241,0.0496047856597265,0.00023483711803159226,0.0012531508541260322,0.0
2025/04/09 11:15:59.510714470,1744190159,507840328,piren,0.37535009003113007,0.06517775897960619,0.024810669746215836,-0.0007805116256882882,0.0010857540273247384,-0.0039070216735154015
2025/04/09 11:15:59.557580147,1744190159,555016143,piren,0.37709594709847377,-0.08201993563966126,-0.03054460049254192,-0.0014071940722196095,0.0008707327297802364,0.0
2025/04/09 11:15:59.620845019,1744190159,618876626,piren,0.37798036872034513,-0.14680294122811896,-0.06058561076340006,-0.00031450490886378275,0.0005861120419241983,-0.003861016010061597
2025/04/09 11:15:59.671878078,1744190159,670164386,piren,0.37833344569337707,-0.11714038383732515,-0.04141167958402514,-0.0007784049762139303,0.00027857508229758854,-0.0007691892530923078
2025/04/09 11:15:59.722840252,1744190159,721085176,piren,0.3782004371827309,-0.15985319711025428,-0.06330015796730798,-0.0004140779157865969,-5.484127983512554e-05,0.0
2025/04/09 11:15:59.760582473,1744190159,757777980,piren,0.3780584061515481,-0.12679126830989226,-0.050961280566840954,0.00018381009653674606,-0.00037576561519014776,0.0
2025/04/09 11:15:59.810930564,1744190159,808877878,piren,0.3780654058937343,-0.12329342888413575,-0.05887712254255315,0.00020321943332476722,-0.0006987494466400342,-0.0035338357522218763
2025/04/09 11:15:59.862656620,1744190159,858815997,piren,0.3777471936719196,0.15415588127718427,0.07292884754592004,0.0002634537461175476,-0.0010464617929416987,0.0
2025/04/09 11:15:59.929176406,1744190159,927654332,piren,0.375943646967733,0.22228599890788392,0.08514753691050617,-0.0010405189035285532,-0.0012866346519874452,-0.003916292615269001
2025/04/09 11:15:59.967137816,1744190159,964455299,piren,0.3748900646654114,0.1063694672789194,0.046498388182893646,-0.0006374657601772628,-0.001448927783005289,0.0
2025/04/09 11:16:00.13936082,1744190160,12334706,piren,0.37661899083839273,0.09587370074040878,0.041424064147812065,-0.0006237329491410767,-0.0015284758078784799,-0.004905788927710067
2025/04/09 11:16:00.72064680,1744190160,70402730,piren,0.37768178734912417,0.04234188474289768,0.018437317206022596,-0.0010866787598854126,-0.001509270677194994,-0.0010587810451938174
2025/04/09 11:16:00.125731955,1744190160,120828665,piren,0.3777726115850553,-0.08866277365241317,-0.04251807584979555,0.00036569950127973396,-0.0016349085042642883,0.0
2025/04/09 11:16:00.175457583,1744190160,172419304,piren,0.37800337363249015,0.047426054791521205,0.018853909216862856,-0.00048552270823572354,-0.001371210090439084,-0.0009197058492476207
2025/04/09 11:16:00.226640987,1744190160,224613611,piren,0.3764798756252192,0.024204332226994946,0.013363352996402343,0.00028121046834485297,-0.0010083017298671251,0.0
2025/04/09 11:16:00.275860929,1744190160,273797484,piren,0.3758123516141802,0.10300836023755656,0.04049311286998875,-0.00032209081164302295,-0.0006530354296530554,-0.0008373502398421414
2025/04/09 11:16:00.326445207,1744190160,324281182,piren,0.3751287727767308,0.0013673996349495834,0.0024308756885881994,-0.0005258416690647925,-0.00021954108952655486,0.0
2025/04/09 11:16:00.377198916,1744190160,375089876,piren,0.3744434877107055,-0.0068182941571533345,0.000529139096929145,0.0005010849413125432,0.00019801581815670447,-0.0007028022019501111
2025/04/09 11:16:00.412473010,1744190160,410519750,piren,0.37444352497910016,-0.00683582119026155,0.00011297006376959887,0.001417834856349908,0.0005887665409916518,0.0
2025/04/09 11:16:00.478013337,1744190160,475668829,piren,0.37328291593603957,0.14082468384459215,0.05693888340965813,-0.0005090299944501534,0.0009880782412936525,-0.0005757596025753154
2025/04/09 11:16:00.528071045,1744190160,526154915,piren,0.37286730615224334,0.05502315954990697,0.021243667772814438,-0.001978547365244069,0.001311488262527433,0.0
2025/04/09 11:16:00.565234080,1744190160,562720569,piren,0.3728610810158829,-0.07877179388675744,-0.033391662855729184,-0.0003368755287013928,0.0015535945057381128,0.0
2025/04/09 11:16:00.628833548,1744190160,626833792,piren,0.37253322977406894,-0.06307165292076525,-0.024881905729423903,0.00030883125361052735,0.0016634776618729124,-0.0020560889690316377
2025/04/09 11:16:00.683009399,1744190160,680949969,piren,0.372232453713895,-0.05887385761629889,-0.018098652768168504,0.00034575899451249064,0.001646035194414811,-0.00020560385131077389
2025/04/09 11:16:00.716522791,1744190160,713839010,piren,0.3722332574770682,-0.0575516707430083,-0.021929413198099126,-0.00013086306788356495,0.001578768660639421,0.0
2025/04/09 11:16:00.766646745,1744190160,764862226,piren,0.3717337458024866,-0.0341896332090871,-0.014271461360956755,0.0006415016648244651,0.0014464352905448653,0.0
2025/04/09 11:16:00.828070804,1744190160,826286328,piren,0.372685268167858,0.08332403408623253,0.033105008456632286,0.0005363431069601281,0.001315138572081522,-0.0007114896085542056
2025/04/09 11:16:00.860240639,1744190160,858357722,piren,0.37380065953266106,0.04183305755746094,0.01584466475681792,-0.00016212312940349247,0.0011154471826403923,0.0
2025/04/09 11:16:00.924171385,1744190160,922266482,piren,0.3741308825428777,-0.03192501908192249,-0.013633267036039303,0.00012768035808343437,0.0007777767486250468,-5.855269757352675e-05
2025/04/09 11:16:00.964852029,1744190160,961371011,piren,0.37444189383653276,-0.03255161974178045,-0.013405910095691522,-0.00043763305852054354,0.00038387938057064515,0.0
2025/04/09 11:16:01.13083144,1744190161,11303749,piren,0.3738682502983399,-0.024380738997415993,-0.01117265747611152,0.0011258358621064205,-9.382416425844683e-06,0.00016836094110239382
2025/04/09 11:16:01.80882336,1744190161,78739241,piren,0.3728300520630798,0.07471328983184986,0.024695831526194888,-0.0010361930902635906,-0.0003352191391135349,9.956251109750997e-05
2025/04/09 11:16:01.129548061,1744190161,128060654,piren,0.37082643523749326,-0.05789200551928097,-0.02837411977527463,-0.0009851636507200573,-0.0006782277223889657,0.0
2025/04/09 11:16:01.183666279,1744190161,180643485,piren,0.36992895990532915,-0.034721882918704,-0.018929037625827372,0.0005202990108486201,-0.0010280193723393638,0.00016353016077590626
2025/04/09 11:16:01.215029247,1744190161,213288165,piren,0.371748861699789,0.07999849747484275,0.02863439153251285,0.0003180273785815839,-0.0012714008291718657,0.0
2025/04/09 11:16:01.272923693,1744190161,271243673,piren,0.3725303534663398,0.0319302245592021,0.009238755330692086,-0.001327098172145363,-0.0014365263353369401,0.0003194053133124237
2025/04/09 11:16:01.323928943,1744190161,321631484,piren,0.3724933946277727,-0.09785594136046734,-0.0456973983241173,-0.001249356480359605,-0.0015320487732860407,0.0
2025/04/09 11:16:01.375034235,1744190161,372086292,piren,0.3721809358537498,-0.05850805040190162,-0.030387566178984502,7.16533773806183e-05,-0.0015427468791731176,0.0004515554725506923
2025/04/09 11:16:01.423362883,1744190161,421511197,piren,0.3710672028175992,0.06944494658036095,0.024705819876446163,0.00026413992797363054,-0.0014339483450961723,0.0
2025/04/09 11:16:01.474519172,1744190161,472629036,piren,0.3698716915945366,0.026123191544953833,0.009464894133588166,0.00046838283185125307,-0.0012726944502746882,0.0006429421323697784
2025/04/09 11:16:01.524258478,1744190161,522763607,piren,0.3685814093476621,-0.004662363270063983,-0.0013201743680310166,-0.0010915575343310845,-0.0010607378399680137,0.0
2025/04/09 11:16:01.575379434,1744190161,573616826,piren,0.367733864228676,-0.06831127524775735,-0.029318924493537013,-0.0006794233866167189,-0.0008536537290582833,0.0007077971973526492
2025/04/09 11:16:01.626282840,1744190161,624208015,piren,0.3667112680493155,-0.01959752293658494,-0.008270247703887245,0.0010587352011406511,-0.0007312028976125184,0.0
2025/04/09 11:16:01.677066704,1744190161,674926317,piren,0.36538112362738795,0.08457770251556478,0.034272203924591106,-0.0008018624410610276,-0.00026661328395378265,0.0008809217672405887
2025/04/09 11:16:01.713356894,1744190161,710411558,piren,0.36538114502704505,0.08627024649172274,0.029755682765743058,-0.002294736770245484,0.00024914138306006195,0.0
2025/04/09 11:16:01.763412114,1744190161,760844187,piren,0.3634713324290032,-0.04434730741504204,-0.020723298645921477,-0.0009674935333453508,0.0007485627555018522,0.0
2025/04/09 11:16:01.815597809,1744190161,812895699,piren,0.36152061446167605,-0.05165592620887777,-0.01922831014058297,-6.778752766591959e-05,0.0011863458699341199,0.0036774251148877658
2025/04/09 11:16:01.883713169,1744190161,881745297,piren,0.35873336203127687,-0.17163383328174975,-0.08665573949723243,0.0015847949778450194,0.0015094791152024064,0.0008931791961847292
2025/04/09 11:16:01.917992742,1744190161,915753146,piren,0.3601802395719232,-0.001618866316302707,-0.005305579233218419,0.0004560860474862677,0.0017077013676527423,0.0
2025/04/09 11:16:01.961956741,1744190161,959108519,piren,0.360837238405432,0.006118299435265237,0.0005737407754564661,-0.0005531033739486287,0.001781422720216532,0.0
2025/04/09 11:16:02.13670371,1744190162,11659612,piren,0.3604503940558579,0.041986723606702386,0.01711186727913238,-0.00039043911051543027,0.0017309201085053847,0.0057247726308816875
2025/04/09 11:16:02.61513850,1744190162,56881244,piren,0.36045085864500903,0.042968761195020994,0.014458616789597659,-0.0006125636417973984,0.0015896306411604519,0.0
2025/04/09 11:16:02.110018924,1744190162,108092320,piren,0.3601118424019144,-0.06915882137970755,-0.030731566813282294,0.0011645026358709516,0.0013971061630663872,0.004203471827413752
2025/04/09 11:16:02.162021935,1744190162,158516101,piren,0.3563222309151299,-0.06608397986532649,-0.032453548185088006,0.0027816651373018053,0.0011867112558019673,0.0
2025/04/09 11:16:02.228572508,1744190162,225989286,piren,0.3538631436423129,0.057284478219951696,0.025364356019318593,0.0014388337942883261,0.0009386098018556081,0.005400434215927844
2025/04/09 11:16:02.280036782,1744190162,277751630,piren,0.35217525362536256,0.1621083119040393,0.0628444562829388,0.0006567297963706795,0.0006111361984393835,0.0013313855952478053
2025/04/09 11:16:02.316479888,1744190162,314459116,piren,0.35033072110645663,0.10861556442790066,0.050117421781723764,0.0015872777586858032,0.00021804827332591042,0.0
2025/04/09 11:16:02.368274789,1744190162,365114749,piren,0.3487606837187201,0.17964996063146718,0.07684553268893528,0.00032518952765448806,-0.00015869602251516231,0.0
2025/04/09 11:16:02.417938846,1744190162,415938581,piren,0.34714910744011557,0.16992489306373887,0.06584975012968436,-0.0010109786287900257,-0.00051721128792273,0.00603091934008922
2025/04/09 11:16:02.483481167,1744190162,480820368,piren,0.34586938029513675,0.08043684416874318,0.03214830539182658,0.0002614892899058013,-0.0008253051949868518,0.0012363396997118479
2025/04/09 11:16:02.515988801,1744190162,514069656,piren,0.3468909475254413,0.04102520991092723,0.017144166762761797,-0.0005150024929387083,-0.0011395520635857997,0.0
2025/04/09 11:16:02.572529835,1744190162,570953891,piren,0.3476415928140198,0.02050228646132978,0.009212166179332262,-0.0005678779592839617,-0.0014123824519591782,0.001278608461760629
2025/04/09 11:16:02.623357589,1744190162,621617636,piren,0.34717606286736086,0.00807122943513753,0.004146574297294608,-0.00014415169712012692,-0.0015616671762769916,0.0
2025/04/09 11:16:02.675902645,1744190162,673221952,piren,0.345223383089466,-0.003796860281268308,-0.0005735531897771218,-0.0014077251136524517,-0.0013575198831531432,0.0014091478530030162
2025/04/09 11:16:02.724105427,1744190162,722349657,piren,0.3424869348762438,-0.08773714730912657,-0.03610407931005525,-0.0010095969936858723,-0.0010476624573317265,0.0
2025/04/09 11:16:02.776286717,1744190162,774069423,piren,0.3401949668631752,-0.08780087202366356,-0.0425955763183393,0.001433972953548416,-0.0006924432357050081,0.0011510509743033039
2025/04/09 11:16:02.824835364,1744190162,823039241,piren,0.33796262366742147,0.03423127616834354,0.013540819164071469,0.001115151761599148,-0.0002097046505415541,0.0
2025/04/09 11:16:02.875804912,1744190162,873840260,piren,0.33612785237670806,0.1192466667810678,0.03685355400102933,-0.000624373350908891,0.00023563426535425918,0.0007792035913165154
2025/04/09 11:16:02.926580953,1744190162,924100517,piren,0.33462222309084255,-0.050929680902237325,-0.026222101164047038,-0.0018586196230956386,0.0005232444058950188,0.0
