time,header_stamp_secs,header_stamp_nsecs,header_frame_id,status_status,status_service,latitude,longitude,altitude,position_covariance_0,position_covariance_1,position_covariance_2,position_covariance_3,position_covariance_4,position_covariance_5,position_covariance_6,position_covariance_7,position_covariance_8,position_covariance_type
2025/04/09 10:58:23.910724452,1744189103,655745390,mA1/gps,0,1,63.43459648345324,10.393091135192698,0.0,1.4400000000000002e-10,0.0,0.0,0.0,1.4400000000000002e-10,0.0,0.0,0.0,1.0,2
2025/04/09 10:58:23.910893525,1744189103,697378549,mA1/gps,0,1,63.43459648249659,10.3930911351262,0.0,1.4400000000000002e-10,0.0,0.0,0.0,1.4400000000000002e-10,0.0,0.0,0.0,1.0,2
2025/04/09 10:58:23.911191401,1744189103,748991121,mA1/gps,0,1,63.43459648197689,10.393091135053533,0.0,1.4400000000000002e-10,0.0,0.0,0.0,1.4400000000000002e-10,0.0,0.0,0.0,1.0,2
2025/04/09 10:58:23.911272419,1744189103,802448033,mA1/gps,0,1,63.43459648237878,10.39309113532408,0.0,1.4400000000000002e-10,0.0,0.0,0.0,1.4400000000000002e-10,0.0,0.0,0.0,1.0,2
2025/04/09 10:58:23.911321077,1744189103,852170008,mA1/gps,0,1,63.434596482850345,10.393091135349193,0.0,1.4400000000000002e-10,0.0,0.0,0.0,1.4400000000000002e-10,0.0,0.0,0.0,1.0,2
2025/04/09 10:58:23.911375040,1744189103,906322536,mA1/gps,0,1,63.43459648220237,10.393091134957071,0.0,1.4400000000000002e-10,0.0,0.0,0.0,1.4400000000000002e-10,0.0,0.0,0.0,1.0,2
2025/04/09 10:58:23.957641963,1744189103,949139529,mA1/gps,0,1,63.43459648150213,10.39309113550425,0.0,1.4400000000000002e-10,0.0,0.0,0.0,1.4400000000000002e-10,0.0,0.0,0.0,1.0,2
2025/04/09 10:58:24.2924099,1744189104,1520365,mA1/gps,0,1,63.434596482009134,10.393091135231986,0.0,1.4400000000000002e-10,0.0,0.0,0.0,1.4400000000000002e-10,0.0,0.0,0.0,1.0,2
2025/04/09 10:58:24.53601263,1744189104,51228746,mA1/gps,0,1,63.434596482572985,10.393091135482521,0.0,1.4400000000000002e-10,0.0,0.0,0.0,1.4400000000000002e-10,0.0,0.0,0.0,1.0,2
2025/04/09 10:58:24.109333427,1744189104,107713592,mA1/gps,0,1,63.434596481882835,10.39309113531421,0.0,1.4400000000000002e-10,0.0,0.0,0.0,1.4400000000000002e-10,0.0,0.0,0.0,1.0,2
2025/04/09 10:58:24.149710031,1744189104,146274867,mA1/gps,0,1,63.43459648163704,10.393091135343544,0.0,1.4400000000000002e-10,0.0,0.0,0.0,1.4400000000000002e-10,0.0,0.0,0.0,1.0,2
2025/04/09 10:58:24.207816817,1744189104,197461986,mA1/gps,0,1,63.434596482320195,10.393091135635144,0.0,1.4400000000000002e-10,0.0,0.0,0.0,1.4400000000000002e-10,0.0,0.0,0.0,1.0,2
2025/04/09 10:58:24.257051690,1744189104,251631501,mA1/gps,0,1,63.434596482921364,10.393091135353613,0.0,1.4400000000000002e-10,0.0,0.0,0.0,1.4400000000000002e-10,0.0,0.0,0.0,1.0,2
2025/04/09 10:58:24.304863543,1744189104,303490468,mA1/gps,0,1,63.43459648244073,10.393091134576075,0.0,1.4400000000000002e-10,0.0,0.0,0.0,1.4400000000000002e-10,0.0,0.0,0.0,1.0,2
2025/04/09 10:58:24.353779267,1744189104,349031716,mA1/gps,0,1,63.43459648215314,10.393091132459146,0.0,1.4400000000000002e-10,0.0,0.0,0.0,1.4400000000000002e-10,0.0,0.0,0.0,1.0,2
2025/04/09 10:58:24.407463504,1744189104,401902437,mA1/gps,0,1,63.43459648262825,10.39309112945594,0.0,1.4400000000000002e-10,0.0,0.0,0.0,1.4400000000000002e-10,0.0,0.0,0.0,1.0,2
2025/04/09 10:58:24.457611347,1744189104,453275069,mA1/gps,0,1,63.434596483337046,10.393091126554479,0.0,1.4400000000000002e-10,0.0,0.0,0.0,1.4400000000000002e-10,0.0,0.0,0.0,1.0,2
2025/04/09 10:58:24.509112876,1744189104,507649499,mA1/gps,0,1,63.434596483025345,10.393091126371203,0.0,1.4400000000000002e-10,0.0,0.0,0.0,1.4400000000000002e-10,0.0,0.0,0.0,1.0,2
2025/04/09 10:58:24.551163212,1744189104,547724927,mA1/gps,0,1,63.434596482659366,10.393091127815383,0.0,1.4400000000000002e-10,0.0,0.0,0.0,1.4400000000000002e-10,0.0,0.0,0.0,1.0,2
2025/04/09 10:58:24.606113888,1744189104,601107226,mA1/gps,0,1,63.434596483223444,10.393091130012396,0.0,1.4400000000000002e-10,0.0,0.0,0.0,1.4400000000000002e-10,0.0,0.0,0.0,1.0,2
2025/04/09 10:58:24.653856092,1744189104,652252691,mA1/gps,0,1,63.43459648350766,10.393091132945942,0.0,1.4400000000000002e-10,0.0,0.0,0.0,1.4400000000000002e-10,0.0,0.0,0.0,1.0,2
2025/04/09 10:58:24.706704290,1744189104,703806332,mA1/gps,0,1,63.43459648300213,10.393091136825834,0.0,1.4400000000000002e-10,0.0,0.0,0.0,1.4400000000000002e-10,0.0,0.0,0.0,1.0,2
2025/04/09 10:58:24.755357476,1744189104,754282801,mA1/gps,0,1,63.43459648250795,10.393091140797871,0.0,1.4400000000000002e-10,0.0,0.0,0.0,1.4400000000000002e-10,0.0,0.0,0.0,1.0,2
2025/04/09 10:58:24.805493332,1744189104,804571999,mA1/gps,0,1,63.43459648297925,10.393091146153038,0.0,1.4400000000000002e-10,0.0,0.0,0.0,1.4400000000000002e-10,0.0,0.0,0.0,1.0,2
2025/04/09 10:58:24.855966032,1744189104,854530613,mA1/gps,0,1,63.43459648329705,10.39309115104961,0.0,1.4400000000000002e-10,0.0,0.0,0.0,1.4400000000000002e-10,0.0,0.0,0.0,1.0,2
2025/04/09 10:58:24.908291615,1744189104,906799506,mA1/gps,0,1,63.43459648266244,10.393091157719644,0.0,1.4400000000000002e-10,0.0,0.0,0.0,1.4400000000000002e-10,0.0,0.0,0.0,1.0,2
2025/04/09 10:58:24.948979886,1744189104,947018630,mA1/gps,0,1,63.434596482135085,10.39309116336205,0.0,1.4400000000000002e-10,0.0,0.0,0.0,1.4400000000000002e-10,0.0,0.0,0.0,1.0,2
2025/04/09 10:58:25.178158,1744189104,998369255,mA1/gps,0,1,63.43459648235587,10.393091170415964,0.0,1.4400000000000002e-10,0.0,0.0,0.0,1.4400000000000002e-10,0.0,0.0,0.0,1.0,2
2025/04/09 10:58:25.51376147,1744189105,48922412,mA1/gps,0,1,63.43459648256063,10.393091176444123,0.0,1.4400000000000002e-10,0.0,0.0,0.0,1.4400000000000002e-10,0.0,0.0,0.0,1.0,2
2025/04/09 10:58:25.101030964,1744189105,99332033,mA1/gps,0,1,63.43459648212795,10.393091181992252,0.0,1.4400000000000002e-10,0.0,0.0,0.0,1.4400000000000002e-10,0.0,0.0,0.0,1.0,2
2025/04/09 10:58:25.152747237,1744189105,151602073,mA1/gps,0,1,63.43459648134819,10.393091185477907,0.0,1.4400000000000002e-10,0.0,0.0,0.0,1.4400000000000002e-10,0.0,0.0,0.0,1.0,2
2025/04/09 10:58:25.203271880,1744189105,202613878,mA1/gps,0,1,63.43459648179293,10.393091186039364,0.0,1.4400000000000002e-10,0.0,0.0,0.0,1.4400000000000002e-10,0.0,0.0,0.0,1.0,2
2025/04/09 10:58:25.255720039,1744189105,254310460,mA1/gps,0,1,63.43459648203769,10.39309118608871,0.0,1.4400000000000002e-10,0.0,0.0,0.0,1.4400000000000002e-10,0.0,0.0,0.0,1.0,2
2025/04/09 10:58:25.305189756,1744189105,304245674,mA1/gps,0,1,63.43459648146369,10.393091182921067,0.0,1.4400000000000002e-10,0.0,0.0,0.0,1.4400000000000002e-10,0.0,0.0,0.0,1.0,2
2025/04/09 10:58:25.355722047,1744189105,354096198,mA1/gps,0,1,63.434596481103924,10.393091178668644,0.0,1.4400000000000002e-10,0.0,0.0,0.0,1.4400000000000002e-10,0.0,0.0,0.0,1.0,2
2025/04/09 10:58:25.407710688,1744189105,405651955,mA1/gps,0,1,63.43459648167809,10.393091172239258,0.0,1.4400000000000002e-10,0.0,0.0,0.0,1.4400000000000002e-10,0.0,0.0,0.0,1.0,2
2025/04/09 10:58:25.448146292,1744189105,447330738,mA1/gps,0,1,63.43459648203108,10.393091165509748,0.0,1.4400000000000002e-10,0.0,0.0,0.0,1.4400000000000002e-10,0.0,0.0,0.0,1.0,2
2025/04/09 10:58:25.498210048,1744189105,497112338,mA1/gps,0,1,63.4345964814498,10.39309115757249,0.0,1.4400000000000002e-10,0.0,0.0,0.0,1.4400000000000002e-10,0.0,0.0,0.0,1.0,2
2025/04/09 10:58:25.551918099,1744189105,550414055,mA1/gps,0,1,63.43459648119034,10.393091149038426,0.0,1.4400000000000002e-10,0.0,0.0,0.0,1.4400000000000002e-10,0.0,0.0,0.0,1.0,2
2025/04/09 10:58:25.603541269,1744189105,601611388,mA1/gps,0,1,63.43459648178343,10.393091140950652,0.0,1.4400000000000002e-10,0.0,0.0,0.0,1.4400000000000002e-10,0.0,0.0,0.0,1.0,2
2025/04/09 10:58:25.653619231,1744189105,652108836,mA1/gps,0,1,63.43459648260795,10.393091134326285,0.0,1.4400000000000002e-10,0.0,0.0,0.0,1.4400000000000002e-10,0.0,0.0,0.0,1.0,2
2025/04/09 10:58:25.704238939,1744189105,703435924,mA1/gps,0,1,63.43459648201417,10.393091127914714,0.0,1.4400000000000002e-10,0.0,0.0,0.0,1.4400000000000002e-10,0.0,0.0,0.0,1.0,2
2025/04/09 10:58:25.755544675,1744189105,754333496,mA1/gps,0,1,63.43459648189149,10.393091123199367,0.0,1.4400000000000002e-10,0.0,0.0,0.0,1.4400000000000002e-10,0.0,0.0,0.0,1.0,2
2025/04/09 10:58:25.806102550,1744189105,805140554,mA1/gps,0,1,63.434596482673605,10.39309111962845,0.0,1.4400000000000002e-10,0.0,0.0,0.0,1.4400000000000002e-10,0.0,0.0,0.0,1.0,2
2025/04/09 10:58:25.857206125,1744189105,855301186,mA1/gps,0,1,63.43459648321055,10.393091117885733,0.0,1.4400000000000002e-10,0.0,0.0,0.0,1.4400000000000002e-10,0.0,0.0,0.0,1.0,2
2025/04/09 10:58:25.901171612,1744189105,898439511,mA1/gps,0,1,63.434596483026205,10.393091118399198,0.0,1.4400000000000002e-10,0.0,0.0,0.0,1.4400000000000002e-10,0.0,0.0,0.0,1.0,2
2025/04/09 10:58:25.950535927,1744189105,948947491,mA1/gps,0,1,63.43459648278061,10.393091120056734,0.0,1.4400000000000002e-10,0.0,0.0,0.0,1.4400000000000002e-10,0.0,0.0,0.0,1.0,2
2025/04/09 10:58:26.1462145,1744189105,999825560,mA1/gps,0,1,63.43459648334356,10.393091123461257,0.0,1.4400000000000002e-10,0.0,0.0,0.0,1.4400000000000002e-10,0.0,0.0,0.0,1.0,2
2025/04/09 10:58:26.52367111,1744189106,50598432,mA1/gps,0,1,63.43459648382139,10.393091127553355,0.0,1.4400000000000002e-10,0.0,0.0,0.0,1.4400000000000002e-10,0.0,0.0,0.0,1.0,2
2025/04/09 10:58:26.102210660,1744189106,101430868,mA1/gps,0,1,63.43459648357427,10.393091133593845,0.0,1.4400000000000002e-10,0.0,0.0,0.0,1.4400000000000002e-10,0.0,0.0,0.0,1.0,2
2025/04/09 10:58:26.153900164,1744189106,152365955,mA1/gps,0,1,63.43459648321363,10.393091139396342,0.0,1.4400000000000002e-10,0.0,0.0,0.0,1.4400000000000002e-10,0.0,0.0,0.0,1.0,2
2025/04/09 10:58:26.204758303,1744189106,203681272,mA1/gps,0,1,63.43459648374401,10.3930911456373,0.0,1.4400000000000002e-10,0.0,0.0,0.0,1.4400000000000002e-10,0.0,0.0,0.0,1.0,2
2025/04/09 10:58:26.256656610,1744189106,254642319,mA1/gps,0,1,63.43459648409799,10.39309115106173,0.0,1.4400000000000002e-10,0.0,0.0,0.0,1.4400000000000002e-10,0.0,0.0,0.0,1.0,2
2025/04/09 10:58:26.306757957,1744189106,305544436,mA1/gps,0,1,63.43459648358202,10.393091156461553,0.0,1.4400000000000002e-10,0.0,0.0,0.0,1.4400000000000002e-10,0.0,0.0,0.0,1.0,2
2025/04/09 10:58:26.349878099,1744189106,347499235,mA1/gps,0,1,63.43459648317627,10.393091161276836,0.0,1.4400000000000002e-10,0.0,0.0,0.0,1.4400000000000002e-10,0.0,0.0,0.0,1.0,2
2025/04/09 10:58:26.399701263,1744189106,398463195,mA1/gps,0,1,63.43459648355481,10.393091165293916,0.0,1.4400000000000002e-10,0.0,0.0,0.0,1.4400000000000002e-10,0.0,0.0,0.0,1.0,2
2025/04/09 10:58:26.454087589,1744189106,449636767,mA1/gps,0,1,63.43459648367202,10.393091167013692,0.0,1.4400000000000002e-10,0.0,0.0,0.0,1.4400000000000002e-10,0.0,0.0,0.0,1.0,2
2025/04/09 10:58:26.500094661,1744189106,499208901,mA1/gps,0,1,63.43459648320954,10.39309116723096,0.0,1.4400000000000002e-10,0.0,0.0,0.0,1.4400000000000002e-10,0.0,0.0,0.0,1.0,2
2025/04/09 10:58:26.550111994,1744189106,549075238,mA1/gps,0,1,63.43459648236732,10.393091166839119,0.0,1.4400000000000002e-10,0.0,0.0,0.0,1.4400000000000002e-10,0.0,0.0,0.0,1.0,2
2025/04/09 10:58:26.604932782,1744189106,601456492,mA1/gps,0,1,63.43459648292502,10.393091164178724,0.0,1.4400000000000002e-10,0.0,0.0,0.0,1.4400000000000002e-10,0.0,0.0,0.0,1.0,2
2025/04/09 10:58:26.651184561,1744189106,650046899,mA1/gps,0,1,63.43459648315416,10.393091160778553,0.0,1.4400000000000002e-10,0.0,0.0,0.0,1.4400000000000002e-10,0.0,0.0,0.0,1.0,2
2025/04/09 10:58:26.701936363,1744189106,701263398,mA1/gps,0,1,63.43459648262692,10.393091156405864,0.0,1.4400000000000002e-10,0.0,0.0,0.0,1.4400000000000002e-10,0.0,0.0,0.0,1.0,2
2025/04/09 10:58:26.752473148,1744189106,751264303,mA1/gps,0,1,63.434596481824705,10.393091151206137,0.0,1.4400000000000002e-10,0.0,0.0,0.0,1.4400000000000002e-10,0.0,0.0,0.0,1.0,2
2025/04/09 10:58:26.803272672,1744189106,802347655,mA1/gps,0,1,63.43459648246617,10.393091145372104,0.0,1.4400000000000002e-10,0.0,0.0,0.0,1.4400000000000002e-10,0.0,0.0,0.0,1.0,2
2025/04/09 10:58:26.853605629,1744189106,852642088,mA1/gps,0,1,63.43459648282671,10.393091139930933,0.0,1.4400000000000002e-10,0.0,0.0,0.0,1.4400000000000002e-10,0.0,0.0,0.0,1.0,2
2025/04/09 10:58:26.907020166,1744189106,904747363,mA1/gps,0,1,63.43459648224432,10.393091134410557,0.0,1.4400000000000002e-10,0.0,0.0,0.0,1.4400000000000002e-10,0.0,0.0,0.0,1.0,2
2025/04/09 10:58:26.956664831,1744189106,954474956,mA1/gps,0,1,63.43459648159463,10.393091129656758,0.0,1.4400000000000002e-10,0.0,0.0,0.0,1.4400000000000002e-10,0.0,0.0,0.0,1.0,2
2025/04/09 10:58:27.7747998,1744189107,5440482,mA1/gps,0,1,63.434596482400224,10.393091125176692,0.0,1.4400000000000002e-10,0.0,0.0,0.0,1.4400000000000002e-10,0.0,0.0,0.0,1.0,2
2025/04/09 10:58:27.55916765,1744189107,55313558,mA1/gps,0,1,63.43459648308501,10.393091122217575,0.0,1.4400000000000002e-10,0.0,0.0,0.0,1.4400000000000002e-10,0.0,0.0,0.0,1.0,2
2025/04/09 10:58:27.107226695,1744189107,106308804,mA1/gps,0,1,63.43459648244574,10.393091120682435,0.0,1.4400000000000002e-10,0.0,0.0,0.0,1.4400000000000002e-10,0.0,0.0,0.0,1.0,2
2025/04/09 10:58:27.148307662,1744189107,147138920,mA1/gps,0,1,63.43459648220707,10.393091119577225,0.0,1.4400000000000002e-10,0.0,0.0,0.0,1.4400000000000002e-10,0.0,0.0,0.0,1.0,2
2025/04/09 10:58:27.199433885,1744189107,198076597,mA1/gps,0,1,63.434596483104784,10.393091119869473,0.0,1.4400000000000002e-10,0.0,0.0,0.0,1.4400000000000002e-10,0.0,0.0,0.0,1.0,2
2025/04/09 10:58:27.253171434,1744189107,252025639,mA1/gps,0,1,63.4345964837922,10.393091120945435,0.0,1.4400000000000002e-10,0.0,0.0,0.0,1.4400000000000002e-10,0.0,0.0,0.0,1.0,2
2025/04/09 10:58:27.304050733,1744189107,301813398,mA1/gps,0,1,63.43459648343179,10.39309112450996,0.0,1.4400000000000002e-10,0.0,0.0,0.0,1.4400000000000002e-10,0.0,0.0,0.0,1.0,2
2025/04/09 10:58:27.352687956,1744189107,351662347,mA1/gps,0,1,63.43459648296807,10.393091127782398,0.0,1.4400000000000002e-10,0.0,0.0,0.0,1.4400000000000002e-10,0.0,0.0,0.0,1.0,2
2025/04/09 10:58:27.405652804,1744189107,404458073,mA1/gps,0,1,63.43459648382776,10.393091132018156,0.0,1.4400000000000002e-10,0.0,0.0,0.0,1.4400000000000002e-10,0.0,0.0,0.0,1.0,2
2025/04/09 10:58:27.455418800,1744189107,454381706,mA1/gps,0,1,63.43459648452625,10.393091136108826,0.0,1.4400000000000002e-10,0.0,0.0,0.0,1.4400000000000002e-10,0.0,0.0,0.0,1.0,2
2025/04/09 10:58:27.508200374,1744189107,505654986,mA1/gps,0,1,63.43459648408265,10.39309114045918,0.0,1.4400000000000002e-10,0.0,0.0,0.0,1.4400000000000002e-10,0.0,0.0,0.0,1.0,2
2025/04/09 10:58:27.556718155,1744189107,555565442,mA1/gps,0,1,63.43459648372411,10.39309114519781,0.0,1.4400000000000002e-10,0.0,0.0,0.0,1.4400000000000002e-10,0.0,0.0,0.0,1.0,2
2025/04/09 10:58:27.598547597,1744189107,597717700,mA1/gps,0,1,63.43459648434618,10.39309114871169,0.0,1.4400000000000002e-10,0.0,0.0,0.0,1.4400000000000002e-10,0.0,0.0,0.0,1.0,2
2025/04/09 10:58:27.654114098,1744189107,648085596,mA1/gps,0,1,63.43459648491465,10.39309115177441,0.0,1.4400000000000002e-10,0.0,0.0,0.0,1.4400000000000002e-10,0.0,0.0,0.0,1.0,2
2025/04/09 10:58:27.700520013,1744189107,699128364,mA1/gps,0,1,63.43459648435944,10.393091155067726,0.0,1.4400000000000002e-10,0.0,0.0,0.0,1.4400000000000002e-10,0.0,0.0,0.0,1.0,2
2025/04/09 10:58:27.750363649,1744189107,748944235,mA1/gps,0,1,63.434596483961265,10.393091157138805,0.0,1.4400000000000002e-10,0.0,0.0,0.0,1.4400000000000002e-10,0.0,0.0,0.0,1.0,2
2025/04/09 10:58:27.803749164,1744189107,802151920,mA1/gps,0,1,63.43459648463102,10.393091158642397,0.0,1.4400000000000002e-10,0.0,0.0,0.0,1.4400000000000002e-10,0.0,0.0,0.0,1.0,2
2025/04/09 10:58:27.854017399,1744189107,852153841,mA1/gps,0,1,63.434596485208544,10.393091159062525,0.0,1.4400000000000002e-10,0.0,0.0,0.0,1.4400000000000002e-10,0.0,0.0,0.0,1.0,2
2025/04/09 10:58:27.904377511,1744189107,903145906,mA1/gps,0,1,63.43459648519198,10.39309115936354,0.0,1.4400000000000002e-10,0.0,0.0,0.0,1.4400000000000002e-10,0.0,0.0,0.0,1.0,2
2025/04/09 10:58:27.955353562,1744189107,953045690,mA1/gps,0,1,63.4345964855602,10.39309115803613,0.0,1.4400000000000002e-10,0.0,0.0,0.0,1.4400000000000002e-10,0.0,0.0,0.0,1.0,2
2025/04/09 10:58:28.4573210,1744189108,4002159,mA1/gps,0,1,63.43459648611418,10.393091155095373,0.0,1.4400000000000002e-10,0.0,0.0,0.0,1.4400000000000002e-10,0.0,0.0,0.0,1.0,2
2025/04/09 10:58:28.55016130,1744189108,54166189,mA1/gps,0,1,63.434596486408665,10.393091151685669,0.0,1.4400000000000002e-10,0.0,0.0,0.0,1.4400000000000002e-10,0.0,0.0,0.0,1.0,2
2025/04/09 10:58:28.105984839,1744189108,105085948,mA1/gps,0,1,63.43459648909965,10.393091146837168,0.0,1.4400000000000002e-10,0.0,0.0,0.0,1.4400000000000002e-10,0.0,0.0,0.0,1.0,2
2025/04/09 10:58:28.155621771,1744189108,152124767,mA1/gps,0,1,63.434596492348675,10.393091142048407,0.0,1.4400000000000002e-10,0.0,0.0,0.0,1.4400000000000002e-10,0.0,0.0,0.0,1.0,2
2025/04/09 10:58:28.205530611,1744189108,202419721,mA1/gps,0,1,63.43459649445659,10.393091136181676,0.0,1.4400000000000002e-10,0.0,0.0,0.0,1.4400000000000002e-10,0.0,0.0,0.0,1.0,2
2025/04/09 10:58:28.255691389,1744189108,253820440,mA1/gps,0,1,63.43459649908352,10.393091128945116,0.0,1.4400000000000002e-10,0.0,0.0,0.0,1.4400000000000002e-10,0.0,0.0,0.0,1.0,2
2025/04/09 10:58:28.306342952,1744189108,304120726,mA1/gps,0,1,63.43459650431475,10.393091122167448,0.0,1.4400000000000002e-10,0.0,0.0,0.0,1.4400000000000002e-10,0.0,0.0,0.0,1.0,2
2025/04/09 10:58:28.357605292,1744189108,355849728,mA1/gps,0,1,63.43459651140341,10.393091115495789,0.0,1.4400000000000002e-10,0.0,0.0,0.0,1.4400000000000002e-10,0.0,0.0,0.0,1.0,2
2025/04/09 10:58:28.400339601,1744189108,397718593,mA1/gps,0,1,63.43459651977037,10.393091109287017,0.0,1.4400000000000002e-10,0.0,0.0,0.0,1.4400000000000002e-10,0.0,0.0,0.0,1.0,2
2025/04/09 10:58:28.454194051,1744189108,451678332,mA1/gps,0,1,63.4345965287473,10.393091103135285,0.0,1.4400000000000002e-10,0.0,0.0,0.0,1.4400000000000002e-10,0.0,0.0,0.0,1.0,2
2025/04/09 10:58:28.504589039,1744189108,503186811,mA1/gps,0,1,63.434596540641465,10.393091097315635,0.0,1.4400000000000002e-10,0.0,0.0,0.0,1.4400000000000002e-10,0.0,0.0,0.0,1.0,2
2025/04/09 10:58:28.553233515,1744189108,552276704,mA1/gps,0,1,63.43459655370783,10.39309109161442,0.0,1.4400000000000002e-10,0.0,0.0,0.0,1.4400000000000002e-10,0.0,0.0,0.0,1.0,2
2025/04/09 10:58:28.604048910,1744189108,603249438,mA1/gps,0,1,63.434596567734154,10.393091087230962,0.0,1.4400000000000002e-10,0.0,0.0,0.0,1.4400000000000002e-10,0.0,0.0,0.0,1.0,2
2025/04/09 10:58:28.655718207,1744189108,654074855,mA1/gps,0,1,63.43459658539444,10.393091082931097,0.0,1.4400000000000002e-10,0.0,0.0,0.0,1.4400000000000002e-10,0.0,0.0,0.0,1.0,2
2025/04/09 10:58:28.705433054,1744189108,704036945,mA1/gps,0,1,63.43459660536269,10.393091078702968,0.0,1.4400000000000002e-10,0.0,0.0,0.0,1.4400000000000002e-10,0.0,0.0,0.0,1.0,2
2025/04/09 10:58:28.756744668,1744189108,755112840,mA1/gps,0,1,63.43459662634593,10.393091075370723,0.0,1.4400000000000002e-10,0.0,0.0,0.0,1.4400000000000002e-10,0.0,0.0,0.0,1.0,2
2025/04/09 10:58:28.806211446,1744189108,805214925,mA1/gps,0,1,63.43459665062651,10.393091072225143,0.0,1.4400000000000002e-10,0.0,0.0,0.0,1.4400000000000002e-10,0.0,0.0,0.0,1.0,2
2025/04/09 10:58:28.860641832,1744189108,857966297,mA1/gps,0,1,63.43459667609631,10.393091069135458,0.0,1.4400000000000002e-10,0.0,0.0,0.0,1.4400000000000002e-10,0.0,0.0,0.0,1.0,2
2025/04/09 10:58:28.902753403,1744189108,898941733,mA1/gps,0,1,63.43459670429708,10.393091066439307,0.0,1.4400000000000002e-10,0.0,0.0,0.0,1.4400000000000002e-10,0.0,0.0,0.0,1.0,2
2025/04/09 10:58:28.953719150,1744189108,951478605,mA1/gps,0,1,63.434596735414885,10.393091063691518,0.0,1.4400000000000002e-10,0.0,0.0,0.0,1.4400000000000002e-10,0.0,0.0,0.0,1.0,2
2025/04/09 10:58:29.5503503,1744189109,4451521,mA1/gps,0,1,63.43459676895981,10.393091060752887,0.0,1.4400000000000002e-10,0.0,0.0,0.0,1.4400000000000002e-10,0.0,0.0,0.0,1.0,2
2025/04/09 10:58:29.58299871,1744189109,55239637,mA1/gps,0,1,63.43459680250636,10.393091057318099,0.0,1.4400000000000002e-10,0.0,0.0,0.0,1.4400000000000002e-10,0.0,0.0,0.0,1.0,2
2025/04/09 10:58:29.107824821,1744189109,106038750,mA1/gps,0,1,63.43459684192905,10.393091054121216,0.0,1.4400000000000002e-10,0.0,0.0,0.0,1.4400000000000002e-10,0.0,0.0,0.0,1.0,2
2025/04/09 10:58:29.148787974,1744189109,146765880,mA1/gps,0,1,63.43459688200225,10.393091049165331,0.0,1.4400000000000002e-10,0.0,0.0,0.0,1.4400000000000002e-10,0.0,0.0,0.0,1.0,2
2025/04/09 10:58:29.200300108,1744189109,197889702,mA1/gps,0,1,63.43459692366954,10.393091044493872,0.0,1.4400000000000002e-10,0.0,0.0,0.0,1.4400000000000002e-10,0.0,0.0,0.0,1.0,2
2025/04/09 10:58:29.249106148,1744189109,247785730,mA1/gps,0,1,63.43459696751887,10.393091038064592,0.0,1.4400000000000002e-10,0.0,0.0,0.0,1.4400000000000002e-10,0.0,0.0,0.0,1.0,2
2025/04/09 10:58:29.299737962,1744189109,298625377,mA1/gps,0,1,63.434597013277475,10.393091030886836,0.0,1.4400000000000002e-10,0.0,0.0,0.0,1.4400000000000002e-10,0.0,0.0,0.0,1.0,2
2025/04/09 10:58:29.350012621,1744189109,348457862,mA1/gps,0,1,63.4345970616025,10.393091021731927,0.0,1.4400000000000002e-10,0.0,0.0,0.0,1.4400000000000002e-10,0.0,0.0,0.0,1.0,2
2025/04/09 10:58:29.401670239,1744189109,400797442,mA1/gps,0,1,63.434597110851094,10.393091011349632,0.0,1.4400000000000002e-10,0.0,0.0,0.0,1.4400000000000002e-10,0.0,0.0,0.0,1.0,2
2025/04/09 10:58:29.451515271,1744189109,450625197,mA1/gps,0,1,63.43459716344977,10.39309100009898,0.0,1.4400000000000002e-10,0.0,0.0,0.0,1.4400000000000002e-10,0.0,0.0,0.0,1.0,2
2025/04/09 10:58:29.503975228,1744189109,501751347,mA1/gps,0,1,63.43459721806894,10.393090988497322,0.0,1.4400000000000002e-10,0.0,0.0,0.0,1.4400000000000002e-10,0.0,0.0,0.0,1.0,2
2025/04/09 10:58:29.553214851,1744189109,551845456,mA1/gps,0,1,63.43459727353076,10.393090977177806,0.0,1.4400000000000002e-10,0.0,0.0,0.0,1.4400000000000002e-10,0.0,0.0,0.0,1.0,2
2025/04/09 10:58:29.604953854,1744189109,602598735,mA1/gps,0,1,63.434597330575244,10.393090964868858,0.0,1.4400000000000002e-10,0.0,0.0,0.0,1.4400000000000002e-10,0.0,0.0,0.0,1.0,2
2025/04/09 10:58:29.657886012,1744189109,653583157,mA1/gps,0,1,63.434597389197314,10.393090953636992,0.0,1.4400000000000002e-10,0.0,0.0,0.0,1.4400000000000002e-10,0.0,0.0,0.0,1.0,2
2025/04/09 10:58:29.706010578,1744189109,705201807,mA1/gps,0,1,63.43459744924891,10.39309094220879,0.0,1.4400000000000002e-10,0.0,0.0,0.0,1.4400000000000002e-10,0.0,0.0,0.0,1.0,2
2025/04/09 10:58:29.758025419,1744189109,756188520,mA1/gps,0,1,63.43459751071012,10.393090932689987,0.0,1.4400000000000002e-10,0.0,0.0,0.0,1.4400000000000002e-10,0.0,0.0,0.0,1.0,2
2025/04/09 10:58:29.799733196,1744189109,798575250,mA1/gps,0,1,63.43459757314581,10.393090923506103,0.0,1.4400000000000002e-10,0.0,0.0,0.0,1.4400000000000002e-10,0.0,0.0,0.0,1.0,2
2025/04/09 10:58:29.850696095,1744189109,849482657,mA1/gps,0,1,63.434597637794944,10.393090915965093,0.0,1.4400000000000002e-10,0.0,0.0,0.0,1.4400000000000002e-10,0.0,0.0,0.0,1.0,2
2025/04/09 10:58:29.902444537,1744189109,900930781,mA1/gps,0,1,63.43459770338489,10.393090909820655,0.0,1.4400000000000002e-10,0.0,0.0,0.0,1.4400000000000002e-10,0.0,0.0,0.0,1.0,2
2025/04/09 10:58:29.952421963,1744189109,950621764,mA1/gps,0,1,63.43459777078737,10.39309090548452,0.0,1.4400000000000002e-10,0.0,0.0,0.0,1.4400000000000002e-10,0.0,0.0,0.0,1.0,2
2025/04/09 10:58:30.5255595,1744189110,2294837,mA1/gps,0,1,63.43459783953692,10.393090902821443,0.0,1.4400000000000002e-10,0.0,0.0,0.0,1.4400000000000002e-10,0.0,0.0,0.0,1.0,2
2025/04/09 10:58:30.54996718,1744189110,52937476,mA1/gps,0,1,63.43459790867602,10.393090901580639,0.0,1.4400000000000002e-10,0.0,0.0,0.0,1.4400000000000002e-10,0.0,0.0,0.0,1.0,2
2025/04/09 10:58:30.108949568,1744189110,103997605,mA1/gps,0,1,63.43459798057894,10.393090901997978,0.0,1.4400000000000002e-10,0.0,0.0,0.0,1.4400000000000002e-10,0.0,0.0,0.0,1.0,2
2025/04/09 10:58:30.158374572,1744189110,154361677,mA1/gps,0,1,63.434598052548246,10.393090903040619,0.0,1.4400000000000002e-10,0.0,0.0,0.0,1.4400000000000002e-10,0.0,0.0,0.0,1.0,2
2025/04/09 10:58:30.207241257,1744189110,205970502,mA1/gps,0,1,63.43459812676204,10.39309090470927,0.0,1.4400000000000002e-10,0.0,0.0,0.0,1.4400000000000002e-10,0.0,0.0,0.0,1.0,2
2025/04/09 10:58:30.247014560,1744189110,246077779,mA1/gps,0,1,63.43459820226189,10.393090906462294,0.0,1.4400000000000002e-10,0.0,0.0,0.0,1.4400000000000002e-10,0.0,0.0,0.0,1.0,2
2025/04/09 10:58:30.299525695,1744189110,297054878,mA1/gps,0,1,63.43459827844934,10.393090907993681,0.0,1.4400000000000002e-10,0.0,0.0,0.0,1.4400000000000002e-10,0.0,0.0,0.0,1.0,2
2025/04/09 10:58:30.349191997,1744189110,347201130,mA1/gps,0,1,63.434598356893716,10.393090909242991,0.0,1.4400000000000002e-10,0.0,0.0,0.0,1.4400000000000002e-10,0.0,0.0,0.0,1.0,2
2025/04/09 10:58:30.399015968,1744189110,398146997,mA1/gps,0,1,63.43459843717641,10.393090910013802,0.0,1.4400000000000002e-10,0.0,0.0,0.0,1.4400000000000002e-10,0.0,0.0,0.0,1.0,2
2025/04/09 10:58:30.451355741,1744189110,449719704,mA1/gps,0,1,63.43459851850484,10.393090909203984,0.0,1.4400000000000002e-10,0.0,0.0,0.0,1.4400000000000002e-10,0.0,0.0,0.0,1.0,2
2025/04/09 10:58:30.500229697,1744189110,499739719,mA1/gps,0,1,63.43459860152499,10.393090907850471,0.0,1.4400000000000002e-10,0.0,0.0,0.0,1.4400000000000002e-10,0.0,0.0,0.0,1.0,2
2025/04/09 10:58:30.554527923,1744189110,552090075,mA1/gps,0,1,63.43459868576374,10.39309090425404,0.0,1.4400000000000002e-10,0.0,0.0,0.0,1.4400000000000002e-10,0.0,0.0,0.0,1.0,2
2025/04/09 10:58:30.606708675,1744189110,603078082,mA1/gps,0,1,63.434598771331146,10.393090899527552,0.0,1.4400000000000002e-10,0.0,0.0,0.0,1.4400000000000002e-10,0.0,0.0,0.0,1.0,2
2025/04/09 10:58:30.655244633,1744189110,652935801,mA1/gps,0,1,63.43459885914926,10.393090893772039,0.0,1.4400000000000002e-10,0.0,0.0,0.0,1.4400000000000002e-10,0.0,0.0,0.0,1.0,2
2025/04/09 10:58:30.704720864,1744189110,704071324,mA1/gps,0,1,63.434598947375505,10.393090886210164,0.0,1.4400000000000002e-10,0.0,0.0,0.0,1.4400000000000002e-10,0.0,0.0,0.0,1.0,2
2025/04/09 10:58:30.755798245,1744189110,754032612,mA1/gps,0,1,63.43459903791752,10.393090877576059,0.0,1.4400000000000002e-10,0.0,0.0,0.0,1.4400000000000002e-10,0.0,0.0,0.0,1.0,2
2025/04/09 10:58:30.806445399,1744189110,804898213,mA1/gps,0,1,63.43459912735334,10.393090868762728,0.0,1.4400000000000002e-10,0.0,0.0,0.0,1.4400000000000002e-10,0.0,0.0,0.0,1.0,2
2025/04/09 10:58:30.856820924,1744189110,855319940,mA1/gps,0,1,63.434599219577876,10.393090859271188,0.0,1.4400000000000002e-10,0.0,0.0,0.0,1.4400000000000002e-10,0.0,0.0,0.0,1.0,2
2025/04/09 10:58:30.908006532,1744189110,906083241,mA1/gps,0,1,63.43459931378896,10.393090849649061,0.0,1.4400000000000002e-10,0.0,0.0,0.0,1.4400000000000002e-10,0.0,0.0,0.0,1.0,2
2025/04/09 10:58:30.950007370,1744189110,947427098,mA1/gps,0,1,63.43459940802621,10.393090840652814,0.0,1.4400000000000002e-10,0.0,0.0,0.0,1.4400000000000002e-10,0.0,0.0,0.0,1.0,2
2025/04/09 10:58:31.232147,1744189110,998378268,mA1/gps,0,1,63.434599503246986,10.393090831945198,0.0,1.4400000000000002e-10,0.0,0.0,0.0,1.4400000000000002e-10,0.0,0.0,0.0,1.0,2
2025/04/09 10:58:31.48467298,1744189111,47425894,mA1/gps,0,1,63.43459960026107,10.393090824029292,0.0,1.4400000000000002e-10,0.0,0.0,0.0,1.4400000000000002e-10,0.0,0.0,0.0,1.0,2
2025/04/09 10:58:31.99100352,1744189111,98411136,mA1/gps,0,1,63.434599698006124,10.393090817301468,0.0,1.4400000000000002e-10,0.0,0.0,0.0,1.4400000000000002e-10,0.0,0.0,0.0,1.0,2
2025/04/09 10:58:31.151027823,1744189111,148908335,mA1/gps,0,1,63.43459979476941,10.393090812236956,0.0,1.4400000000000002e-10,0.0,0.0,0.0,1.4400000000000002e-10,0.0,0.0,0.0,1.0,2
2025/04/09 10:58:31.202365262,1744189111,199813779,mA1/gps,0,1,63.43459989310925,10.393090808359336,0.0,1.4400000000000002e-10,0.0,0.0,0.0,1.4400000000000002e-10,0.0,0.0,0.0,1.0,2
2025/04/09 10:58:31.251252813,1744189111,249637120,mA1/gps,0,1,63.434599992174256,10.393090805914353,0.0,1.4400000000000002e-10,0.0,0.0,0.0,1.4400000000000002e-10,0.0,0.0,0.0,1.0,2
2025/04/09 10:58:31.303201966,1744189111,301334652,mA1/gps,0,1,63.43460009324075,10.393090805270171,0.0,1.4400000000000002e-10,0.0,0.0,0.0,1.4400000000000002e-10,0.0,0.0,0.0,1.0,2
2025/04/09 10:58:31.357557909,1744189111,354278627,mA1/gps,0,1,63.43460019370868,10.393090804872841,0.0,1.4400000000000002e-10,0.0,0.0,0.0,1.4400000000000002e-10,0.0,0.0,0.0,1.0,2
2025/04/09 10:58:31.404895573,1744189111,403858323,mA1/gps,0,1,63.434600295926586,10.393090806463455,0.0,1.4400000000000002e-10,0.0,0.0,0.0,1.4400000000000002e-10,0.0,0.0,0.0,1.0,2
2025/04/09 10:58:31.456320526,1744189111,452372536,mA1/gps,0,1,63.434600398094325,10.393090808316536,0.0,1.4400000000000002e-10,0.0,0.0,0.0,1.4400000000000002e-10,0.0,0.0,0.0,1.0,2
2025/04/09 10:58:31.506548460,1744189111,504654136,mA1/gps,0,1,63.43460050132005,10.393090810217304,0.0,1.4400000000000002e-10,0.0,0.0,0.0,1.4400000000000002e-10,0.0,0.0,0.0,1.0,2
2025/04/09 10:58:31.556389966,1744189111,554478992,mA1/gps,0,1,63.43460060548858,10.393090812617436,0.0,1.4400000000000002e-10,0.0,0.0,0.0,1.4400000000000002e-10,0.0,0.0,0.0,1.0,2
2025/04/09 10:58:31.608556085,1744189111,605360100,mA1/gps,0,1,63.434600711274584,10.393090815066781,0.0,1.4400000000000002e-10,0.0,0.0,0.0,1.4400000000000002e-10,0.0,0.0,0.0,1.0,2
2025/04/09 10:58:31.656907286,1744189111,655497514,mA1/gps,0,1,63.43460081740844,10.393090816313599,0.0,1.4400000000000002e-10,0.0,0.0,0.0,1.4400000000000002e-10,0.0,0.0,0.0,1.0,2
2025/04/09 10:58:31.707297302,1744189111,706275163,mA1/gps,0,1,63.43460092312981,10.393090816581669,0.0,1.4400000000000002e-10,0.0,0.0,0.0,1.4400000000000002e-10,0.0,0.0,0.0,1.0,2
2025/04/09 10:58:31.750508956,1744189111,748047292,mA1/gps,0,1,63.43460103118885,10.393090816447637,0.0,1.4400000000000002e-10,0.0,0.0,0.0,1.4400000000000002e-10,0.0,0.0,0.0,1.0,2
2025/04/09 10:58:31.800061676,1744189111,799139783,mA1/gps,0,1,63.43460114006314,10.393090814912998,0.0,1.4400000000000002e-10,0.0,0.0,0.0,1.4400000000000002e-10,0.0,0.0,0.0,1.0,2
2025/04/09 10:58:31.849993101,1744189111,848919474,mA1/gps,0,1,63.43460124901309,10.393090812200809,0.0,1.4400000000000002e-10,0.0,0.0,0.0,1.4400000000000002e-10,0.0,0.0,0.0,1.0,2
2025/04/09 10:58:31.904431488,1744189111,899936859,mA1/gps,0,1,63.43460135923571,10.393090807706024,0.0,1.4400000000000002e-10,0.0,0.0,0.0,1.4400000000000002e-10,0.0,0.0,0.0,1.0,2
2025/04/09 10:58:31.954561424,1744189111,949838516,mA1/gps,0,1,63.43460147106886,10.393090802909551,0.0,1.4400000000000002e-10,0.0,0.0,0.0,1.4400000000000002e-10,0.0,0.0,0.0,1.0,2
2025/04/09 10:58:32.2047754,1744189112,948054,mA1/gps,0,1,63.43460158403944,10.393090797089556,0.0,1.4400000000000002e-10,0.0,0.0,0.0,1.4400000000000002e-10,0.0,0.0,0.0,1.0,2
2025/04/09 10:58:32.52998580,1744189112,50977090,mA1/gps,0,1,63.43460169629723,10.393090789751497,0.0,1.4400000000000002e-10,0.0,0.0,0.0,1.4400000000000002e-10,0.0,0.0,0.0,1.0,2
2025/04/09 10:58:32.102929600,1744189112,101879108,mA1/gps,0,1,63.43460180989159,10.393090782658073,0.0,1.4400000000000002e-10,0.0,0.0,0.0,1.4400000000000002e-10,0.0,0.0,0.0,1.0,2
2025/04/09 10:58:32.153229411,1744189112,151659021,mA1/gps,0,1,63.43460192494166,10.393090774798504,0.0,1.4400000000000002e-10,0.0,0.0,0.0,1.4400000000000002e-10,0.0,0.0,0.0,1.0,2
2025/04/09 10:58:32.204682154,1744189112,202614451,mA1/gps,0,1,63.434602040852425,10.393090767055286,0.0,1.4400000000000002e-10,0.0,0.0,0.0,1.4400000000000002e-10,0.0,0.0,0.0,1.0,2
2025/04/09 10:58:32.254228836,1744189112,252636604,mA1/gps,0,1,63.43460215976228,10.393090760066094,0.0,1.4400000000000002e-10,0.0,0.0,0.0,1.4400000000000002e-10,0.0,0.0,0.0,1.0,2
2025/04/09 10:58:32.306539325,1744189112,303504084,mA1/gps,0,1,63.4346022767213,10.393090753144199,0.0,1.4400000000000002e-10,0.0,0.0,0.0,1.4400000000000002e-10,0.0,0.0,0.0,1.0,2
2025/04/09 10:58:32.355138901,1744189112,353381748,mA1/gps,0,1,63.43460239337012,10.393090747455206,0.0,1.4400000000000002e-10,0.0,0.0,0.0,1.4400000000000002e-10,0.0,0.0,0.0,1.0,2
2025/04/09 10:58:32.405249928,1744189112,404401178,mA1/gps,0,1,63.43460251224847,10.393090743035549,0.0,1.4400000000000002e-10,0.0,0.0,0.0,1.4400000000000002e-10,0.0,0.0,0.0,1.0,2
2025/04/09 10:58:32.456406819,1744189112,455148800,mA1/gps,0,1,63.434602632610684,10.393090739439184,0.0,1.4400000000000002e-10,0.0,0.0,0.0,1.4400000000000002e-10,0.0,0.0,0.0,1.0,2
2025/04/09 10:58:32.506399009,1744189112,505261491,mA1/gps,0,1,63.43460275314218,10.393090737069706,0.0,1.4400000000000002e-10,0.0,0.0,0.0,1.4400000000000002e-10,0.0,0.0,0.0,1.0,2
2025/04/09 10:58:32.561129972,1744189112,556242971,mA1/gps,0,1,63.43460287429548,10.393090735175992,0.0,1.4400000000000002e-10,0.0,0.0,0.0,1.4400000000000002e-10,0.0,0.0,0.0,1.0,2
2025/04/09 10:58:32.606806902,1744189112,606074995,mA1/gps,0,1,63.43460299582752,10.39309073468702,0.0,1.4400000000000002e-10,0.0,0.0,0.0,1.4400000000000002e-10,0.0,0.0,0.0,1.0,2
2025/04/09 10:58:32.647922615,1744189112,645988448,mA1/gps,0,1,63.434603116497506,10.393090734683943,0.0,1.4400000000000002e-10,0.0,0.0,0.0,1.4400000000000002e-10,0.0,0.0,0.0,1.0,2
2025/04/09 10:58:32.698730629,1744189112,696983401,mA1/gps,0,1,63.43460323851485,10.393090736362378,0.0,1.4400000000000002e-10,0.0,0.0,0.0,1.4400000000000002e-10,0.0,0.0,0.0,1.0,2
2025/04/09 10:58:32.749816975,1744189112,747991021,mA1/gps,0,1,63.43460336086694,10.393090738396674,0.0,1.4400000000000002e-10,0.0,0.0,0.0,1.4400000000000002e-10,0.0,0.0,0.0,1.0,2
2025/04/09 10:58:32.798793691,1744189112,798059184,mA1/gps,0,1,63.43460348397094,10.393090740397046,0.0,1.4400000000000002e-10,0.0,0.0,0.0,1.4400000000000002e-10,0.0,0.0,0.0,1.0,2
2025/04/09 10:58:32.851812852,1744189112,849799757,mA1/gps,0,1,63.434603608068336,10.39309074263171,0.0,1.4400000000000002e-10,0.0,0.0,0.0,1.4400000000000002e-10,0.0,0.0,0.0,1.0,2
2025/04/09 10:58:32.903587980,1744189112,902481146,mA1/gps,0,1,63.434603732897564,10.393090744673524,0.0,1.4400000000000002e-10,0.0,0.0,0.0,1.4400000000000002e-10,0.0,0.0,0.0,1.0,2
2025/04/09 10:58:32.956207942,1744189112,952687759,mA1/gps,0,1,63.43460385728733,10.393090746077004,0.0,1.4400000000000002e-10,0.0,0.0,0.0,1.4400000000000002e-10,0.0,0.0,0.0,1.0,2
2025/04/09 10:58:33.4332992,1744189113,3338753,mA1/gps,0,1,63.43460398106449,10.393090746834977,0.0,1.4400000000000002e-10,0.0,0.0,0.0,1.4400000000000002e-10,0.0,0.0,0.0,1.0,2
2025/04/09 10:58:33.55029269,1744189113,53162958,mA1/gps,0,1,63.43460410693134,10.39309074660531,0.0,1.4400000000000002e-10,0.0,0.0,0.0,1.4400000000000002e-10,0.0,0.0,0.0,1.0,2
2025/04/09 10:58:33.105293557,1744189113,104173487,mA1/gps,0,1,63.43460423410732,10.393090745832898,0.0,1.4400000000000002e-10,0.0,0.0,0.0,1.4400000000000002e-10,0.0,0.0,0.0,1.0,2
2025/04/09 10:58:33.148273268,1744189113,147198825,mA1/gps,0,1,63.43460436088659,10.393090743584256,0.0,1.4400000000000002e-10,0.0,0.0,0.0,1.4400000000000002e-10,0.0,0.0,0.0,1.0,2
2025/04/09 10:58:33.199716855,1744189113,198633800,mA1/gps,0,1,63.43460448733582,10.39309073998001,0.0,1.4400000000000002e-10,0.0,0.0,0.0,1.4400000000000002e-10,0.0,0.0,0.0,1.0,2
2025/04/09 10:58:33.250431126,1744189113,248423509,mA1/gps,0,1,63.43460461451382,10.393090736048304,0.0,1.4400000000000002e-10,0.0,0.0,0.0,1.4400000000000002e-10,0.0,0.0,0.0,1.0,2
2025/04/09 10:58:33.302130131,1744189113,299480900,mA1/gps,0,1,63.43460474434443,10.393090731006293,0.0,1.4400000000000002e-10,0.0,0.0,0.0,1.4400000000000002e-10,0.0,0.0,0.0,1.0,2
2025/04/09 10:58:33.352606572,1744189113,350573581,mA1/gps,0,1,63.434604872983,10.393090724881926,0.0,1.4400000000000002e-10,0.0,0.0,0.0,1.4400000000000002e-10,0.0,0.0,0.0,1.0,2
2025/04/09 10:58:33.401329420,1744189113,400173577,mA1/gps,0,1,63.43460500210168,10.393090719141888,0.0,1.4400000000000002e-10,0.0,0.0,0.0,1.4400000000000002e-10,0.0,0.0,0.0,1.0,2
2025/04/09 10:58:33.454284825,1744189113,452844155,mA1/gps,0,1,63.43460513265905,10.393090712438939,0.0,1.4400000000000002e-10,0.0,0.0,0.0,1.4400000000000002e-10,0.0,0.0,0.0,1.0,2
2025/04/09 10:58:33.506443520,1744189113,504524763,mA1/gps,0,1,63.434605265074595,10.393090706669067,0.0,1.4400000000000002e-10,0.0,0.0,0.0,1.4400000000000002e-10,0.0,0.0,0.0,1.0,2
2025/04/09 10:58:33.557372833,1744189113,554533449,mA1/gps,0,1,63.43460539663671,10.393090700479519,0.0,1.4400000000000002e-10,0.0,0.0,0.0,1.4400000000000002e-10,0.0,0.0,0.0,1.0,2
2025/04/09 10:58:33.608457763,1744189113,606368029,mA1/gps,0,1,63.434605528094394,10.39309069497492,0.0,1.4400000000000002e-10,0.0,0.0,0.0,1.4400000000000002e-10,0.0,0.0,0.0,1.0,2
2025/04/09 10:58:33.658822692,1744189113,656272077,mA1/gps,0,1,63.43460566178016,10.39309069037244,0.0,1.4400000000000002e-10,0.0,0.0,0.0,1.4400000000000002e-10,0.0,0.0,0.0,1.0,2
2025/04/09 10:58:33.708567768,1744189113,706352340,mA1/gps,0,1,63.43460579511825,10.393090686149666,0.0,1.4400000000000002e-10,0.0,0.0,0.0,1.4400000000000002e-10,0.0,0.0,0.0,1.0,2
2025/04/09 10:58:33.754454347,1744189113,750543733,mA1/gps,0,1,63.43460593097538,10.39309068373566,0.0,1.4400000000000002e-10,0.0,0.0,0.0,1.4400000000000002e-10,0.0,0.0,0.0,1.0,2
2025/04/09 10:58:33.798618146,1744189113,797809129,mA1/gps,0,1,63.43460606566462,10.393090681978352,0.0,1.4400000000000002e-10,0.0,0.0,0.0,1.4400000000000002e-10,0.0,0.0,0.0,1.0,2
2025/04/09 10:58:33.851685144,1744189113,848990837,mA1/gps,0,1,63.43460620063606,10.393090681629445,0.0,1.4400000000000002e-10,0.0,0.0,0.0,1.4400000000000002e-10,0.0,0.0,0.0,1.0,2
2025/04/09 10:58:33.903683557,1744189113,902318675,mA1/gps,0,1,63.43460633643903,10.393090681412316,0.0,1.4400000000000002e-10,0.0,0.0,0.0,1.4400000000000002e-10,0.0,0.0,0.0,1.0,2
2025/04/09 10:58:33.954530281,1744189113,952783851,mA1/gps,0,1,63.434606472592016,10.393090682060603,0.0,1.4400000000000002e-10,0.0,0.0,0.0,1.4400000000000002e-10,0.0,0.0,0.0,1.0,2
2025/04/09 10:58:34.5580593,1744189114,3830183,mA1/gps,0,1,63.43460661002702,10.393090683831167,0.0,1.4400000000000002e-10,0.0,0.0,0.0,1.4400000000000002e-10,0.0,0.0,0.0,1.0,2
2025/04/09 10:58:34.54652825,1744189114,53625744,mA1/gps,0,1,63.434606746401144,10.393090685950328,0.0,1.4400000000000002e-10,0.0,0.0,0.0,1.4400000000000002e-10,0.0,0.0,0.0,1.0,2
2025/04/09 10:58:34.106268420,1744189114,104573793,mA1/gps,0,1,63.43460688502724,10.393090688110583,0.0,1.4400000000000002e-10,0.0,0.0,0.0,1.4400000000000002e-10,0.0,0.0,0.0,1.0,2
2025/04/09 10:58:34.146666077,1744189114,146026522,mA1/gps,0,1,63.43460702223141,10.393090690543046,0.0,1.4400000000000002e-10,0.0,0.0,0.0,1.4400000000000002e-10,0.0,0.0,0.0,1.0,2
2025/04/09 10:58:34.200266644,1744189114,199285191,mA1/gps,0,1,63.434607161391874,10.393090692283897,0.0,1.4400000000000002e-10,0.0,0.0,0.0,1.4400000000000002e-10,0.0,0.0,0.0,1.0,2
2025/04/09 10:58:34.251601485,1744189114,247537527,mA1/gps,0,1,63.43460729892428,10.393090693129782,0.0,1.4400000000000002e-10,0.0,0.0,0.0,1.4400000000000002e-10,0.0,0.0,0.0,1.0,2
2025/04/09 10:58:34.299221582,1744189114,298486486,mA1/gps,0,1,63.43460743803244,10.393090693864057,0.0,1.4400000000000002e-10,0.0,0.0,0.0,1.4400000000000002e-10,0.0,0.0,0.0,1.0,2
2025/04/09 10:58:34.349898160,1744189114,348297157,mA1/gps,0,1,63.434607577163824,10.393090693383547,0.0,1.4400000000000002e-10,0.0,0.0,0.0,1.4400000000000002e-10,0.0,0.0,0.0,1.0,2
2025/04/09 10:58:34.402621451,1744189114,399311217,mA1/gps,0,1,63.434607717046674,10.393090691862197,0.0,1.4400000000000002e-10,0.0,0.0,0.0,1.4400000000000002e-10,0.0,0.0,0.0,1.0,2
2025/04/09 10:58:34.450871384,1744189114,449155350,mA1/gps,0,1,63.43460785684276,10.393090689170341,0.0,1.4400000000000002e-10,0.0,0.0,0.0,1.4400000000000002e-10,0.0,0.0,0.0,1.0,2
2025/04/09 10:58:34.502122380,1744189114,500177344,mA1/gps,0,1,63.43460799800235,10.393090686450972,0.0,1.4400000000000002e-10,0.0,0.0,0.0,1.4400000000000002e-10,0.0,0.0,0.0,1.0,2
2025/04/09 10:58:34.552694311,1744189114,550090750,mA1/gps,0,1,63.43460813773622,10.393090681999249,0.0,1.4400000000000002e-10,0.0,0.0,0.0,1.4400000000000002e-10,0.0,0.0,0.0,1.0,2
2025/04/09 10:58:34.603341213,1744189114,602094309,mA1/gps,0,1,63.43460827759161,10.393090676825405,0.0,1.4400000000000002e-10,0.0,0.0,0.0,1.4400000000000002e-10,0.0,0.0,0.0,1.0,2
2025/04/09 10:58:34.654802584,1744189114,651833537,mA1/gps,0,1,63.43460841940772,10.393090672028178,0.0,1.4400000000000002e-10,0.0,0.0,0.0,1.4400000000000002e-10,0.0,0.0,0.0,1.0,2
2025/04/09 10:58:34.703772931,1744189114,702490561,mA1/gps,0,1,63.43460856142907,10.393090666528531,0.0,1.4400000000000002e-10,0.0,0.0,0.0,1.4400000000000002e-10,0.0,0.0,0.0,1.0,2
2025/04/09 10:58:34.753526463,1744189114,752605383,mA1/gps,0,1,63.43460870418253,10.393090660726635,0.0,1.4400000000000002e-10,0.0,0.0,0.0,1.4400000000000002e-10,0.0,0.0,0.0,1.0,2
2025/04/09 10:58:34.807509074,1744189114,803560885,mA1/gps,0,1,63.43460884747543,10.393090655833364,0.0,1.4400000000000002e-10,0.0,0.0,0.0,1.4400000000000002e-10,0.0,0.0,0.0,1.0,2
2025/04/09 10:58:34.854512946,1744189114,853438811,mA1/gps,0,1,63.43460899034717,10.39309065146574,0.0,1.4400000000000002e-10,0.0,0.0,0.0,1.4400000000000002e-10,0.0,0.0,0.0,1.0,2
2025/04/09 10:58:34.905492549,1744189114,904560330,mA1/gps,0,1,63.43460913460268,10.393090646986014,0.0,1.4400000000000002e-10,0.0,0.0,0.0,1.4400000000000002e-10,0.0,0.0,0.0,1.0,2
2025/04/09 10:58:34.963761952,1744189114,956841010,mA1/gps,0,1,63.43460927885547,10.393090643875132,0.0,1.4400000000000002e-10,0.0,0.0,0.0,1.4400000000000002e-10,0.0,0.0,0.0,1.0,2
2025/04/09 10:58:34.998485004,1744189114,997743017,mA1/gps,0,1,63.434609424003845,10.393090641527312,0.0,1.4400000000000002e-10,0.0,0.0,0.0,1.4400000000000002e-10,0.0,0.0,0.0,1.0,2
2025/04/09 10:58:35.48931174,1744189115,47653788,mA1/gps,0,1,63.43460956991571,10.393090640171145,0.0,1.4400000000000002e-10,0.0,0.0,0.0,1.4400000000000002e-10,0.0,0.0,0.0,1.0,2
2025/04/09 10:58:35.100446750,1744189115,98520718,mA1/gps,0,1,63.43460971655223,10.393090639792506,0.0,1.4400000000000002e-10,0.0,0.0,0.0,1.4400000000000002e-10,0.0,0.0,0.0,1.0,2
2025/04/09 10:58:35.150619381,1744189115,148764366,mA1/gps,0,1,63.43460986264202,10.393090639979283,0.0,1.4400000000000002e-10,0.0,0.0,0.0,1.4400000000000002e-10,0.0,0.0,0.0,1.0,2
2025/04/09 10:58:35.201537942,1744189115,199738150,mA1/gps,0,1,63.43461001042046,10.393090641105227,0.0,1.4400000000000002e-10,0.0,0.0,0.0,1.4400000000000002e-10,0.0,0.0,0.0,1.0,2
2025/04/09 10:58:35.250276454,1744189115,249590995,mA1/gps,0,1,63.43461015772354,10.393090642639207,0.0,1.4400000000000002e-10,0.0,0.0,0.0,1.4400000000000002e-10,0.0,0.0,0.0,1.0,2
2025/04/09 10:58:35.301911872,1744189115,301044563,mA1/gps,0,1,63.4346103064107,10.393090644535606,0.0,1.4400000000000002e-10,0.0,0.0,0.0,1.4400000000000002e-10,0.0,0.0,0.0,1.0,2
2025/04/09 10:58:35.353343526,1744189115,352400842,mA1/gps,0,1,63.43461045470263,10.393090647138843,0.0,1.4400000000000002e-10,0.0,0.0,0.0,1.4400000000000002e-10,0.0,0.0,0.0,1.0,2
2025/04/09 10:58:35.403645416,1744189115,402004820,mA1/gps,0,1,63.43461060367906,10.393090649234601,0.0,1.4400000000000002e-10,0.0,0.0,0.0,1.4400000000000002e-10,0.0,0.0,0.0,1.0,2
2025/04/09 10:58:35.453421505,1744189115,451962961,mA1/gps,0,1,63.43461075287955,10.393090650716546,0.0,1.4400000000000002e-10,0.0,0.0,0.0,1.4400000000000002e-10,0.0,0.0,0.0,1.0,2
2025/04/09 10:58:35.504171927,1744189115,503076309,mA1/gps,0,1,63.434610903154244,10.39309065171837,0.0,1.4400000000000002e-10,0.0,0.0,0.0,1.4400000000000002e-10,0.0,0.0,0.0,1.0,2
2025/04/09 10:58:35.554018809,1744189115,552681655,mA1/gps,0,1,63.43461105321924,10.393090652940057,0.0,1.4400000000000002e-10,0.0,0.0,0.0,1.4400000000000002e-10,0.0,0.0,0.0,1.0,2
2025/04/09 10:58:35.604396704,1744189115,603540120,mA1/gps,0,1,63.43461120310862,10.39309065301362,0.0,1.4400000000000002e-10,0.0,0.0,0.0,1.4400000000000002e-10,0.0,0.0,0.0,1.0,2
2025/04/09 10:58:35.656878825,1744189115,655019457,mA1/gps,0,1,63.43461135515654,10.39309065211541,0.0,1.4400000000000002e-10,0.0,0.0,0.0,1.4400000000000002e-10,0.0,0.0,0.0,1.0,2
2025/04/09 10:58:35.709476826,1744189115,705770830,mA1/gps,0,1,63.43461150514787,10.393090650261557,0.0,1.4400000000000002e-10,0.0,0.0,0.0,1.4400000000000002e-10,0.0,0.0,0.0,1.0,2
2025/04/09 10:58:35.750690251,1744189115,747366302,mA1/gps,0,1,63.43461165599466,10.393090647527815,0.0,1.4400000000000002e-10,0.0,0.0,0.0,1.4400000000000002e-10,0.0,0.0,0.0,1.0,2
2025/04/09 10:58:35.799646201,1744189115,798080073,mA1/gps,0,1,63.43461180783011,10.393090643728472,0.0,1.4400000000000002e-10,0.0,0.0,0.0,1.4400000000000002e-10,0.0,0.0,0.0,1.0,2
2025/04/09 10:58:35.850088755,1744189115,848367397,mA1/gps,0,1,63.43461196017468,10.393090640001866,0.0,1.4400000000000002e-10,0.0,0.0,0.0,1.4400000000000002e-10,0.0,0.0,0.0,1.0,2
2025/04/09 10:58:35.901161582,1744189115,900225537,mA1/gps,0,1,63.43461211193093,10.39309063514061,0.0,1.4400000000000002e-10,0.0,0.0,0.0,1.4400000000000002e-10,0.0,0.0,0.0,1.0,2
2025/04/09 10:58:35.951814813,1744189115,950290154,mA1/gps,0,1,63.4346122648115,10.393090630020263,0.0,1.4400000000000002e-10,0.0,0.0,0.0,1.4400000000000002e-10,0.0,0.0,0.0,1.0,2
2025/04/09 10:58:36.2720379,1744189116,1290229,mA1/gps,0,1,63.434612418809294,10.393090625799513,0.0,1.4400000000000002e-10,0.0,0.0,0.0,1.4400000000000002e-10,0.0,0.0,0.0,1.0,2
2025/04/09 10:58:36.52188292,1744189116,51071558,mA1/gps,0,1,63.43461257109469,10.393090620909083,0.0,1.4400000000000002e-10,0.0,0.0,0.0,1.4400000000000002e-10,0.0,0.0,0.0,1.0,2
2025/04/09 10:58:36.104674700,1744189116,102098553,mA1/gps,0,1,63.43461272503481,10.39309061611494,0.0,1.4400000000000002e-10,0.0,0.0,0.0,1.4400000000000002e-10,0.0,0.0,0.0,1.0,2
2025/04/09 10:58:36.154588745,1744189116,153399825,mA1/gps,0,1,63.434612879323815,10.39309061228278,0.0,1.4400000000000002e-10,0.0,0.0,0.0,1.4400000000000002e-10,0.0,0.0,0.0,1.0,2
2025/04/09 10:58:36.204962947,1744189116,202929616,mA1/gps,0,1,63.43461303411607,10.393090608862147,0.0,1.4400000000000002e-10,0.0,0.0,0.0,1.4400000000000002e-10,0.0,0.0,0.0,1.0,2
2025/04/09 10:58:36.254065338,1744189116,253318891,mA1/gps,0,1,63.43461318811898,10.393090605454267,0.0,1.4400000000000002e-10,0.0,0.0,0.0,1.4400000000000002e-10,0.0,0.0,0.0,1.0,2
2025/04/09 10:58:36.304617907,1744189116,303768578,mA1/gps,0,1,63.43461334379615,10.393090604372999,0.0,1.4400000000000002e-10,0.0,0.0,0.0,1.4400000000000002e-10,0.0,0.0,0.0,1.0,2
2025/04/09 10:58:36.354670389,1744189116,353682236,mA1/gps,0,1,63.43461350064517,10.393090602738326,0.0,1.4400000000000002e-10,0.0,0.0,0.0,1.4400000000000002e-10,0.0,0.0,0.0,1.0,2
2025/04/09 10:58:36.405374050,1744189116,404613718,mA1/gps,0,1,63.4346136570836,10.393090601737267,0.0,1.4400000000000002e-10,0.0,0.0,0.0,1.4400000000000002e-10,0.0,0.0,0.0,1.0,2
2025/04/09 10:58:36.455451799,1744189116,454480937,mA1/gps,0,1,63.43461381334626,10.39309060135185,0.0,1.4400000000000002e-10,0.0,0.0,0.0,1.4400000000000002e-10,0.0,0.0,0.0,1.0,2
2025/04/09 10:58:36.507521157,1744189116,505462909,mA1/gps,0,1,63.43461397104113,10.393090602285527,0.0,1.4400000000000002e-10,0.0,0.0,0.0,1.4400000000000002e-10,0.0,0.0,0.0,1.0,2
2025/04/09 10:58:36.557930536,1744189116,556300782,mA1/gps,0,1,63.43461412969015,10.393090603390927,0.0,1.4400000000000002e-10,0.0,0.0,0.0,1.4400000000000002e-10,0.0,0.0,0.0,1.0,2
2025/04/09 10:58:36.607042187,1744189116,606243807,mA1/gps,0,1,63.43461428789858,10.393090604799212,0.0,1.4400000000000002e-10,0.0,0.0,0.0,1.4400000000000002e-10,0.0,0.0,0.0,1.0,2
2025/04/09 10:58:36.649243585,1744189116,647863179,mA1/gps,0,1,63.43461444639228,10.393090606036838,0.0,1.4400000000000002e-10,0.0,0.0,0.0,1.4400000000000002e-10,0.0,0.0,0.0,1.0,2
2025/04/09 10:58:36.699379077,1744189116,698754901,mA1/gps,0,1,63.434614605446086,10.393090607406329,0.0,1.4400000000000002e-10,0.0,0.0,0.0,1.4400000000000002e-10,0.0,0.0,0.0,1.0,2
2025/04/09 10:58:36.749686906,1744189116,748556114,mA1/gps,0,1,63.43461476607275,10.393090608266652,0.0,1.4400000000000002e-10,0.0,0.0,0.0,1.4400000000000002e-10,0.0,0.0,0.0,1.0,2
2025/04/09 10:58:36.801779794,1744189116,800940892,mA1/gps,0,1,63.434614926659194,10.39309060975869,0.0,1.4400000000000002e-10,0.0,0.0,0.0,1.4400000000000002e-10,0.0,0.0,0.0,1.0,2
2025/04/09 10:58:36.851381049,1744189116,849549539,mA1/gps,0,1,63.43461508620476,10.39309060910559,0.0,1.4400000000000002e-10,0.0,0.0,0.0,1.4400000000000002e-10,0.0,0.0,0.0,1.0,2
2025/04/09 10:58:36.903690155,1744189116,900516888,mA1/gps,0,1,63.43461524754675,10.393090609212827,0.0,1.4400000000000002e-10,0.0,0.0,0.0,1.4400000000000002e-10,0.0,0.0,0.0,1.0,2
2025/04/09 10:58:36.952580723,1744189116,951346284,mA1/gps,0,1,63.43461540863052,10.393090607989874,0.0,1.4400000000000002e-10,0.0,0.0,0.0,1.4400000000000002e-10,0.0,0.0,0.0,1.0,2
2025/04/09 10:58:37.3663333,1744189117,1948091,mA1/gps,0,1,63.43461557053614,10.393090605899154,0.0,1.4400000000000002e-10,0.0,0.0,0.0,1.4400000000000002e-10,0.0,0.0,0.0,1.0,2
2025/04/09 10:58:37.54816740,1744189117,53336203,mA1/gps,0,1,63.43461573262461,10.393090602888867,0.0,1.4400000000000002e-10,0.0,0.0,0.0,1.4400000000000002e-10,0.0,0.0,0.0,1.0,2
2025/04/09 10:58:37.103770867,1744189117,103136387,mA1/gps,0,1,63.43461589535162,10.393090600536038,0.0,1.4400000000000002e-10,0.0,0.0,0.0,1.4400000000000002e-10,0.0,0.0,0.0,1.0,2
2025/04/09 10:58:37.155962017,1744189117,153188962,mA1/gps,0,1,63.434616058301906,10.393090596497986,0.0,1.4400000000000002e-10,0.0,0.0,0.0,1.4400000000000002e-10,0.0,0.0,0.0,1.0,2
2025/04/09 10:58:37.207132890,1744189117,206250557,mA1/gps,0,1,63.43461622178548,10.393090592614616,0.0,1.4400000000000002e-10,0.0,0.0,0.0,1.4400000000000002e-10,0.0,0.0,0.0,1.0,2
2025/04/09 10:58:37.249062987,1744189117,247773523,mA1/gps,0,1,63.43461638351349,10.39309058865302,0.0,1.4400000000000002e-10,0.0,0.0,0.0,1.4400000000000002e-10,0.0,0.0,0.0,1.0,2
2025/04/09 10:58:37.304138693,1744189117,302604908,mA1/gps,0,1,63.43461654919725,10.393090584512716,0.0,1.4400000000000002e-10,0.0,0.0,0.0,1.4400000000000002e-10,0.0,0.0,0.0,1.0,2
2025/04/09 10:58:37.357765181,1744189117,355198907,mA1/gps,0,1,63.434616712039386,10.393090580229432,0.0,1.4400000000000002e-10,0.0,0.0,0.0,1.4400000000000002e-10,0.0,0.0,0.0,1.0,2
2025/04/09 10:58:37.401020233,1744189117,399588633,mA1/gps,0,1,63.43461687585793,10.393090576454648,0.0,1.4400000000000002e-10,0.0,0.0,0.0,1.4400000000000002e-10,0.0,0.0,0.0,1.0,2
2025/04/09 10:58:37.452545657,1744189117,451931795,mA1/gps,0,1,63.43461704227091,10.39309057269199,0.0,1.4400000000000002e-10,0.0,0.0,0.0,1.4400000000000002e-10,0.0,0.0,0.0,1.0,2
2025/04/09 10:58:37.503723175,1744189117,502874912,mA1/gps,0,1,63.43461720471223,10.39309057007929,0.0,1.4400000000000002e-10,0.0,0.0,0.0,1.4400000000000002e-10,0.0,0.0,0.0,1.0,2
2025/04/09 10:58:37.554780382,1744189117,553350243,mA1/gps,0,1,63.43461737031889,10.393090567978927,0.0,1.4400000000000002e-10,0.0,0.0,0.0,1.4400000000000002e-10,0.0,0.0,0.0,1.0,2
2025/04/09 10:58:37.604406516,1744189117,603632099,mA1/gps,0,1,63.43461753558932,10.39309056619465,0.0,1.4400000000000002e-10,0.0,0.0,0.0,1.4400000000000002e-10,0.0,0.0,0.0,1.0,2
2025/04/09 10:58:37.656446438,1744189117,654215390,mA1/gps,0,1,63.43461770077776,10.393090565206824,0.0,1.4400000000000002e-10,0.0,0.0,0.0,1.4400000000000002e-10,0.0,0.0,0.0,1.0,2
2025/04/09 10:58:37.705982966,1744189117,705031477,mA1/gps,0,1,63.4346178660383,10.393090565427878,0.0,1.4400000000000002e-10,0.0,0.0,0.0,1.4400000000000002e-10,0.0,0.0,0.0,1.0,2
2025/04/09 10:58:37.750633011,1744189117,746671884,mA1/gps,0,1,63.43461803078456,10.393090565998932,0.0,1.4400000000000002e-10,0.0,0.0,0.0,1.4400000000000002e-10,0.0,0.0,0.0,1.0,2
2025/04/09 10:58:37.799068003,1744189117,798521452,mA1/gps,0,1,63.434618195601175,10.393090566698161,0.0,1.4400000000000002e-10,0.0,0.0,0.0,1.4400000000000002e-10,0.0,0.0,0.0,1.0,2
2025/04/09 10:58:37.851089845,1744189117,849639068,mA1/gps,0,1,63.4346183602316,10.393090568209914,0.0,1.4400000000000002e-10,0.0,0.0,0.0,1.4400000000000002e-10,0.0,0.0,0.0,1.0,2
2025/04/09 10:58:37.901471104,1744189117,899745927,mA1/gps,0,1,63.43461852491812,10.393090569931802,0.0,1.4400000000000002e-10,0.0,0.0,0.0,1.4400000000000002e-10,0.0,0.0,0.0,1.0,2
2025/04/09 10:58:37.950940175,1744189117,949773327,mA1/gps,0,1,63.434618688770506,10.39309057131793,0.0,1.4400000000000002e-10,0.0,0.0,0.0,1.4400000000000002e-10,0.0,0.0,0.0,1.0,2
2025/04/09 10:58:38.1354397,1744189118,524170,mA1/gps,0,1,63.43461885120441,10.393090572734087,0.0,1.4400000000000002e-10,0.0,0.0,0.0,1.4400000000000002e-10,0.0,0.0,0.0,1.0,2
2025/04/09 10:58:38.51991418,1744189118,50375181,mA1/gps,0,1,63.43461901434365,10.393090574450184,0.0,1.4400000000000002e-10,0.0,0.0,0.0,1.4400000000000002e-10,0.0,0.0,0.0,1.0,2
2025/04/09 10:58:38.102070861,1744189118,101365649,mA1/gps,0,1,63.43461917749185,10.393090574499002,0.0,1.4400000000000002e-10,0.0,0.0,0.0,1.4400000000000002e-10,0.0,0.0,0.0,1.0,2
2025/04/09 10:58:38.155818367,1744189118,152857852,mA1/gps,0,1,63.43461933856433,10.39309057534387,0.0,1.4400000000000002e-10,0.0,0.0,0.0,1.4400000000000002e-10,0.0,0.0,0.0,1.0,2
2025/04/09 10:58:38.205574475,1744189118,203893915,mA1/gps,0,1,63.4346194977816,10.393090574387127,0.0,1.4400000000000002e-10,0.0,0.0,0.0,1.4400000000000002e-10,0.0,0.0,0.0,1.0,2
2025/04/09 10:58:38.256770419,1744189118,255497134,mA1/gps,0,1,63.43461965707006,10.393090573812561,0.0,1.4400000000000002e-10,0.0,0.0,0.0,1.4400000000000002e-10,0.0,0.0,0.0,1.0,2
2025/04/09 10:58:38.306136617,1744189118,305173971,mA1/gps,0,1,63.434619815214774,10.393090572159185,0.0,1.4400000000000002e-10,0.0,0.0,0.0,1.4400000000000002e-10,0.0,0.0,0.0,1.0,2
2025/04/09 10:58:38.356114378,1744189118,355077541,mA1/gps,0,1,63.434619971753015,10.393090569578552,0.0,1.4400000000000002e-10,0.0,0.0,0.0,1.4400000000000002e-10,0.0,0.0,0.0,1.0,2
2025/04/09 10:58:38.407520489,1744189118,406166528,mA1/gps,0,1,63.43462012624841,10.39309056685083,0.0,1.4400000000000002e-10,0.0,0.0,0.0,1.4400000000000002e-10,0.0,0.0,0.0,1.0,2
2025/04/09 10:58:38.447254472,1744189118,446013937,mA1/gps,0,1,63.434620280175956,10.393090563401133,0.0,1.4400000000000002e-10,0.0,0.0,0.0,1.4400000000000002e-10,0.0,0.0,0.0,1.0,2
2025/04/09 10:58:38.500767120,1744189118,498086756,mA1/gps,0,1,63.434620433426375,10.393090559941463,0.0,1.4400000000000002e-10,0.0,0.0,0.0,1.4400000000000002e-10,0.0,0.0,0.0,1.0,2
2025/04/09 10:58:38.550245295,1744189118,548572891,mA1/gps,0,1,63.43462058511717,10.393090555971533,0.0,1.4400000000000002e-10,0.0,0.0,0.0,1.4400000000000002e-10,0.0,0.0,0.0,1.0,2
2025/04/09 10:58:38.600042792,1744189118,598804184,mA1/gps,0,1,63.434620734282596,10.393090551905823,0.0,1.4400000000000002e-10,0.0,0.0,0.0,1.4400000000000002e-10,0.0,0.0,0.0,1.0,2
2025/04/09 10:58:38.651662274,1744189118,650139971,mA1/gps,0,1,63.43462088311045,10.393090548079739,0.0,1.4400000000000002e-10,0.0,0.0,0.0,1.4400000000000002e-10,0.0,0.0,0.0,1.0,2
2025/04/09 10:58:38.701549983,1744189118,699741279,mA1/gps,0,1,63.434621031278496,10.393090544473493,0.0,1.4400000000000002e-10,0.0,0.0,0.0,1.4400000000000002e-10,0.0,0.0,0.0,1.0,2
2025/04/09 10:58:38.756557250,1744189118,750156702,mA1/gps,0,1,63.43462117708249,10.393090541578928,0.0,1.4400000000000002e-10,0.0,0.0,0.0,1.4400000000000002e-10,0.0,0.0,0.0,1.0,2
2025/04/09 10:58:38.801585175,1744189118,800827189,mA1/gps,0,1,63.43462132325358,10.393090538495256,0.0,1.4400000000000002e-10,0.0,0.0,0.0,1.4400000000000002e-10,0.0,0.0,0.0,1.0,2
2025/04/09 10:58:38.853134489,1744189118,851987501,mA1/gps,0,1,63.434621465360834,10.393090536619818,0.0,1.4400000000000002e-10,0.0,0.0,0.0,1.4400000000000002e-10,0.0,0.0,0.0,1.0,2
2025/04/09 10:58:38.905636986,1744189118,902040366,mA1/gps,0,1,63.43462160974789,10.393090535311716,0.0,1.4400000000000002e-10,0.0,0.0,0.0,1.4400000000000002e-10,0.0,0.0,0.0,1.0,2
2025/04/09 10:58:38.955656595,1744189118,952966165,mA1/gps,0,1,63.43462175135827,10.393090533910396,0.0,1.4400000000000002e-10,0.0,0.0,0.0,1.4400000000000002e-10,0.0,0.0,0.0,1.0,2
2025/04/09 10:58:39.3613890,1744189119,2771356,mA1/gps,0,1,63.434621893338246,10.393090534040383,0.0,1.4400000000000002e-10,0.0,0.0,0.0,1.4400000000000002e-10,0.0,0.0,0.0,1.0,2
2025/04/09 10:58:39.59353926,1744189119,55136239,mA1/gps,0,1,63.43462203297006,10.39309053453151,0.0,1.4400000000000002e-10,0.0,0.0,0.0,1.4400000000000002e-10,0.0,0.0,0.0,1.0,2
2025/04/09 10:58:39.107746854,1744189119,106575980,mA1/gps,0,1,63.43462217240277,10.393090534428856,0.0,1.4400000000000002e-10,0.0,0.0,0.0,1.4400000000000002e-10,0.0,0.0,0.0,1.0,2
2025/04/09 10:58:39.149177363,1744189119,147133545,mA1/gps,0,1,63.434622310534124,10.393090535588344,0.0,1.4400000000000002e-10,0.0,0.0,0.0,1.4400000000000002e-10,0.0,0.0,0.0,1.0,2
2025/04/09 10:58:39.200638779,1744189119,199700944,mA1/gps,0,1,63.4346224451643,10.393090538567785,0.0,1.4400000000000002e-10,0.0,0.0,0.0,1.4400000000000002e-10,0.0,0.0,0.0,1.0,2
2025/04/09 10:58:39.251265897,1744189119,249751012,mA1/gps,0,1,63.43462258336821,10.393090541592354,0.0,1.4400000000000002e-10,0.0,0.0,0.0,1.4400000000000002e-10,0.0,0.0,0.0,1.0,2
2025/04/09 10:58:39.301571355,1744189119,300635645,mA1/gps,0,1,63.43462271844608,10.39309054401983,0.0,1.4400000000000002e-10,0.0,0.0,0.0,1.4400000000000002e-10,0.0,0.0,0.0,1.0,2
2025/04/09 10:58:39.352801420,1744189119,351058041,mA1/gps,0,1,63.43462285247188,10.393090547093747,0.0,1.4400000000000002e-10,0.0,0.0,0.0,1.4400000000000002e-10,0.0,0.0,0.0,1.0,2
2025/04/09 10:58:39.402962226,1744189119,402274171,mA1/gps,0,1,63.43462298453326,10.393090549633085,0.0,1.4400000000000002e-10,0.0,0.0,0.0,1.4400000000000002e-10,0.0,0.0,0.0,1.0,2
2025/04/09 10:58:39.454586926,1744189119,453955745,mA1/gps,0,1,63.4346231161259,10.393090550934305,0.0,1.4400000000000002e-10,0.0,0.0,0.0,1.4400000000000002e-10,0.0,0.0,0.0,1.0,2
2025/04/09 10:58:39.503737528,1744189119,503174481,mA1/gps,0,1,63.43462324568641,10.393090551995408,0.0,1.4400000000000002e-10,0.0,0.0,0.0,1.4400000000000002e-10,0.0,0.0,0.0,1.0,2
2025/04/09 10:58:39.557681897,1744189119,553138235,mA1/gps,0,1,63.434623375232725,10.3930905525324,0.0,1.4400000000000002e-10,0.0,0.0,0.0,1.4400000000000002e-10,0.0,0.0,0.0,1.0,2
2025/04/09 10:58:39.605965911,1744189119,604265970,mA1/gps,0,1,63.43462350181466,10.393090551388779,0.0,1.4400000000000002e-10,0.0,0.0,0.0,1.4400000000000002e-10,0.0,0.0,0.0,1.0,2
2025/04/09 10:58:39.656425032,1744189119,654116632,mA1/gps,0,1,63.43462362832509,10.393090549581567,0.0,1.4400000000000002e-10,0.0,0.0,0.0,1.4400000000000002e-10,0.0,0.0,0.0,1.0,2
2025/04/09 10:58:39.705973015,1744189119,705141101,mA1/gps,0,1,63.434623752797606,10.393090546730942,0.0,1.4400000000000002e-10,0.0,0.0,0.0,1.4400000000000002e-10,0.0,0.0,0.0,1.0,2
2025/04/09 10:58:39.756496423,1744189119,754979834,mA1/gps,0,1,63.43462387462831,10.393090543514072,0.0,1.4400000000000002e-10,0.0,0.0,0.0,1.4400000000000002e-10,0.0,0.0,0.0,1.0,2
2025/04/09 10:58:39.807470444,1744189119,805836593,mA1/gps,0,1,63.43462399474076,10.3930905389796,0.0,1.4400000000000002e-10,0.0,0.0,0.0,1.4400000000000002e-10,0.0,0.0,0.0,1.0,2
2025/04/09 10:58:39.849068308,1744189119,847074558,mA1/gps,0,1,63.43462411377759,10.3930905345052,0.0,1.4400000000000002e-10,0.0,0.0,0.0,1.4400000000000002e-10,0.0,0.0,0.0,1.0,2
2025/04/09 10:58:39.899199372,1744189119,898288357,mA1/gps,0,1,63.434624231332506,10.393090529451994,0.0,1.4400000000000002e-10,0.0,0.0,0.0,1.4400000000000002e-10,0.0,0.0,0.0,1.0,2
2025/04/09 10:58:39.951520718,1744189119,948152080,mA1/gps,0,1,63.434624345983245,10.393090524937334,0.0,1.4400000000000002e-10,0.0,0.0,0.0,1.4400000000000002e-10,0.0,0.0,0.0,1.0,2
2025/04/09 10:58:40.1251916,1744189119,999140811,mA1/gps,0,1,63.43462445962045,10.3930905204231,0.0,1.4400000000000002e-10,0.0,0.0,0.0,1.4400000000000002e-10,0.0,0.0,0.0,1.0,2
2025/04/09 10:58:40.49838121,1744189120,48983415,mA1/gps,0,1,63.43462457164365,10.39309051743648,0.0,1.4400000000000002e-10,0.0,0.0,0.0,1.4400000000000002e-10,0.0,0.0,0.0,1.0,2
2025/04/09 10:58:40.102429817,1744189120,101330067,mA1/gps,0,1,63.43462468089487,10.393090512117103,0.0,1.4400000000000002e-10,0.0,0.0,0.0,1.4400000000000002e-10,0.0,0.0,0.0,1.0,2
