time,header_stamp_secs,header_stamp_nsecs,header_frame_id,quaternion_x,quaternion_y,quaternion_z,quaternion_w
2025/04/09 10:58:23.910751571,1744189103,672028216,,-0.0004041456028065833,6.772398027319451e-07,-0.00045544915443068083,0.9999998146159532
2025/04/09 10:58:23.910908782,1744189103,763585579,,-0.000404221278505678,5.66616569994117e-06,-0.00045489983249929106,0.9999998148195803
2025/04/09 10:58:23.911210202,1744189103,864411555,,-0.0004037757214256011,1.0957894080166936e-05,-0.00045435563499883643,0.9999998152030071
2025/04/09 10:58:23.963777073,1744189103,962289895,,-0.00040302769068813296,1.2891298718474346e-05,-0.00045381538498843424,0.9999998157270287
2025/04/09 10:58:24.67479668,1744189104,66124492,,-0.0004020507424345318,1.3855063865307208e-05,-0.00045328043514582136,0.9999998163500255
2025/04/09 10:58:24.158477848,1744189104,158171063,,-0.000401191353203354,1.0978991891613655e-05,-0.0004527494044271297,0.9999998169714516
2025/04/09 10:58:24.267916800,1744189104,266954156,,-0.0004040108981839925,7.669157355443782e-06,-0.0004498048173590366,0.9999998171959855
2025/04/09 10:58:24.362125094,1744189104,361853566,,-0.00045262280685344383,1.5088894443964545e-06,-0.00041601275200007197,0.9999998110318362
2025/04/09 10:58:24.466692848,1744189104,466083893,,-0.0005336194813991282,-3.916244665275848e-06,-0.000349942442948289,0.9999997963875786
2025/04/09 10:58:24.570111684,1744189104,561568483,,-0.0005411289142072782,-9.510164873010767e-06,-0.00030713298857393804,0.9999998063791724
2025/04/09 10:58:24.664774817,1744189104,664317146,,-0.0005130777567055482,-1.2626422616045765e-05,-0.0002653469638640356,0.999999833091375
2025/04/09 10:58:24.766034225,1744189104,765864170,,-0.0004721712666142801,-1.6166125501326888e-05,-0.00021550213053822756,0.9999998651758825
2025/04/09 10:58:24.866741268,1744189104,866457222,,-0.0004007793984007305,-1.4319507051023501e-05,-0.00017505938174618306,0.9999999042625146
2025/04/09 10:58:24.960037613,1744189104,958400431,,-0.0003088740899766872,-9.575707224086115e-06,-0.0001499148145579198,0.9999999410153236
2025/04/09 10:58:25.61104795,1744189105,60368940,,-0.0001934248995967658,-1.0756767504293405e-06,-0.0001566695602254732,0.9999999690201495
2025/04/09 10:58:25.166158209,1744189105,165294230,,-0.00012073946370668119,5.98138645064449e-06,-0.00017105534965252664,0.9999999780631359
2025/04/09 10:58:25.266466423,1744189105,265460322,,-0.00011789300596930115,1.3144033024754723e-05,-0.00018464872970404202,0.9999999759166598
2025/04/09 10:58:25.366388265,1744189105,366002358,,-0.00018139427041173874,1.6418019127565188e-05,-0.00019751808432024113,0.9999999639065862
2025/04/09 10:58:25.457987630,1744189105,457731378,,-0.00029275481353867013,1.797997561807602e-05,-0.00020970165862163826,0.9999999349982749
2025/04/09 10:58:25.562015049,1744189105,561847508,,-0.00042419804008850313,1.4862871253830907e-05,-0.00022127170968393826,0.9999998854369676
2025/04/09 10:58:25.666352960,1744189105,665510973,,-0.0005446192246508526,1.0434735284451678e-05,-0.00023227460447973773,0.9999998246647469
2025/04/09 10:58:25.768876980,1744189105,768310137,,-0.0006271107895503212,2.8031506156263726e-06,-0.00024272144389794102,0.9999997739052248
2025/04/09 10:58:25.869373905,1744189105,867652785,,-0.000654797221240245,-3.908909448473026e-06,-0.0002526385857997226,0.9999997536995019
2025/04/09 10:58:25.962667508,1744189105,960554278,,-0.0006244924859635234,-1.123917323679428e-05,-0.00026206154044922916,0.9999997706032562
2025/04/09 10:58:26.62872112,1744189106,62421379,,-0.0005461253524476536,-1.5118774516581812e-05,-0.0002709994503149365,0.9999998140388927
2025/04/09 10:58:26.166237885,1744189106,165546554,,-0.00043996082227702434,-1.76188902455965e-05,-0.00027949301515753307,0.9999998640038428
2025/04/09 10:58:26.266630097,1744189106,266460740,,-0.000331291245805492,-1.5606957529793336e-05,-0.0002875760587843977,0.9999999036512672
2025/04/09 10:58:26.359792647,1744189106,359586369,,-0.00024520350674534034,-1.249613783830104e-05,-0.0002952658421605394,0.9999999262685819
2025/04/09 10:58:26.460718851,1744189106,460527137,,-0.00020020593749445447,-5.777200623153419e-06,-0.0003025736869407668,0.9999999341666831
2025/04/09 10:58:26.562153875,1744189106,560422494,,-0.00020449929655250827,5.823524298177181e-07,-0.0003095305504503127,0.9999999311852661
2025/04/09 10:58:26.661989546,1744189106,661714349,,-0.00025445137100753225,8.104889708027908e-06,-0.0003161686633576349,0.99999991761309
2025/04/09 10:58:26.764282459,1744189106,763718743,,-0.0003364062241139003,1.266678039670066e-05,-0.00032249227327080465,0.9999998913345635
2025/04/09 10:58:26.864045080,1744189106,863702968,,-0.00042993578877156103,1.619916949782029e-05,-0.00032852557384076877,0.9999998534818652
2025/04/09 10:58:26.967616932,1744189106,966286313,,-0.0005132132988072923,1.537635506293361e-05,-0.0003342839768216758,0.9999998123149326
2025/04/09 10:58:27.68265391,1744189107,67115552,,-0.0005675763036401124,1.3137191953673347e-05,-0.0003397807087602278,0.9999997811167879
2025/04/09 10:58:27.161012903,1744189107,158825810,,-0.0005820999795110768,7.233452896288215e-06,-0.0003451746486545872,0.9999997709808502
2025/04/09 10:58:27.262512722,1744189107,262315194,,-0.0005545155251645333,3.1942649063290956e-06,-0.0003573845903586966,0.9999997823892681
2025/04/09 10:58:27.364537773,1744189107,363942550,,-0.0004954067290551795,-4.24389163768274e-06,-0.00036180593781671153,0.9999998118252951
2025/04/09 10:58:27.466768447,1744189107,466102097,,-0.00041793998723291514,-1.0146321661431456e-05,-0.00036317989048112985,0.9999998466617814
2025/04/09 10:58:27.567633355,1744189107,566846187,,-0.00034046066167107037,-1.5827375496163242e-05,-0.0003644805268605712,0.999999875494981
2025/04/09 10:58:27.660282525,1744189107,659758639,,-0.0002787871270557857,-1.61400372220846e-05,-0.00036602643093338976,0.9999998940209388
2025/04/09 10:58:27.767700385,1744189107,765097575,,-0.00022686080544818466,-7.104939901486482e-06,-0.0003716886833739948,0.9999999051656042
2025/04/09 10:58:27.863630107,1744189107,863484540,,-0.00019380619257083488,2.1234536235707165e-05,-0.00038227181712228276,0.9999999079282518
2025/04/09 10:58:27.966588460,1744189107,964878135,,-0.00018695712743695698,7.644047302227098e-05,-0.00039783196960815816,0.9999999004668003
2025/04/09 10:58:28.65994973,1744189108,65713744,,-0.0002101582654195049,0.00016365588004005972,-0.0004174466941733342,0.9999998773942494
2025/04/09 10:58:28.163535851,1744189108,163258035,,-0.0002532906044996315,0.0002605220091874317,-0.0004404379210502451,0.9999998369932818
2025/04/09 10:58:28.264358701,1744189108,264144521,,-0.0003108494902019036,0.00038569898546883904,-0.00046534846835107215,0.9999997690298184
2025/04/09 10:58:28.360751060,1744189108,358679405,,-0.0003696902973196995,0.0005012497558052868,-0.0004940215843407543,0.9999996840101704
2025/04/09 10:58:28.465520556,1744189108,465295547,,-0.0004143678378425083,0.0006066226672312974,-0.000527833414582038,0.9999995908499768
2025/04/09 10:58:28.564165384,1744189108,563956564,,-0.0004357771365300553,0.0006847897712846131,-0.0005653355115660341,0.9999995107783882
2025/04/09 10:58:28.664828547,1744189108,664580106,,-0.0004334459202994816,0.0007352056769122917,-0.0006052655537138939,0.9999994526252783
2025/04/09 10:58:28.767953320,1744189108,766179485,,-0.0004137889040014574,0.0007781185738482667,-0.0006462290546029315,0.9999994028489402
2025/04/09 10:58:28.861498809,1744189108,859821963,,-0.00037864975630524396,0.0007957688916080419,-0.0006885090324418125,0.9999993746655772
2025/04/09 10:58:28.963207735,1744189108,962908156,,-0.0003308842078964387,0.0008157361567253246,-0.0007329731311576965,0.9999993439200611
2025/04/09 10:58:29.66998359,1744189109,66805742,,-0.00028431187718708657,0.0008108353696370602,-0.0007777537331286634,0.9999993284057197
2025/04/09 10:58:29.158751387,1744189109,157182224,,-0.00024975621243722917,0.0007635800713006693,-0.0008216191510276498,0.9999993397544219
2025/04/09 10:58:29.260353153,1744189109,259142187,,-0.0002363892452742094,0.0007114755508531483,-0.000865213485249053,0.9999993446639304
2025/04/09 10:58:29.365913218,1744189109,364778162,,-0.00027086956165575074,0.000654317308607249,-0.0009064535575096575,0.9999993384200253
2025/04/09 10:58:29.462522829,1744189109,462163800,,-0.00034686654264088544,0.0006074978245158673,-0.0009449142543040481,0.9999993088832846
2025/04/09 10:58:29.563729479,1744189109,563058599,,-0.0004453944541809538,0.0005387496350722371,-0.0009809619066499656,0.9999992745429112
2025/04/09 10:58:29.666634398,1744189109,666477510,,-0.0005428677714644961,0.000499072717377207,-0.0010155173115830017,0.9999992124724876
2025/04/09 10:58:29.769027004,1744189109,768523762,,-0.0006241991806913891,0.00048011510785168785,-0.0010526734130067248,0.9999991358714024
2025/04/09 10:58:29.862215899,1744189109,862093009,,-0.0006725907592945179,0.0004692156093498493,-0.0010882469762494359,0.9999990715880196
2025/04/09 10:58:29.963927819,1744189109,962637515,,-0.0006669250132168539,0.00047735173559618666,-0.0011176594420530127,0.9999990390913978
2025/04/09 10:58:30.65651879,1744189110,65005744,,-0.000609582736132742,0.0005079259381365526,-0.0011452918060163824,0.9999990293629331
2025/04/09 10:58:30.166831017,1744189110,166674840,,-0.0005150482923852605,0.0005251462118402991,-0.0011711284948396968,0.9999990437019234
2025/04/09 10:58:30.258035369,1744189110,257837944,,-0.0004057802144557327,0.0005472991265369772,-0.0011950708411304278,0.9999990538054365
2025/04/09 10:58:30.359877194,1744189110,358836709,,-0.0003065970224867639,0.0005636530758716572,-0.001217094343687912,0.9999990534869693
2025/04/09 10:58:30.461055325,1744189110,460574069,,-0.0002389815983301483,0.0005596536728703574,-0.0012372787666548666,0.999999049407956
2025/04/09 10:58:30.564197379,1744189110,563981755,,-0.00021799278226308644,0.0005457310718176231,-0.001255766409484668,0.9999990388532726
2025/04/09 10:58:30.664804961,1744189110,664614288,,-0.0002471583433580069,0.0005160738611200369,-0.001272721123686178,0.9999990263802583
2025/04/09 10:58:30.766737710,1744189110,765204439,,-0.00031865615708938437,0.00047084995613816237,-0.00128840171183873,0.999999008389309
2025/04/09 10:58:30.867029691,1744189110,866862755,,-0.00041494524884882274,0.0004218643412777389,-0.0013029994933645725,0.9999989760210949
2025/04/09 10:58:30.959423331,1744189110,959213636,,-0.0005119773534504983,0.0003793383809135317,-0.0013167056078974243,0.9999989301333899
2025/04/09 10:58:31.59988378,1744189111,59670687,,-0.0005868395783236516,0.0003379762732408484,-0.0013297688332846603,0.9999988865524791
2025/04/09 10:58:31.161819973,1744189111,160739318,,-0.000622484774887425,0.0003134614747927151,-0.0013424666329960495,0.9999988560183197
2025/04/09 10:58:31.262445957,1744189111,262256929,,-0.0006109960385090189,0.00029708976831209136,-0.0013549733416493082,0.9999988512337171
2025/04/09 10:58:31.365015565,1744189111,364881561,,-0.0005559015395430561,0.00031060464195528306,-0.0013673127702043477,0.9999988624763646
2025/04/09 10:58:31.464293946,1744189111,463940430,,-0.00047080876103883267,0.0003244761859761936,-0.00137942660256461,0.9999988851176602
2025/04/09 10:58:31.566091124,1744189111,565830129,,-0.00037705909754751885,0.00034398064745379774,-0.0013912058631954571,0.9999989020243959
2025/04/09 10:58:31.667907243,1744189111,667035109,,-0.0002958203891723424,0.000369236496105079,-0.0014025072158698958,0.9999989045635084
2025/04/09 10:58:31.761353081,1744189111,760546413,,-0.00024625428752527296,0.00039470329517661903,-0.001413059992699426,0.9999988934141836
2025/04/09 10:58:31.860670077,1744189111,860506392,,-0.0002381697821522182,0.0004109382857015475,-0.0014230919116304133,0.9999988746065124
2025/04/09 10:58:31.961919922,1744189111,961644398,,-0.0002721248168116105,0.0004045993325072011,-0.0014326763296572558,0.9999988548423436
2025/04/09 10:58:32.63626090,1744189112,62241978,,-0.0003388128706790693,0.0003958694042555373,-0.001441861088125189,0.9999988247642374
2025/04/09 10:58:32.163509296,1744189112,163344647,,-0.00042116116824779637,0.00037340915416898064,-0.0014507432029631866,0.9999987892657836
2025/04/09 10:58:32.265509585,1744189112,264082403,,-0.0004996868120773011,0.00033549422277877366,-0.0014594691445928539,0.9999987538524897
2025/04/09 10:58:32.364983084,1744189112,364834844,,-0.000556703291278104,0.0003074035594772213,-0.0014680584459529464,0.9999987201936292
2025/04/09 10:58:32.466466624,1744189112,465481596,,-0.0005805079983961395,0.00027660527312999304,-0.0014760660220698243,0.9999987038637026
2025/04/09 10:58:32.572171372,1744189112,571545281,,-0.0005663150191456955,0.00024866956043726054,-0.0014834242668150684,0.9999987084507627
2025/04/09 10:58:32.660789824,1744189112,659157770,,-0.000518729520992808,0.0002278768249607158,-0.0014900923191035465,0.9999987293075513
2025/04/09 10:58:32.760223505,1744189112,759717658,,-0.000448200706259193,0.00021767821826721174,-0.0014962612050201478,0.9999987564665901
2025/04/09 10:58:32.861171983,1744189112,860988644,,-0.0003701925299427645,0.00022911535418657526,-0.0015020123544537284,0.9999987772105186
2025/04/09 10:58:32.964428326,1744189112,964255250,,-0.00030312094409806924,0.0002504832489672159,-0.0015074854342331005,0.999998786431014
2025/04/09 10:58:33.67783464,1744189113,65839859,,-0.00026281844497182935,0.000265020330985166,-0.0015126893022556374,0.9999987862301454
2025/04/09 10:58:33.159374682,1744189113,157666539,,-0.00025820098983531694,0.00029482275598278617,-0.0015175900728505076,0.9999987716653267
2025/04/09 10:58:33.261249131,1744189113,261114484,,-0.0002891066280990858,0.0003185192655307727,-0.0015220573796757694,0.9999987491513017
2025/04/09 10:58:33.361832225,1744189113,361661684,,-0.0003478712772522739,0.00033734215064310023,-0.0015260254572726402,0.9999987182152543
2025/04/09 10:58:33.465148549,1744189113,464633495,,-0.00041972186134381817,0.00033194688890344636,-0.001529747040727767,0.9999986867585444
2025/04/09 10:58:33.566459821,1744189113,566216510,,-0.00048758026877444497,0.00032927177416505233,-0.0015333991606989055,0.9999986512653876
2025/04/09 10:58:33.668636147,1744189113,667006733,,-0.0005355858150841084,0.0003066361460699441,-0.0015370608781740526,0.9999986282820419
2025/04/09 10:58:33.760859635,1744189113,758408136,,-0.0005531742084554191,0.00028127364391878745,-0.001540743229206182,0.9999986204959155
2025/04/09 10:58:33.862792359,1744189113,862431174,,-0.0005366274518792944,0.00024822272098159434,-0.001544393103942633,0.9999986326322647
2025/04/09 10:58:33.965672529,1744189113,964201480,,-0.0004889942839417322,0.00022617225102214818,-0.0015480047194359262,0.9999986567051437
2025/04/09 10:58:34.67091292,1744189114,66338260,,-0.0004217012116794105,0.00020642694824661912,-0.0015515102854254824,0.9999986861850556
2025/04/09 10:58:34.162261154,1744189114,161285851,,-0.0003519377927949347,0.0001893562626447281,-0.0015548218113404931,0.9999987114057352
2025/04/09 10:58:34.261751899,1744189114,260043741,,-0.00029465572888733276,0.00019184853172452994,-0.0015586085817559713,0.9999987235549009
2025/04/09 10:58:34.361844584,1744189114,361455381,,-0.00027074199889770204,0.00020810635330868166,-0.0015667842114234054,0.9999987142880488
2025/04/09 10:58:34.460883507,1744189114,460729974,,-0.00028111042957033893,0.00021629240866058468,-0.0015697368046789682,0.9999987050596038
2025/04/09 10:58:34.563152417,1744189114,562037034,,-0.0003200286228321621,0.00024360591547145156,-0.0015724877302711545,0.9999986827592208
2025/04/09 10:58:34.663720422,1744189114,663577150,,-0.00037970310685151083,0.0002667366577560921,-0.0015747033444290656,0.9999986524923337
2025/04/09 10:58:34.765094131,1744189114,764754198,,-0.0004452938847225241,0.00028638325443780294,-0.0015766902165086118,0.999998616872018
2025/04/09 10:58:34.865068792,1744189114,864846329,,-0.0005010119773632186,0.0002958344501397677,-0.0015785707174677775,0.9999985847907319
2025/04/09 10:58:34.960303724,1744189114,959304257,,-0.0005328132432112945,0.00029044252824642595,-0.001580401801213438,0.9999985670406395
2025/04/09 10:58:35.60726152,1744189115,60548506,,-0.0005340956815970134,0.0002962988612513917,-0.0015823366022249897,0.999998561578798
2025/04/09 10:58:35.161915878,1744189115,160731742,,-0.0005049715367550952,0.000275373500588494,-0.0015843413279923988,0.9999985795168604
2025/04/09 10:58:35.262375015,1744189115,260835030,,-0.00045332090316128394,0.00025537583412083156,-0.001586418837724857,0.9999986062783355
2025/04/09 10:58:35.363109901,1744189115,362937689,,-0.0003902058965800818,0.00024026235234341205,-0.001588395250156478,0.9999986335060111
2025/04/09 10:58:35.465378493,1744189115,463322522,,-0.00033194223215591185,0.00021594192677800667,-0.0015902964494106072,0.9999986570694192
2025/04/09 10:58:35.564270681,1744189115,563930349,,-0.00028963936720007906,0.00020791024214556253,-0.0015920136525847835,0.9999986691865635
2025/04/09 10:58:35.666737589,1744189115,666564404,,-0.000275078860137123,0.00019165494134320651,-0.0015935574030491082,0.9999986740865247
2025/04/09 10:58:35.762190881,1744189115,760569189,,-0.00029182563446339085,0.00020048670241949837,-0.0015948988181489093,0.9999986654694301
2025/04/09 10:58:35.863453550,1744189115,861353814,,-0.0003358978437742829,0.00020708760537810892,-0.0015951216078042318,0.999998649936298
2025/04/09 10:58:35.965338453,1744189115,964710363,,-0.00039219861769266754,0.0002256511871754276,-0.0015923339840236178,0.999998629866196
2025/04/09 10:58:36.62832535,1744189116,62708327,,-0.00044476951894084545,0.00024070332605837693,-0.0015914243470161132,0.9999986058042939
2025/04/09 10:58:36.166686011,1744189116,163500628,,-0.0004894027241304598,0.0002552509012993792,-0.0015890612360011064,0.9999985851071687
2025/04/09 10:58:36.264675780,1744189116,264520458,,-0.0005140165180836445,0.0002734213470989966,-0.0015867191897469901,0.9999985716739794
2025/04/09 10:58:36.366678844,1744189116,364986187,,-0.000513258381920772,0.0002789454878704201,-0.0015844609954882708,0.9999985741182844
2025/04/09 10:58:36.467220320,1744189116,466060362,,-0.0004884739203186115,0.00028468393064451803,-0.0015823055637910926,0.9999985883276994
2025/04/09 10:58:36.567282382,1744189116,567016328,,-0.0004456788260927243,0.0002738140277476386,-0.0015802274382612658,0.9999986146377932
2025/04/09 10:58:36.660779233,1744189116,659996884,,-0.00039496131566109605,0.0002656928123653799,-0.0015782126529273871,0.9999986413279324
2025/04/09 10:58:36.764647379,1744189116,761136417,,-0.0003489500443364515,0.00025375027965938003,-0.001576205289673426,0.999998664709882
2025/04/09 10:58:36.864151356,1744189116,863895420,,-0.00031778971318689053,0.00024011868846615932,-0.001574110251071209,0.9999986817639467
2025/04/09 10:58:36.962421879,1744189116,962232681,,-0.0003085686955315301,0.0002252782605903898,-0.0015719353279616695,0.999998691526339
2025/04/09 10:58:37.64571045,1744189117,63507493,,-0.0003231967399405984,0.00021751546649141794,-0.0015696485549114062,0.9999986922162964
2025/04/09 10:58:37.171615521,1744189117,169680324,,-0.00035708640545193147,0.00021223017065524524,-0.001567311552034941,0.9999986854902123
2025/04/09 10:58:37.258839263,1744189117,258107270,,-0.00040369038594631224,0.0002228407888069103,-0.001564086393739849,0.9999986705040202
2025/04/09 10:58:37.376297937,1744189117,376116909,,-0.00045190823485984685,0.00020639626953938842,-0.0015599856133290688,0.9999986598113086
2025/04/09 10:58:37.465122462,1744189117,463594820,,-0.0004901140087152277,0.00019620904914993147,-0.00155468996865338,0.999998652113776
2025/04/09 10:58:37.566448897,1744189117,565344135,,-0.000509186169906166,0.0001799708478170893,-0.0015491509613981577,0.999998654234713
2025/04/09 10:58:37.665954176,1744189117,665763966,,-0.000503365475799687,0.00013853010094079835,-0.0015434981162129595,0.999998672522206
2025/04/09 10:58:37.761121053,1744189117,760776484,,-0.00047502829205201626,8.205029536813684e-05,-0.001537670384205623,0.9999987015919872
2025/04/09 10:58:37.866983829,1744189117,865173936,,-0.00043099488565357557,9.959401322997765e-06,-0.001531789138337836,0.9999987338823257
2025/04/09 10:58:37.963668313,1744189117,961197234,,-0.0003817193107958709,-7.506572311283445e-05,-0.0015259514898834042,0.999998760063009
2025/04/09 10:58:38.62213523,1744189118,61645601,,-0.000338540137490042,-0.00016254189293203337,-0.001520119925320212,0.9999987741023091
2025/04/09 10:58:38.165478066,1744189118,165102345,,-0.00031055632948253097,-0.0002434462050224542,-0.001514222957664245,0.9999987757080235
2025/04/09 10:58:38.268557279,1744189118,267410165,,-0.0003043341431853088,-0.0003115892157193253,-0.0015082636947411489,0.9999987677159993
2025/04/09 10:58:38.367588365,1744189118,367354022,,-0.00032119338286597227,-0.0003459880022431325,-0.0015023598613613702,0.9999987600202113
2025/04/09 10:58:38.460597914,1744189118,459534249,,-0.00035645409164295307,-0.0003637029340832299,-0.0014966006606140791,0.9999987504227787
2025/04/09 10:58:38.560425919,1744189118,559939434,,-0.00040200561951648974,-0.0003482512501643801,-0.001491059475844831,0.999998746926309
2025/04/09 10:58:38.660436417,1744189118,660230155,,-0.00044740723195317567,-0.00031614587042350816,-0.0014863453725598075,0.9999987453272083
2025/04/09 10:58:38.764126349,1744189118,762982366,,-0.00048663727317299757,-0.0002679453974906557,-0.00148645706651167,0.9999987409166162
2025/04/09 10:58:38.864689758,1744189118,862815850,,-0.0005107435075102717,-0.00023291516281800234,-0.0014878758340942906,0.99999873555775
2025/04/09 10:58:38.966124191,1744189118,965708266,,-0.0005147354033837291,-0.00020230215478844984,-0.0014892432171153213,0.9999987381371753
2025/04/09 10:58:39.66864118,1744189119,66604213,,-0.0004996675101303275,-0.00018969388314768985,-0.0014812606998268138,0.9999987601069059
2025/04/09 10:58:39.163158073,1744189119,162977039,,-0.00047519049141398184,-0.0002181970476196948,-0.0014633314139074678,0.9999987926218803
2025/04/09 10:58:39.261793946,1744189119,261568647,,-0.0004108135149405906,-0.00023717307914981133,-0.0014603464809595209,0.9999988211839762
2025/04/09 10:58:39.363310732,1744189119,363004998,,-0.00034594739603068376,-0.00030069545747976866,-0.001457310397977102,0.9999988330738416
2025/04/09 10:58:39.463710652,1744189119,463530216,,-0.0002970797275913312,-0.0003576455641680911,-0.001454329531303365,0.9999988343787708
2025/04/09 10:58:39.569299388,1744189119,569085762,,-0.00027621700328537587,-0.000426239136260074,-0.001452255255001188,0.9999988164888197
2025/04/09 10:58:39.665496772,1744189119,665314577,,-0.00028976704952427776,-0.0004857150891926576,-0.0014594243963280177,0.9999987750974201
2025/04/09 10:58:39.768166562,1744189119,766409498,,-0.0003364025236826529,-0.000524352686822345,-0.0014738090108471222,0.9999987198864814
2025/04/09 10:58:39.862101608,1744189119,859755650,,-0.0004091317901458252,-0.0005475443912230674,-0.0014930730875034183,0.9999986517686278
2025/04/09 10:58:39.964047905,1744189119,960652065,,-0.00048193726582106545,-0.0005415620346037386,-0.001506835950548811,0.999998601945249
2025/04/09 10:58:40.63210941,1744189120,62876304,,-0.0005470163002235775,-0.0005115877589819284,-0.001504477871880842,0.9999985877977354
2025/04/09 10:58:40.166031813,1744189120,164875041,,-0.0006500503620535587,-0.00047629929222013314,-0.001449987257368042,0.9999986240542856
2025/04/09 10:58:40.257971599,1744189120,257315600,,-0.0007095190923306995,-0.0004346448478406213,-0.001381698571033428,0.9999986992869404
2025/04/09 10:58:40.366475732,1744189120,360591284,,-0.0006424017804762729,-0.00039986096415424514,-0.0013433621598819166,0.9999988114039282
2025/04/09 10:58:40.461545951,1744189120,461392752,,-0.000518648275557717,-0.0003613903038496982,-0.0013051764199354242,0.9999989484572108
2025/04/09 10:58:40.565312968,1744189120,565082510,,-0.00038693829785250744,-0.00034485883056741684,-0.0012549649156877653,0.9999990782066757
2025/04/09 10:58:40.667174666,1744189120,666866333,,-0.00026247460934404967,-0.0003249681962473958,-0.0012027841787192123,0.9999991894061566
2025/04/09 10:58:40.761818426,1744189120,761467731,,-0.00021505041701611993,-0.0003301421032514674,-0.0011218341346250426,0.9999992931235923
2025/04/09 10:58:40.864456892,1744189120,863756621,,-0.0002563555352836524,-0.0003646529095170471,-0.0010080378256211355,0.9999993925847341
2025/04/09 10:58:40.966245534,1744189120,966084376,,-0.00031650511042466834,-0.00041042321256210055,-0.0008969702881803231,0.9999994634106579
2025/04/09 10:58:41.67594864,1744189121,66938239,,-0.00033546643271432106,-0.0004444558449866936,-0.0008186567553237712,0.9999995098610756
2025/04/09 10:58:41.159675105,1744189121,159383559,,-0.0003109739588361243,-0.0004826820170447387,-0.0007784302587230316,0.9999995321796904
2025/04/09 10:58:41.262386134,1744189121,260756819,,-0.0003224640216989491,-0.0004941897332002877,-0.0007286160294379795,0.9999995604559754
2025/04/09 10:58:41.363268221,1744189121,362094686,,-0.0003971345426715799,-0.0004931720227522362,-0.0006482998620719911,0.9999995893863156
2025/04/09 10:58:41.463874832,1744189121,463529504,,-0.0004573715441007254,-0.0004684187727038351,-0.0005754727277726136,0.9999996201130597
2025/04/09 10:58:41.566551669,1744189121,566161819,,-0.0005459895231310941,-0.0004316599184250473,-0.00047280811037177716,0.9999996460087605
2025/04/09 10:58:41.665599305,1744189121,665353005,,-0.0006232375997654036,-0.00037506826671787434,-0.00034929804327867123,0.9999996744447303
2025/04/09 10:58:41.766475721,1744189121,766268380,,-0.0006388429935448479,-0.00032583500819358206,-0.00022590478526352472,0.9999997173390626
2025/04/09 10:58:41.868377294,1744189121,866590287,,-0.0006011923243301573,-0.00027016452594506613,-9.641635771442876e-05,0.9999997781413774
2025/04/09 10:58:41.966661065,1744189121,964365510,,-0.0004954204769048299,-0.0002388170532946056,2.2929889011049577e-05,0.9999998484995817
2025/04/09 10:58:42.66423273,1744189122,66009145,,-0.0003220453331312496,-0.00021661256858526777,0.00011279599535469894,0.9999999183214276
2025/04/09 10:58:42.167900171,1744189122,167705084,,-0.00019990213544548578,-0.00021588121232611767,0.00022171039461232122,0.9999999321394674
2025/04/09 10:58:42.260413921,1744189122,259050971,,-0.00013006555644054738,-0.00021663568471455403,0.00033521691928506625,0.9999999118907702
2025/04/09 10:58:42.362058224,1744189122,361428764,,-9.315699166723024e-05,-0.00024557096963987265,0.0004329413483415394,0.9999998717892231
2025/04/09 10:58:42.461740164,1744189122,461062693,,-7.312125936546996e-05,-0.0002637739613173623,0.0004986460994505713,0.99999983821431
2025/04/09 10:58:42.562543178,1744189122,562202548,,-6.553522386284002e-05,-0.0002760357014138024,0.0005255350572852614,0.9999998216611489
2025/04/09 10:58:42.664836692,1744189122,664500861,,-2.2831744431916564e-05,-0.0002751076811976539,0.0004680441890426189,0.9999998523645452
2025/04/09 10:58:42.765935232,1744189122,765598321,,-4.2242522524756455e-05,-0.00026255880749505214,0.00037641257009334,0.9999998937960038
2025/04/09 10:58:42.867065815,1744189122,866495538,,-0.00015945045791730382,-0.00023298412493172799,0.0002740310333570429,0.9999999226004679
2025/04/09 10:58:42.967066900,1744189122,966839346,,-0.0003481023873959371,-0.00020710780607284437,0.00016024252519255953,0.9999999051267043
2025/04/09 10:58:43.59560127,1744189123,59398708,,-0.0005669094709644552,-0.00017408184619010963,3.538930193249791e-05,0.9999998235283644
2025/04/09 10:58:43.163777973,1744189123,163489117,,-0.0007676564324911263,-0.00014300005103944175,-9.848485356348874e-05,0.9999996902776124
2025/04/09 10:58:43.264491079,1744189123,264283389,,-0.0009040078760264512,-0.00011815075676683542,-0.00022930258567298694,0.9999995581151438
2025/04/09 10:58:43.365816388,1744189123,365570328,,-0.0009490866831026641,-0.00011032733140284847,-0.00034553734128834343,0.9999994838330136
2025/04/09 10:58:43.467270671,1744189123,465889267,,-0.0009763308102632882,-0.0001183812099677231,-0.00039017478676798536,0.9999994402636803
2025/04/09 10:58:43.567749267,1744189123,566520221,,-0.000886298442190604,-0.00012300431327746177,-0.00041824058323767203,0.9999995122097934
2025/04/09 10:58:43.662587542,1744189123,660746636,,-0.0007584906194632648,-0.0001406247237795483,-0.0003936315163419054,0.999999624985378
2025/04/09 10:58:43.762718139,1744189123,762525169,,-0.0008230603526195368,-0.00017382622872882058,-0.00018175608928583015,0.9999996296603425
2025/04/09 10:58:43.864310711,1744189123,864063473,,-0.0008288978937494391,-0.00019442740588559288,7.76574273497328e-05,0.999999634547728
2025/04/09 10:58:43.966798644,1744189123,964993882,,-0.0006632996952565703,-0.00021000282691528566,0.00029734744555838814,0.9999997137583708
2025/04/09 10:58:44.66929285,1744189124,65365907,,-0.00033199705584595,-0.00020674793257402,0.0004474861042908802,0.9999998233947013
2025/04/09 10:58:44.159075492,1744189124,158809537,,6.080724307904844e-07,-0.00017551571216161568,0.0005794699153297907,0.9999998167042243
2025/04/09 10:58:44.259841877,1744189124,259557478,,0.00023653549029255906,-0.00012278538525512203,0.0007065839949127755,0.9999997148568439
2025/04/09 10:58:44.363894361,1744189124,363669424,,0.00032353268681826537,-6.160521131053345e-05,0.0008282991749204723,0.9999996027258587
2025/04/09 10:58:44.463553903,1744189124,462997687,,0.0002355689566896689,-6.578932178971816e-06,0.0009438103382219991,0.9999995268429029
2025/04/09 10:58:44.563375966,1744189124,563139408,,-4.521519583771259e-05,4.343037721868332e-05,0.0010988337721280972,0.9999993943166814
2025/04/09 10:58:44.665618725,1744189124,664981902,,-0.00038219450875663684,7.030906129281947e-05,0.0012507498416849678,0.9999991423040456
2025/04/09 10:58:44.766173250,1744189124,765970672,,-0.0006844058143754899,7.991197713370826e-05,0.0013851430424198308,0.9999988032900385
2025/04/09 10:58:44.869638921,1744189124,866247722,,-0.0009073343523302681,6.085965818564309e-05,0.0015053372174841317,0.9999984534989725
2025/04/09 10:58:44.968297458,1744189124,967198974,,-0.0010051109116166032,3.605992837798864e-05,0.00161324690214244,0.9999981929414521
2025/04/09 10:58:45.59106325,1744189125,58843897,,-0.0009581481510259484,-5.696759648710008e-06,0.0017158194193840127,0.9999980689398293
2025/04/09 10:58:45.163483909,1744189125,160661428,,-0.0007822909095511511,-3.4834691654489676e-05,0.0018187510329564422,0.9999980394741568
2025/04/09 10:58:45.263110241,1744189125,262257707,,-0.000521379878920404,-4.845856151022462e-05,0.0019177561501690316,0.9999980240111168
2025/04/09 10:58:45.364539265,1744189125,364258726,,-0.00023522646937803855,-6.447001679115756e-05,0.0020230458475562416,0.9999979238966568
2025/04/09 10:58:45.458434644,1744189125,458255813,,5.122938547821893e-06,-6.013418320746695e-05,0.00211584689888358,0.9999977597722587
2025/04/09 10:58:45.562737386,1744189125,561648305,,0.00014397068169073082,-3.148746879969973e-05,0.002193823588101989,0.9999975827066016
2025/04/09 10:58:45.660263406,1744189125,660049439,,0.00015593828331658582,1.9711366606007858e-05,0.0022768042154513307,0.999997395725248
2025/04/09 10:58:45.762052708,1744189125,761900533,,4.20703354533395e-05,6.537024613981839e-05,0.0023599684899332602,0.9999972122488864
2025/04/09 10:58:45.866451160,1744189125,866032528,,-0.0001668534801385171,0.00011858663888716123,0.002440469717887461,0.999997001097844
2025/04/09 10:58:45.965102914,1744189125,964478390,,-0.00041716115950142795,0.00015188460303773932,0.0025232517891401987,0.9999967180486359
2025/04/09 10:58:46.66180673,1744189126,65659033,,-0.0006542630224434856,0.00016837186089850025,0.002605568274869075,0.9999963772958275
2025/04/09 10:58:46.159845821,1744189126,157924054,,-0.0008418868955243696,0.00017635344581717454,0.0026988407192145548,0.9999959881842975
2025/04/09 10:58:46.260630660,1744189126,260406962,,-0.0009104549039092591,0.00015246194201703467,0.0027876248434607546,0.9999956884781835
2025/04/09 10:58:46.364700541,1744189126,364217930,,-0.0008344532734029789,0.000126892209484079,0.0028608715973097725,0.9999955514900081
2025/04/09 10:58:46.462546196,1744189126,462133800,,-0.0006544145795487241,8.825440799246659e-05,0.0029320967227612817,0.999995483370563
2025/04/09 10:58:46.563563879,1744189126,563344594,,-0.00041092774299668675,6.119806757461433e-05,0.0029984366997045744,0.9999954183747766
2025/04/09 10:58:46.665738355,1744189126,664470419,,-0.00017067408333933925,3.846585445059997e-05,0.0030644694419657073,0.9999952891977915
2025/04/09 10:58:46.767386419,1744189126,765542609,,1.2756964176934208e-05,3.5397099871749644e-05,0.0031286527796206436,0.9999951050460646
2025/04/09 10:58:46.868199557,1744189126,867407796,,9.839696112043946e-05,3.259156583746353e-05,0.003190241097425206,0.9999949057958086
2025/04/09 10:58:46.960094429,1744189126,958844371,,6.669684802214646e-05,6.558270489377507e-05,0.003244513734625033,0.9999947321766576
2025/04/09 10:58:47.61022667,1744189127,59783821,,-7.11295500766251e-05,9.521515648408906e-05,0.0032967060395366634,0.9999945587871716
2025/04/09 10:58:47.162887385,1744189127,161650194,,-0.0002780455240525398,0.0001441598676231002,0.003351337419029557,0.9999943352070165
2025/04/09 10:58:47.263532358,1744189127,262585214,,-0.000505104936487542,0.00017886372666949584,0.003404384178750365,0.9999940615049341
2025/04/09 10:58:47.364235349,1744189127,363871950,,-0.0006999258750016848,0.00020131964430676778,0.0034549507295505255,0.9999937664253846
2025/04/09 10:58:47.465713550,1744189127,465063435,,-0.0008210740942164261,0.00021739026448785282,0.003499319686844426,0.9999935166492501
2025/04/09 10:58:47.567370452,1744189127,566314030,,-0.0008394495881063543,0.00021744837832343093,0.003547491031432725,0.9999933316517534
2025/04/09 10:58:47.669382997,1744189127,668981113,,-0.0007527118837352881,0.00020827330498818632,0.0035942088011850413,0.999993235832195
2025/04/09 10:58:47.760373231,1744189127,759876082,,-0.0005843071559491087,0.0001815524742659214,0.0036395739515513686,0.9999931895394577
2025/04/09 10:58:47.861940723,1744189127,860368675,,-0.0003760677440991845,0.00016141603216505648,0.003682971694035117,0.9999931340951383
2025/04/09 10:58:47.963142792,1744189127,962931304,,-0.0001793266830895132,0.0001314162349496335,0.0037160973191237667,0.9999930705722059
2025/04/09 10:58:48.68546076,1744189128,67396714,,-4.1971944299856925e-05,0.00010727693005133276,0.003750696310524987,0.9999929594788167
2025/04/09 10:58:48.167152457,1744189128,166932222,,1.0441600337083541e-05,0.00010050608786949556,0.003788935638393594,0.9999928168523149
2025/04/09 10:58:48.264067156,1744189128,261804127,,-3.18656452778821e-05,9.627213252359838e-05,0.0038253854528776665,0.9999926780443915
2025/04/09 10:58:48.364046410,1744189128,363794464,,-0.00015915141314845434,0.00010171446131013112,0.003855834968387329,0.9999925484030832
2025/04/09 10:58:48.464249227,1744189128,462963229,,-0.0003431541018901276,0.00013257126845801198,0.0038775654082078234,0.9999924145495436
2025/04/09 10:58:48.566139670,1744189128,564498297,,-0.0005406607734490257,0.00016019180214619098,0.0038963175401644412,0.9999922503370418
2025/04/09 10:58:48.667113685,1744189128,665675003,,-0.0007032425738310594,0.00018640644451368296,0.003917015347459606,0.9999920638151523
2025/04/09 10:58:48.766988248,1744189128,766576108,,-0.0007917613664220435,0.0002122168041926686,0.003936294107471734,0.999991916800664
2025/04/09 10:58:48.861197356,1744189128,860860256,,-0.0007843439780875697,0.00022323547849326442,0.003960042160441546,0.9999918264848632
2025/04/09 10:58:48.962117740,1744189128,960712873,,-0.0006864412408526039,0.00022607340693466324,0.003983025025588114,0.9999918065668754
2025/04/09 10:58:49.63480410,1744189129,62333623,,-0.0005219500517741204,0.00022533623745008233,0.004005313969427566,0.9999918170923849
2025/04/09 10:58:49.165056853,1744189129,164863917,,-0.0003312917185821143,0.0002208888389508316,0.004026986572085143,0.9999918123830146
2025/04/09 10:58:49.264517211,1744189129,264325396,,-0.0001594178740659236,0.00019711908749954775,0.0040481710594742655,0.9999917739867064
2025/04/09 10:58:49.365319685,1744189129,365069413,,-4.58824571973531e-05,0.00016615318629381164,0.0040680250974695735,0.9999917106955063
2025/04/09 10:58:49.466117197,1744189129,465925428,,-1.677985114989054e-05,0.00015173686122620282,0.004081049082079653,0.9999916608316047
2025/04/09 10:58:49.560993646,1744189129,560733366,,-8.115057656274589e-05,0.00013626573784704396,0.00408804667828744,0.999991631325277
2025/04/09 10:58:49.659711828,1744189129,658401082,,-0.00021987939537498893,0.00012958414897785845,0.004097989484129218,0.9999915706360668
2025/04/09 10:58:49.760064851,1744189129,758993301,,-0.0003996764775833155,0.00012801126618028192,0.0041057045654702825,0.9999914834946596
2025/04/09 10:58:49.862244455,1744189129,862002284,,-0.000579190938818586,0.00013618564925773653,0.0041111471091004785,0.9999913721931668
2025/04/09 10:58:49.964466347,1744189129,964088714,,-0.0007150454467386835,0.0001476035775277546,0.00411436996571345,0.9999912694033775
2025/04/09 10:58:50.68858508,1744189130,67408092,,-0.0007776561019127867,0.00016216628562948273,0.0041163087512714625,0.999991212439063
2025/04/09 10:58:50.166819101,1744189130,165874538,,-0.0007518546596191573,0.00017697138606617268,0.004123147145061221,0.9999912014879528
2025/04/09 10:58:50.261153446,1744189130,260971074,,-0.0006420557095453516,0.00018903788964717014,0.004131353222499988,0.9999912419364947
2025/04/09 10:58:50.364947740,1744189130,364722169,,-0.00045323604130630607,0.00020084072639811162,0.004127251344672202,0.9999913599808907
2025/04/09 10:58:50.460368293,1744189130,458809987,,-0.0001978744754939625,0.00019768182971398034,0.004082834112018815,0.9999916260815387
2025/04/09 10:58:50.560657028,1744189130,559390317,,7.674082862024608e-06,0.00018709460618806544,0.0040395085764893274,0.999991823620162
2025/04/09 10:58:50.662188384,1744189130,660123098,,0.00011807950595074258,0.00017231184017688553,0.003995087776818656,0.9999919977877401
2025/04/09 10:58:50.761908777,1744189130,761587894,,9.652508440884027e-05,0.00015417734821064822,0.003957309109970709,0.9999921532776452
2025/04/09 10:58:50.863852613,1744189130,862922052,,-4.8138596589175446e-05,0.0001339484745336528,0.003925531614323507,0.9999922849412523
2025/04/09 10:58:50.964048856,1744189130,963362745,,-0.0002818365800309929,0.00012734818433778877,0.0038945225392395737,0.9999923684932668
2025/04/09 10:58:51.65062794,1744189131,64877578,,-0.0005438253500427785,0.00012874859339425385,0.0038635340341427694,0.9999923803622482
2025/04/09 10:58:51.166542898,1744189131,166322858,,-0.0007711156988111921,0.00012615843044782777,0.00383115315755671,0.9999923558358398
2025/04/09 10:58:51.269452955,1744189131,267896638,,-0.0009122322385700098,0.00012507743677661802,0.0037966784177252415,0.9999923686813665
2025/04/09 10:58:51.358450665,1744189131,358132693,,-0.0009419133368883574,0.0001365074611043096,0.0037553363140006685,0.9999924957789171
2025/04/09 10:58:51.460260887,1744189131,459084821,,-0.0008549998026712548,0.00014499608403121945,0.003710372229145852,0.9999927405183471
2025/04/09 10:58:51.562403846,1744189131,560650592,,-0.0006770337946138615,0.00015871225049385912,0.003658774798552615,0.99999306487727
2025/04/09 10:58:51.662293021,1744189131,661841570,,-0.00044908921015924397,0.00017141175100670434,0.0036097156986242065,0.9999933694227517
2025/04/09 10:58:51.764183438,1744189131,763143500,,-0.0002237291099144321,0.00017444559999031369,0.003558281633804275,0.9999936290526218
2025/04/09 10:58:51.865424292,1744189131,863599532,,-5.379834717698758e-05,0.0001758899685055609,0.0035056971784304383,0.9999938381088905
2025/04/09 10:58:51.966916721,1744189131,966360436,,2.848246539026415e-05,0.00016585221036115482,0.003462330596183733,0.9999939919562698
2025/04/09 10:58:52.68823617,1744189132,68633356,,1.8703755159622673e-05,0.00014542001388207897,0.0034156437700283556,0.9999941559233361
2025/04/09 10:58:52.164770071,1744189132,163278687,,-7.491326338640668e-05,0.00013094162445939276,0.003361417892152349,0.9999943390400009
2025/04/09 10:58:52.266201932,1744189132,265101666,,-0.00022966448013788258,0.0001065652998895701,0.0033005545168039003,0.9999945211039634
2025/04/09 10:58:52.366815986,1744189132,366612059,,-0.00042435054644650224,0.00010366020123348287,0.0032449922632765424,0.9999946395888268
2025/04/09 10:58:52.467303363,1744189132,467094302,,-0.0006152691351981498,9.501131035550623e-05,0.0031971993789349767,0.999994695152366
2025/04/09 10:58:52.567802601,1744189132,567438845,,-0.000758062371096525,0.0001020158896784159,0.003156223425060759,0.999994726580041
2025/04/09 10:58:52.661397034,1744189132,659541013,,-0.0008144666418247869,0.00011001789109231826,0.003117493384914828,0.9999948028740689
2025/04/09 10:58:52.763384706,1744189132,762809153,,-0.0007725674332488303,0.00012597204931432722,0.0030795665392489803,0.9999949517575247
2025/04/09 10:58:52.862289258,1744189132,861445579,,-0.0006451102406535827,0.00014605131647857825,0.0030425241009826563,0.9999951527626948
2025/04/09 10:58:52.963462822,1744189132,962179296,,-0.0004624243791947635,0.00016736860280565559,0.0030059993511655286,0.9999953610489126
2025/04/09 10:58:53.64955249,1744189133,64759843,,-0.0002613766690189652,0.00016838758871280467,0.0029650258673512018,0.9999955559648567
2025/04/09 10:58:53.166125430,1744189133,165869765,,-8.859199316200158e-05,0.00017473937583500863,0.002919471945535824,0.9999957191414214
2025/04/09 10:58:53.268418280,1744189133,267637907,,1.3696746490135689e-05,0.0001653926829692607,0.0028752394682312133,0.99999585271923
2025/04/09 10:58:53.359884597,1744189133,358375376,,3.49438949472491e-05,0.000150301126224604,0.002825990667766073,0.9999959949746006
2025/04/09 10:58:53.462315527,1744189133,460710836,,-4.060707628967042e-05,0.0001290624549181373,0.002775940355590694,0.9999961379170873
2025/04/09 10:58:53.561999608,1744189133,561023010,,-0.00020713261759183554,0.00010571052389856642,0.002733403291220565,0.9999962372068264
2025/04/09 10:58:53.662893092,1744189133,662735073,,-0.0004224581791270149,8.229763296962364e-05,0.0026982176652465724,0.9999962671818418
2025/04/09 10:58:53.763855687,1744189133,763576173,,-0.000636309578421136,7.548730291949753e-05,0.002670776784296226,0.9999962281744647
2025/04/09 10:58:53.866251571,1744189133,866014187,,-0.0007919391237387122,5.84109670127464e-05,0.0026455702944365627,0.9999961851819238
2025/04/09 10:58:53.962313682,1744189133,962142664,,-0.000852160344435271,6.50447919619223e-05,0.002620182331730394,0.9999962021110235
2025/04/09 10:58:54.63689416,1744189134,62359834,,-0.0008087049495661414,8.709148956632888e-05,0.002589436569868247,0.9999963166080301
2025/04/09 10:58:54.163880642,1744189134,163752360,,-0.0006753089128049958,0.00010701587409035883,0.0025570822379712274,0.9999964969118158
2025/04/09 10:58:54.264514663,1744189134,264211570,,-0.0004844306070371845,0.00012718345020140535,0.00252320515545139,0.9999966912880764
2025/04/09 10:58:54.366258800,1744189134,364929315,,-0.0002810171575019615,0.00014689204882627397,0.002487937436038138,0.9999968548047526
2025/04/09 10:58:54.468591106,1744189134,467559677,,-0.00011013806608787508,0.00016040883245100528,0.002452505673465395,0.9999969736726879
2025/04/09 10:58:54.568364413,1744189134,566448385,,-5.163985937843139e-06,0.0001664412441215987,0.0024232019550737153,0.9999970501771145
2025/04/09 10:58:54.661567689,1744189134,659925191,,1.011490572261925e-05,0.00016068208229522897,0.002394915316789666,0.9999971192256418
2025/04/09 10:58:54.762396036,1744189134,760983032,,-6.741846567075614e-05,0.00015341356441736845,0.0023669123897501507,0.9999971848184214
2025/04/09 10:58:54.862357728,1744189134,862093566,,-0.00022282897436509048,0.00012859080370458112,0.0023306142943643475,0.9999972510205537
2025/04/09 10:58:54.963109141,1744189134,961276238,,-0.0004228556306217638,0.0001115113539156049,0.0022913204149078497,0.9999972793008438
2025/04/09 10:58:55.71277994,1744189135,70069685,,-0.0006158606893782677,6.958516629459545e-05,0.002256021977482191,0.9999972631154312
2025/04/09 10:58:55.160868104,1744189135,159974797,,-0.0007568422361889126,5.4848917109363306e-05,0.002220248455250791,0.9999972473353228
2025/04/09 10:58:55.262582169,1744189135,262378001,,-0.000810504441585823,1.8875510699725583e-05,0.002189685820122419,0.9999972739974217
2025/04/09 10:58:55.364861150,1744189135,363209067,,-0.0007680221718973547,2.251362990018831e-05,0.002160554235543928,0.9999973708167813
2025/04/09 10:58:55.464916751,1744189135,464594418,,-0.0006374163909781328,2.3715989068756085e-05,0.0021335225994300127,0.9999975206065334
2025/04/09 10:58:55.565660256,1744189135,565493994,,-0.000449549783086004,3.5556582403699706e-05,0.002105740608789323,0.9999976812459169
2025/04/09 10:58:55.672575198,1744189135,672341333,,-0.0002557908558319085,6.232201962362798e-05,0.002082391733494968,0.9999977971634099
2025/04/09 10:58:55.759115985,1744189135,758893653,,-9.424185833541226e-05,9.887674518941737e-05,0.0020577439174246414,0.9999978735136549
2025/04/09 10:58:55.859290254,1744189135,859019803,,-9.671974140436608e-06,0.00010739093592907067,0.002035080309826628,0.9999979234087301
2025/04/09 10:58:55.962470958,1744189135,962184140,,-1.942894965981145e-05,0.00014292844552324957,0.0020131420344208055,0.9999979632244881
2025/04/09 10:58:56.63399656,1744189136,63048662,,-0.00011814755406676948,0.00015238398878879086,0.0019918803970262367,0.9999979976143749
2025/04/09 10:58:56.165021930,1744189136,164796886,,-0.00028030040122651044,0.0001454725613743253,0.0019712298270174976,0.9999980072592085
2025/04/09 10:58:56.265628072,1744189136,265499461,,-0.0004662680438364834,0.0001317539296453564,0.0019511880399811336,0.9999979790480809
2025/04/09 10:58:56.368705456,1744189136,367405169,,-0.0006317235524705766,9.669293719214275e-05,0.0019315974385456954,0.9999979302514403
2025/04/09 10:58:56.461655061,1744189136,459092397,,-0.0007387873545634463,8.442995442197815e-05,0.0019123051304970138,0.9999978950747423
2025/04/09 10:58:56.560286741,1744189136,560012545,,-0.0007633639409580265,4.993976906593794e-05,0.0018933602254679932,0.9999979149821112
2025/04/09 10:58:56.665165451,1744189136,663659217,,-0.0007041883286327292,3.14743738944478e-05,0.0018740453928756183,0.9999979955390046
2025/04/09 10:58:56.765637704,1744189136,764111295,,-0.0005789969659928353,1.5874580267265245e-05,0.0018497987627982841,0.9999981213757595
2025/04/09 10:58:56.867788115,1744189136,867449960,,-0.00041413061030897,8.905792725998512e-06,0.0018318015727145005,0.9999982364582063
2025/04/09 10:58:56.967074964,1744189136,965512322,,-0.0002501400107595709,2.470321431077262e-05,0.0018143839886645122,0.9999983224138268
2025/04/09 10:58:57.58759174,1744189137,58483679,,-0.00012506311243821647,3.018510152434877e-05,0.0017975293866349478,0.9999983761667725
2025/04/09 10:58:57.163138883,1744189137,161537953,,-6.748187635270424e-05,6.391933866280224e-05,0.0017812093736682404,0.9999984093255757
2025/04/09 10:58:57.261888252,1744189137,260473380,,-8.878079241068985e-05,8.581994885088149e-05,0.001765241079822359,0.999998434337193
2025/04/09 10:58:57.362530250,1744189137,360790400,,-0.0001832205068792147,0.00010185028758133435,0.0017505738261602147,0.9999984457728142
2025/04/09 10:58:57.463464117,1744189137,463282898,,-0.0003245835269544721,0.00011688806020943562,0.001738133722740581,0.9999984299357061
2025/04/09 10:58:57.566924940,1744189137,564684508,,-0.0004745239995045056,0.0001226195904155844,0.0017235003383751866,0.9999983946677082
2025/04/09 10:58:57.667421469,1744189137,665952422,,-0.0006069957176680016,0.00010101324373291695,0.0017113609488523507,0.9999983462967457
2025/04/09 10:58:57.757696295,1744189137,757564729,,-0.0006890556570735289,9.22032342559846e-05,0.0017016699765161941,0.9999983105086508
2025/04/09 10:58:57.859506077,1744189137,859308342,,-0.000687706902763899,6.496224861385738e-05,0.0016856496280725894,0.9999983407108501
2025/04/09 10:58:57.965466917,1744189137,964506698,,-0.0006145947415835385,3.473686125285983e-05,0.0016671002368027592,0.9999984209204805
2025/04/09 10:58:58.63928144,1744189138,61790991,,-0.0005047594604150587,1.8204714011390672e-05,0.0016555493608797992,0.9999985020202726
2025/04/09 10:58:58.164560174,1744189138,163315563,,-0.00037814363878166916,1.0266065486080849e-05,0.001646903476506722,0.9999985723044486
2025/04/09 10:58:58.264444467,1744189138,264228035,,-0.0002605060823244891,-5.725602989196271e-06,0.0016385332350329735,0.999998623655371
2025/04/09 10:58:58.367468904,1744189138,365317201,,-0.00017935957640246146,1.1491701941838382e-05,0.0016304464297110782,0.9999986546703565
2025/04/09 10:58:58.467877220,1744189138,467537730,,-0.00015228506828693616,2.37244479602899e-05,0.0016226702180936357,0.9999986715930036
2025/04/09 10:58:58.558760297,1744189138,557896973,,-0.00018441321725449702,3.736169436360269e-05,0.0016151986224046152,0.9999986778637656
2025/04/09 10:58:58.659218117,1744189138,659017326,,-0.0002667523475273902,6.657014497218803e-05,0.0016079999946894768,0.9999986693729237
2025/04/09 10:58:58.763703205,1744189138,763533720,,-0.0003790696287306675,8.504543254134646e-05,0.0016010124491887866,0.9999986429153934
2025/04/09 10:58:58.862718768,1744189138,861526541,,-0.0004955884738339494,9.397250096306334e-05,0.0015950169433056381,0.9999986007401132
2025/04/09 10:58:58.962995073,1744189138,962752499,,-0.0005877417941263899,0.00010045091463336388,0.0015911425469278093,0.9999985563662542
2025/04/09 10:58:59.66379456,1744189139,65482250,,-0.0006295269319866501,9.76751657886966e-05,0.001585027360321204,0.999998540920771
2025/04/09 10:58:59.158248919,1744189139,157973664,,-0.000623561746715701,7.05305698555526e-05,0.0015825026969811412,0.9999985509396505
2025/04/09 10:58:59.258646648,1744189139,258413200,,-0.0005832024903348538,6.108923035811646e-05,0.0015920534760984352,0.9999985607533095
2025/04/09 10:58:59.359346855,1744189139,359132508,,-0.000480501918340147,3.559298049946129e-05,0.0015894949165419614,0.999998620677527
2025/04/09 10:58:59.461109926,1744189139,460972189,,-0.0003626800514521939,1.1212069747058149e-05,0.0015869457899700694,0.9999986749693869
2025/04/09 10:58:59.564681421,1744189139,563479985,,-0.00025775776077295907,-5.298745287874828e-06,0.0015844450446768077,0.9999987115325502
2025/04/09 10:58:59.665470471,1744189139,664171485,,-0.0001887928720689699,-7.935812152175035e-06,0.001582043853042942,0.9999987307149552
2025/04/09 10:58:59.766252462,1744189139,766056400,,-0.0001708044413969234,-8.975411499311794e-06,0.0015797680781753209,0.9999987375382551
2025/04/09 10:58:59.858718139,1744189139,858523491,,-0.00020677943681202452,1.099335583319797e-06,0.0015776054323703053,0.9999987342002767
2025/04/09 10:58:59.961060592,1744189139,960835599,,-0.00028676470753697075,2.4398143631638988e-05,0.0015748181674313274,0.9999987185584153
2025/04/09 10:59:00.61944028,1744189140,60580220,,-0.00039178942982338345,4.7486635851305405e-05,0.0015677225664546706,0.9999986932451546
2025/04/09 10:59:00.161449718,1744189140,161269822,,-0.0004935841370652612,6.086769042086362e-05,0.0015661459654487595,0.9999986499274081
2025/04/09 10:59:00.264144080,1744189140,263329945,,-0.0005703835239369925,8.430826031052751e-05,0.0015644842319350628,0.9999986099709544
2025/04/09 10:59:00.364874721,1744189140,363388768,,-0.0006049037265886324,9.426090309251258e-05,0.0015627224483868464,0.9999985915514646
2025/04/09 10:59:00.464617339,1744189140,464444829,,-0.0005901007112063578,8.601578238781947e-05,0.0015608650013313986,0.9999986040404674
2025/04/09 10:59:00.567732325,1744189140,566615463,,-0.0005308437265391751,8.422530184466996e-05,0.001558913694003381,0.9999986404486414
2025/04/09 10:59:00.668405092,1744189140,667201066,,-0.0004418314858291588,6.89853776198165e-05,0.0015569142094862508,0.9999986880211894
2025/04/09 10:59:00.758571112,1744189140,758269220,,-0.000344315871415523,3.868695158868384e-05,0.001554912099638891,0.9999987310983264
2025/04/09 10:59:00.861137999,1744189140,860893666,,-0.0002613717365274639,2.1833427311975855e-05,0.001552938441647105,0.9999987597943876
2025/04/09 10:59:00.961624519,1744189140,961481752,,-0.00021176904763664184,2.2824706330883873e-06,0.0015510212448537238,0.9999987747401288
2025/04/09 10:59:01.64598250,1744189141,64323697,,-0.0002061834220121488,-2.1804764753927726e-05,0.00154917870177109,0.9999987785284034
2025/04/09 10:59:01.174679484,1744189141,170871998,,-0.0002449059242110722,-1.9276632492780155e-05,0.0015464665230069958,0.999998774044645
2025/04/09 10:59:01.266592309,1744189141,266311596,,-0.00031863279218878084,-1.1172349132293447e-05,0.0015379350699082537,0.9999987665512609
2025/04/09 10:59:01.358782522,1744189141,357894581,,-0.00041223501283164726,-8.123273772081585e-06,0.001528656794535775,0.9999987466015701
2025/04/09 10:59:01.459648636,1744189141,459420895,,-0.0005014750337344301,1.5479026914103604e-05,0.001524740544627485,0.9999987117239011
2025/04/09 10:59:01.561982388,1744189141,560591277,,-0.0005639480580268947,3.6165081618246304e-05,0.0015208139413446437,0.9999986838889492
2025/04/09 10:59:01.661679587,1744189141,660849044,,-0.0005854848134510341,4.617951604621223e-05,0.0015160902448583533,0.999998678271804
2025/04/09 10:59:01.761734127,1744189141,761510063,,-0.0005644076090726828,6.507813973223975e-05,0.0015058926044809553,0.9999987047473363
2025/04/09 10:59:01.864786150,1744189141,863584659,,-0.0005087057259660887,7.128545011770279e-05,0.0014938761308941262,0.9999987522347088
2025/04/09 10:59:01.966382303,1744189141,966170845,,-0.00043182850636042157,6.647132542262393e-05,0.0014801100315836855,0.9999988091892902
2025/04/09 10:59:02.62392671,1744189142,60793094,,-0.00035207201791978885,5.9706777721851594e-05,0.0014658310557385931,0.9999988619092078
2025/04/09 10:59:02.164013296,1744189142,161133037,,-0.0002848251509889229,3.514614751334112e-05,0.0014574618092149632,0.9999988967216196
2025/04/09 10:59:02.264719919,1744189142,262986505,,-0.0002450504667224139,9.495625951799687e-06,0.0014493707089831998,0.9999989195917413
2025/04/09 10:59:02.363414912,1744189142,362919532,,-0.00024135540316399945,-9.500076902453795e-06,0.0014415304769537585,0.9999989318230305
2025/04/09 10:59:02.463984811,1744189142,463340663,,-0.000277861518802118,-2.4720847806708708e-05,0.0014363115224405505,0.9999989295949604
2025/04/09 10:59:02.566252376,1744189142,566037084,,-0.00036006089393460314,-4.376163032865508e-05,0.001445164569430557,0.9999988899696037
2025/04/09 10:59:02.669992501,1744189142,669740039,,-0.0004411281314397809,-3.3357410955425925e-05,0.0014533836038382686,0.9999988459840116
2025/04/09 10:59:02.758565015,1744189142,758144240,,-0.00048580533422618266,-3.604047495368685e-05,0.001448527851446455,0.9999988322299806
2025/04/09 10:59:02.861108702,1744189142,860973152,,-0.0005099490831815815,-1.7991573131118764e-05,0.0014437390817322938,0.9999988276221626
2025/04/09 10:59:02.963878798,1744189142,963435480,,-0.0005077726199364134,8.508965345658466e-06,0.0014397489807879468,0.9999988346080391
2025/04/09 10:59:03.67202494,1744189143,66886954,,-0.00047783403699608014,2.3080461972944727e-05,0.0014376078989494939,0.9999988522120684
2025/04/09 10:59:03.159543369,1744189143,157854627,,-0.00041501276587614926,4.6015630575301995e-05,0.0014297335706630508,0.9999988907538262
2025/04/09 10:59:03.259827533,1744189143,259605137,,-0.0003443043800554313,5.1528368677948676e-05,0.0014198104016706354,0.9999989314683013
2025/04/09 10:59:03.361645242,1744189143,360617185,,-0.00029932292949953624,6.659089600362081e-05,0.0014170004761899515,0.9999989490399912
2025/04/09 10:59:03.460576367,1744189143,460411579,,-0.00028249577414250554,6.049501036174531e-05,0.0014168682576102532,0.9999989545098694
2025/04/09 10:59:03.561453388,1744189143,561327170,,-0.00029292644598154666,3.927496179576449e-05,0.0014158543523495237,0.9999989540034667
2025/04/09 10:59:03.663219341,1744189143,663066006,,-0.00033127407515980064,3.6633535136829394e-05,0.0014085437729890867,0.9999989524594067
2025/04/09 10:59:03.764301184,1744189143,763127821,,-0.00038881174270189014,5.246312792938574e-06,0.0013995236485390005,0.9999989450651746
2025/04/09 10:59:03.864472769,1744189143,864250148,,-0.00045184154468537956,-2.7604824798226952e-05,0.0013888040984317265,0.9999989331496151
2025/04/09 10:59:03.967725744,1744189143,966066580,,-0.0005057510672889344,-4.1379215128697515e-05,0.0013764920524953666,0.9999989238860449
2025/04/09 10:59:04.59259435,1744189144,59050497,,-0.0005385500430204025,-5.164514428347907e-05,0.0013637639233495939,0.9999989237217166
2025/04/09 10:59:04.160904165,1744189144,160682597,,-0.0005404125022547613,-6.50086227975726e-05,0.0013556876700909252,0.9999989329190044
2025/04/09 10:59:04.261726047,1744189144,261466183,,-0.0005122448046921854,-5.8712241826057635e-05,0.0013420084339203834,0.999998966585214
2025/04/09 10:59:04.362386694,1744189144,361713438,,-0.0004622548261640485,-4.296015044459197e-05,0.0013268910606507496,0.999999011917019
2025/04/09 10:59:04.464569922,1744189144,464306950,,-0.00040176521341437477,-2.138131673974251e-05,0.001311600201389936,0.9999990589157893
2025/04/09 10:59:04.559015763,1744189144,558680369,,-0.000342285951990455,-6.733889065482456e-06,0.0013017369003954637,0.9999990941376017
2025/04/09 10:59:04.662684759,1744189144,661878977,,-0.00029768301956230336,2.5347057211130493e-05,0.001292099745483653,0.9999991206099105
2025/04/09 10:59:04.761890869,1744189144,761664999,,-0.0002781380223075672,4.702862471601301e-05,0.0012827949833648389,0.9999991374319178
2025/04/09 10:59:04.865550755,1744189144,864847086,,-0.00028726363739684543,5.2872752064734535e-05,0.0012737678066417793,0.9999991460994602
2025/04/09 10:59:04.966237216,1744189144,966011910,,-0.0003223051966179143,5.384583393615158e-05,0.0012649784121057533,0.9999991465244374
2025/04/09 10:59:05.67871015,1744189145,67677780,,-0.0003746500592475077,3.700984740720741e-05,0.0012554249385944786,0.9999991410875451
2025/04/09 10:59:05.158457116,1744189145,158173790,,-0.00043455100680422443,2.5937480591275742e-05,0.0012397674532731464,0.9999991367342931
2025/04/09 10:59:05.262564507,1744189145,262243085,,-0.0004882966373028365,-5.519468912806858e-07,0.00122397969646574,0.999999131719519
2025/04/09 10:59:05.361485724,1744189145,361073030,,-0.0005217250874886774,-3.372543530334594e-05,0.0012138738982893536,0.9999991265874622
2025/04/09 10:59:05.462050364,1744189145,461887502,,-0.0005260801914978198,-5.8630998196964436e-05,0.001203973104300021,0.9999991351250271
2025/04/09 10:59:05.564911829,1744189145,564774220,,-0.0005007923724313397,-7.2961771582689e-05,0.0011942990583123018,0.9999991587663156
2025/04/09 10:59:05.667089794,1744189145,666280260,,-0.00045253798464714445,-7.275460677754073e-05,0.0011848590310633725,0.9999991930122825
2025/04/09 10:59:05.770693780,1744189145,768860030,,-0.00039254218848017104,-6.0619349588517196e-05,0.0011756582664786876,0.9999992300314862
2025/04/09 10:59:05.860364864,1744189145,859328154,,-0.0003356545095277528,-4.031902950474558e-05,0.0011667006915815562,0.999999262259689
2025/04/09 10:59:05.960969462,1744189145,960631640,,-0.00029587504872031817,-1.72430325184733e-05,0.0011580305676171653,0.9999992855626637
2025/04/09 10:59:06.63426113,1744189146,62397399,,-0.000280805954986365,8.402492968232753e-06,0.0011496688910635569,0.9999992996691821
2025/04/09 10:59:06.164631816,1744189146,164049759,,-0.00029343482221599133,4.192687609712493e-05,0.0011415432806467787,0.9999993045082984
2025/04/09 10:59:06.264648272,1744189146,263432210,,-0.00033102668366543665,5.173932943455665e-05,0.0011336292472712253,0.999999301314309
2025/04/09 10:59:06.366687396,1744189146,366552590,,-0.0003849006447009271,5.387049148786914e-05,0.0011259003063773952,0.9999992906487304
