time,header_stamp_secs,header_stamp_nsecs,header_frame_id,wrench_force_x,wrench_force_y,wrench_force_z,wrench_torque_x,wrench_torque_y,wrench_torque_z
2025/04/11 11:51:10.629606301,1744365070,629391471,,-2.220446049250313e-16,1.3247595295057257e-16,0.0,0.0,0.0,-0.0017907496446465387
2025/04/11 11:51:10.718491133,1744365070,718342635,,-6.661338147750939e-16,-1.7452944471585408e-15,0.0,0.0,0.0,-0.0017907496627405095
2025/04/11 11:51:10.800341757,1744365070,800156344,,-0.0,-3.5561831257524545e-17,0.0,0.0,0.0,-0.001790749643413747
2025/04/11 11:51:10.889429435,1744365070,889127749,,6.661338147750939e-16,9.884806731821905e-16,0.0,0.0,0.0,-0.0017907496446643023
2025/04/11 11:51:10.986763902,1744365070,986567365,,1.1102230246251565e-15,6.030874584450618e-17,0.0,0.0,0.0,-0.001790749643323153
2025/04/11 11:51:11.61548726,1744365071,61358282,,2.220446049250313e-16,-4.85925861180847e-16,0.0,0.0,0.0,-0.0017907496425610958
2025/04/11 11:51:11.143946144,1744365071,143544059,,2.220446049250313e-16,-8.911735282016164e-16,0.0,0.0,0.0,-0.0017907496457105765
2025/04/11 11:51:11.222653016,1744365071,222449029,,-0.0,4.923633115799797e-16,0.0,0.0,0.0,-0.0017907496455134009
2025/04/11 11:51:11.297795451,1744365071,296287497,,2.220446049250313e-16,-1.976974898891537e-15,0.0,0.0,0.0,-0.0017907496457105765
2025/04/11 11:51:11.373109600,1744365071,372905715,,2.220446049250313e-16,4.876605846568238e-16,0.0,0.0,0.0,-0.0017907496473625883
2025/04/11 11:51:11.442729353,1744365071,442051443,,-2.220446049250313e-16,5.843172083339065e-16,0.0,0.0,0.0,-0.0017907496463571704
2025/04/11 11:51:11.539832792,1744365071,539633523,,3.3306690738754696e-16,-1.1102230246251565e-16,0.0,0.0,0.0,-2.3458085505763044
2025/04/11 11:51:11.618908249,1744365071,618757018,,-1.1102230246251565e-16,-5.551115123125783e-16,0.0,0.0,0.0,-2.345814936022297
2025/04/11 11:51:11.730924817,1744365071,730723153,,-4.440892098500626e-16,-2.76349581239399e-16,0.0,0.0,0.0,-0.0012588556645045657
2025/04/11 11:51:11.800348556,1744365071,800099857,,2.220446049250313e-16,7.518535490372291e-16,0.0,0.0,0.0,-0.0012588556663537531
2025/04/11 11:51:11.869720102,1744365071,869538430,,-2.220446049250313e-16,-2.397713104451693e-16,0.0,0.0,0.0,-0.001258855669060921
2025/04/11 11:51:11.941630798,1744365071,941352768,,-4.440892098500626e-16,-1.1102230246251565e-16,0.0,0.0,0.0,-2.3458165395100607
2025/04/11 11:51:12.18440236,1744365072,18245144,,-0.0,4.457155131087909e-16,0.0,0.0,0.0,-0.0012588556557631136
2025/04/11 11:51:12.94453366,1744365072,93117439,,8.881784197001252e-16,-3.7960628564148724e-16,0.0,0.0,0.0,-0.0012588556724679734
2025/04/11 11:51:12.168930012,1744365072,168617101,,-6.661338147750939e-16,-5.551115123125783e-16,0.0,0.0,0.0,-2.3458161554272907
2025/04/11 11:51:12.251001870,1744365072,250792177,,-0.0,-4.3599835113788954e-16,0.0,0.0,0.0,-0.001258855660584146
2025/04/11 11:51:12.317504051,1744365072,317301889,,-3.3306690738754696e-16,3.3306690738754696e-16,0.0,0.0,0.0,-2.3458147394301143
2025/04/11 11:51:12.409414476,1744365072,408998722,,-8.881784197001252e-16,-5.551115123125783e-16,0.0,0.0,0.0,-2.345824481096115
2025/04/11 11:51:12.473540084,1744365072,473324562,,-4.440892098500626e-16,1.1102230246251565e-16,0.0,0.0,0.0,-2.345816263678011
2025/04/11 11:51:12.549124458,1744365072,548857312,,2.220446049250313e-16,-1.1315140447873406e-15,0.0,0.0,0.0,-0.0012588556440142895
2025/04/11 11:51:12.619947032,1744365072,619807265,,4.440892098500626e-16,-2.1033522146218786e-16,0.0,0.0,0.0,-0.0012588556718267085
2025/04/11 11:51:12.795634972,1744365072,792729965,,7.016609515630989e-14,8.859145242488126e-13,0.0,0.0,0.0,-10.391572951932623
2025/04/11 11:51:12.857658256,1744365072,857524215,,-0.0,2.9067460244336374e-16,0.0,0.0,0.0,-0.0012588556272348228
2025/04/11 11:51:12.917679894,1744365072,917473271,,8.881784197001252e-16,-8.494859546695488e-16,0.0,0.0,0.0,-0.0012588556652843863
2025/04/11 11:51:12.998252244,1744365072,994264153,,1.4182387866157562,-0.14565243678963943,0.0,0.0,0.0,-0.2622598522060995
2025/04/11 11:51:13.65830535,1744365073,65684034,,1.4167970784743202,-4.363304862057625e-17,0.0,0.0,0.0,0.0
2025/04/11 11:51:13.318794481,1744365073,318514667,,20.98817329974875,2.5040377393796724,0.0,0.0,0.0,1.6976046674373313
2025/04/11 11:51:13.402092657,1744365073,401887671,,198.9085208450506,47.6637119836714,0.0,0.0,0.0,3.2188478705267007
2025/04/11 11:51:13.469196641,1744365073,468797079,,267.4589540418058,30.201988593219852,0.0,0.0,0.0,3.6731470854610055
2025/04/11 11:51:13.540887332,1744365073,540734945,,293.73381863391853,27.826083295492936,0.0,0.0,0.0,15.436002896235866
2025/04/11 11:51:13.611385176,1744365073,611221663,,300.1558014297723,24.823872060835768,0.0,0.0,0.0,13.373617300696111
2025/04/11 11:51:13.679823067,1744365073,679029833,,278.29794542510894,10.976729474423877,0.0,0.0,0.0,6.062669744784621
2025/04/11 11:51:13.747690418,1744365073,743184245,,260.2719886867036,5.235378058175215,0.0,0.0,0.0,2.5620672530022546
2025/04/11 11:51:13.804461751,1744365073,804279148,,235.05443485509826,0.062059928121612984,0.0,0.0,0.0,-0.012801032342977692
2025/04/11 11:51:13.878250612,1744365073,878041042,,214.89118341376363,0.7730195236213717,0.0,0.0,0.0,0.5392542946020171
2025/04/11 11:51:13.986524304,1744365073,986354728,,197.68205423697097,0.6868352111613376,0.0,0.0,0.0,0.39404323031571664
2025/04/11 11:51:14.62011110,1744365074,61856401,,191.86266445905517,0.8202294029280779,0.0,0.0,0.0,0.49094365814909224
2025/04/11 11:51:14.133094514,1744365074,132913888,,180.50138904803003,0.8552529172817174,0.0,0.0,0.0,0.6387156089140547
2025/04/11 11:51:14.198221913,1744365074,197005802,,156.90865902396433,0.765684202610629,0.0,0.0,0.0,0.49750888954136485
2025/04/11 11:51:14.273483163,1744365074,273327607,,129.91254543414522,0.7980812181156409,0.0,0.0,0.0,0.5739689840578137
2025/04/11 11:51:14.357213219,1744365074,356925719,,110.57654180428591,0.8076971535334394,0.0,0.0,0.0,0.588925456721455
2025/04/11 11:51:14.470605879,1744365074,470465583,,80.60077114264044,0.7863769410051589,0.0,0.0,0.0,0.5952640791675208
2025/04/11 11:51:14.698243936,1744365074,698036310,,52.94969689935999,0.7877878829982592,0.0,0.0,0.0,0.6265105333158658
2025/04/11 11:51:14.848166521,1744365074,842670996,,16.949494943681316,-0.17936553868801752,0.0,0.0,0.0,-0.5161159236943149
2025/04/11 11:51:14.915933212,1744365074,915798175,,1.2184046943226576,0.7935763943051768,0.0,0.0,0.0,0.6605611705141428
2025/04/11 11:51:14.982348528,1744365074,982161651,,1.2149782729449043,0.7907923424127148,0.0,0.0,0.0,0.6606680013865684
2025/04/11 11:51:15.53497777,1744365075,53217823,,1.2113166391823142,0.7913188981665087,0.0,0.0,0.0,0.6621069477012043
2025/04/11 11:51:15.112319414,1744365075,112071123,,1.2071668884480005,0.791282361706493,0.0,0.0,0.0,0.6629099096941218
2025/04/11 11:51:15.245338851,1744365075,244740094,,1.2022488030032719,0.7912830322333377,0.0,0.0,0.0,0.6639375797980733
2025/04/11 11:51:15.322932546,1744365075,322771163,,1.1956684592722695,0.7919319981252215,0.0,0.0,0.0,0.6664687317555149
2025/04/11 11:51:15.398640215,1744365075,398434559,,1.1882329944169214,0.791591236207239,0.0,0.0,0.0,0.6668835008311476
2025/04/11 11:51:15.475504560,1744365075,475324834,,1.1801530301746652,0.7913467054666796,0.0,0.0,0.0,0.667971284152685
2025/04/11 11:51:15.550598358,1744365075,550245997,,0.984026424179433,1.1957854924738172,0.0,0.0,0.0,0.8945244302751689
2025/04/11 11:51:15.612475925,1744365075,612220609,,1.1590696064048416,0.7912798488567887,0.0,0.0,0.0,0.6709560828689121
2025/04/11 11:51:15.718289993,1744365075,718128604,,1.1531175238104652,0.791470536268065,0.0,0.0,0.0,0.6725656084375373
2025/04/11 11:51:15.783646130,1744365075,783464227,,1.145402038654538,0.7913096338898811,0.0,0.0,0.0,0.6738380399734751
2025/04/11 11:51:15.855790535,1744365075,855601485,,0.9767660918400907,1.1378693431080933,0.0,0.0,0.0,0.8677767188931398
2025/04/11 11:51:15.916859450,1744365075,916603256,,0.964446782463142,1.1163162012103953,0.0,0.0,0.0,0.8580650309758084
2025/04/11 11:51:15.995271287,1744365075,994249416,,0.9450049184438285,1.0826878111615201,0.0,0.0,0.0,0.8434598872004244
2025/04/11 11:51:16.71943392,1744365076,71787067,,0.9137522009423265,0.9797448534380635,0.0,0.0,0.0,0.8034853756714284
2025/04/11 11:51:16.150308530,1744365076,150066517,,0.8499770826952044,0.8228258648953641,0.0,0.0,0.0,0.7368886848472442
2025/04/11 11:51:16.269961491,1744365076,268834691,,0.770306801389907,0.7310797881866051,0.0,0.0,0.0,0.7060326432236581
2025/04/11 11:51:16.357238190,1744365076,357092856,,-2.220446049250313e-16,0.0,0.0,0.0,0.0,0.0
2025/04/11 11:51:16.428535801,1744365076,428323632,,-2.220446049250313e-16,0.0,0.0,0.0,0.0,0.0
2025/04/11 11:51:16.502035484,1744365076,501863032,,-2.220446049250313e-16,0.0,0.0,0.0,0.0,0.0
2025/04/11 11:51:16.584064235,1744365076,583923920,,-3.3306690738754696e-16,-7.771561172376096e-16,0.0,0.0,0.0,-2.345814151828116
2025/04/11 11:51:16.664190891,1744365076,663983410,,-2.220446049250313e-16,0.0,0.0,0.0,0.0,-0.5244364738464355
2025/04/11 11:51:16.739913507,1744365076,739661474,,-2.220446049250313e-16,7.628446485608009e-16,0.0,0.0,0.0,-0.0012588556645969362
2025/04/11 11:51:17.1649734,1744365076,996205176,,1.8918200339612667e-13,-1.9153515579128921e-13,0.0,0.0,0.0,-17.404136541344347
2025/04/11 11:51:17.77892726,1744365077,71203650,,-1.3322676295501878e-15,4.8341051214068065e-15,0.0,0.0,0.0,-0.004982115215909744
2025/04/11 11:51:17.157361452,1744365077,157173864,,1.7763568394002505e-15,-1.8152119347566997e-15,0.0,0.0,0.0,-0.004982115217181615
2025/04/11 11:51:17.240273886,1744365077,239882471,,-2.220446049250313e-15,-5.145759035887765e-16,0.0,0.0,0.0,-0.004982115218382432
2025/04/11 11:51:17.335978406,1744365077,335793772,,-0.0,-2.239907478246428e-15,0.0,0.0,0.0,-0.004450220678364758
2025/04/11 11:51:17.416757754,1744365077,416187993,,8.881784197001252e-16,-1.607248405546824e-15,0.0,0.0,0.0,-0.004982115218119532
2025/04/11 11:51:17.540284061,1744365077,540091419,,-8.881784197001252e-16,2.6680860212152657e-15,0.0,0.0,0.0,-0.0049821152177358385
2025/04/11 11:51:17.613019029,1744365077,612811422,,-8.881784197001252e-16,5.708974959439672e-15,0.0,0.0,0.0,-0.00498211522175751
2025/04/11 11:51:17.675748551,1744365077,675574956,,3.1086244689504383e-15,-8.89316831981235e-16,0.0,0.0,0.0,-0.004982115216947136
2025/04/11 11:51:17.747824460,1744365077,747391220,,-4.440892098500626e-16,2.5135872116360813e-16,0.0,0.0,0.0,-0.004450220676673666
2025/04/11 11:51:17.816330453,1744365077,816090213,,-8.881784197001252e-16,-2.581485372687986e-16,0.0,0.0,0.0,-0.003918326626443758
2025/04/11 11:51:17.874347597,1744365077,873977115,,8.881784197001252e-16,-1.7007608429236987e-15,0.0,0.0,0.0,-0.0028545382540841047
2025/04/11 11:51:17.951770397,1744365077,946171706,,-1.3322676295501878e-15,-1.0700126765531004e-15,0.0,0.0,0.0,-0.0028545382571287803
2025/04/11 11:51:18.23436778,1744365078,23256282,,-6.661338147750939e-16,-3.1149806041866346e-15,0.0,0.0,0.0,-0.002322643955157133
2025/04/11 11:51:18.105528197,1744365078,103011211,,2.220446049250313e-16,-7.527209107752175e-16,0.0,0.0,0.0,-0.0012588556640800164
2025/04/11 11:51:18.173391045,1744365078,172369875,,8.881784197001252e-16,-3.032513476441956e-15,0.0,0.0,0.0,-0.0028545382573526012
2025/04/11 11:51:18.253558769,1744365078,252959639,,-3.810285420513537e-13,-8.293575753188977e-13,0.0,0.0,0.0,-2.597490398424654
2025/04/11 11:51:18.326355473,1744365078,326211575,,-4.440892098500626e-16,-3.216312849732561e-15,0.0,0.0,0.0,-0.004982115219121397
2025/04/11 11:51:18.413593346,1744365078,410934564,,1.7763568394002505e-15,-6.774772800047235e-16,0.0,0.0,0.0,-0.0065777973522784805
2025/04/11 11:51:18.541813591,1744365078,541618602,,-2.6645352591003757e-15,8.172783738831513e-15,0.0,0.0,0.0,-0.007109691403357488
2025/04/11 11:51:18.625928017,1744365078,625448918,,8.881784197001252e-16,-8.102378360255735e-16,0.0,0.0,0.0,-0.009237268070563687
2025/04/11 11:51:18.736900805,1744365078,736626652,,1.0054179711005418e-12,1.4272709736632382e-12,0.0,0.0,0.0,-11.290465296570545
2025/04/11 11:51:18.988934737,1744365078,988751067,,-37.08636160168615,0.7403356574464524,0.0,0.0,0.0,-46.23415146478487
2025/04/11 11:51:19.72511226,1744365079,72280374,,-282.3097596167777,1.2657325323947375,0.0,0.0,0.0,-20.885861355662485
2025/04/11 11:51:19.150881254,1744365079,148637784,,-293.20063067613916,8.076114758319939,0.0,0.0,0.0,-4.515643924064705
2025/04/11 11:51:19.241787552,1744365079,241611133,,-288.61952685127756,9.967691333848293,0.0,0.0,0.0,-5.570925082403932
2025/04/11 11:51:19.337804221,1744365079,337665769,,-281.9394238179453,8.434571536053548,0.0,0.0,0.0,-4.253995491019168
2025/04/11 11:51:19.429365024,1744365079,429098597,,-264.56960168841124,9.916507632159256,0.0,0.0,0.0,-5.5446559308898316
2025/04/11 11:51:19.516960371,1744365079,516817184,,-249.96929813545214,6.514480943691007,0.0,0.0,0.0,-3.136441965981021
2025/04/11 11:51:19.602142514,1744365079,601871488,,-238.70436962200537,6.702889488606525,0.0,0.0,0.0,-3.015414945761478
2025/04/11 11:51:19.697455798,1744365079,695152144,,-221.4445202804325,7.168716728543098,0.0,0.0,0.0,-3.7094551030431546
2025/04/11 11:51:19.777056591,1744365079,775424733,,-207.25375502258646,5.532014708388951,0.0,0.0,0.0,-2.779088181715167
2025/04/11 11:51:19.858368393,1744365079,858221428,,-187.66057185154392,4.737839697351143,0.0,0.0,0.0,-2.407075974537804
2025/04/11 11:51:19.978520371,1744365079,978334605,,-167.82810983742638,3.72018446903335,0.0,0.0,0.0,-1.8293782978238937
2025/04/11 11:51:20.61161701,1744365080,56593165,,-144.50673129206507,0.5722243386577843,0.0,0.0,0.0,0.3805969633467612
2025/04/11 11:51:20.148192957,1744365080,146725117,,-131.35421460194675,1.322109337559405,0.0,0.0,0.0,-0.465295282296438
2025/04/11 11:51:20.225658164,1744365080,225413147,,-108.03391232379016,0.19006707400706935,0.0,0.0,0.0,0.42709916348974275
2025/04/11 11:51:20.318030844,1744365080,317857106,,-85.77160388860784,0.7072327404428846,0.0,0.0,0.0,-0.6384852953972313
2025/04/11 11:51:20.431639604,1744365080,431340145,,-62.55350154749476,0.584579582231322,0.0,0.0,0.0,-0.39941526996346965
2025/04/11 11:51:20.664855546,1744365080,664629153,,-37.67082014883971,0.7071261111007714,0.0,0.0,0.0,-0.7621600360401999
2025/04/11 11:51:20.730235032,1744365080,730103002,,-1.1287584618867754,0.7071944202157652,0.0,0.0,0.0,-0.7641783352946163
2025/04/11 11:51:20.804326057,1744365080,803929438,,-1.118341321419507,0.7072589923309862,0.0,0.0,0.0,-0.7629275771906805
2025/04/11 11:51:20.880992076,1744365080,880790673,,-1.110488417845147,0.7071761832986367,0.0,0.0,0.0,-0.7606832660761143
2025/04/11 11:51:20.958257043,1744365080,957152117,,-1.106659980894733,0.7070876139143478,0.0,0.0,0.0,-0.7599971044724043
2025/04/11 11:51:21.35510643,1744365081,35223871,,-1.1013853222132184,0.707325750226866,0.0,0.0,0.0,-0.7600416714373637
2025/04/11 11:51:21.110588460,1744365081,110401016,,-1.0988028779944443,0.7071554382795369,0.0,0.0,0.0,-0.758558493661269
2025/04/11 11:51:21.222584606,1744365081,222333730,,-1.1006907747295713,0.7073175100326039,0.0,0.0,0.0,-0.7596308913608709
2025/04/11 11:51:21.303701507,1744365081,302631866,,-1.096717997355654,0.7072866055700415,0.0,0.0,0.0,-0.7578449196961401
2025/04/11 11:51:21.381492413,1744365081,380362344,,-1.1016414438525999,0.7071913444053108,0.0,0.0,0.0,-0.7575319182911073
2025/04/11 11:51:21.460023055,1744365081,459845086,,-1.1006296354269693,0.7072298840349815,0.0,0.0,0.0,-0.7576981750839593
2025/04/11 11:51:21.533975915,1744365081,533783083,,-1.095576456478625,0.7071463263446929,0.0,0.0,0.0,-0.7557711264108491
2025/04/11 11:51:21.614547015,1744365081,614288872,,-1.10058180343583,0.7071599241067559,0.0,0.0,0.0,-0.7559835686240035
2025/04/11 11:51:21.687176221,1744365081,686590452,,-1.0954781981945416,0.7072758855768995,0.0,0.0,0.0,-0.7554268561414972
2025/04/11 11:51:21.762955468,1744365081,762802181,,-1.0919678751469064,0.7071534240647508,0.0,0.0,0.0,-0.75470397079863
2025/04/11 11:51:21.823964624,1744365081,823806201,,-1.087243081604015,0.7070194182019889,0.0,0.0,0.0,-0.7526212013476652
2025/04/11 11:51:21.892301374,1744365081,892168872,,-1.0837104565245,0.7071750803391352,0.0,0.0,0.0,-0.7531039810521634
2025/04/11 11:51:21.958820138,1744365081,958670358,,-1.0698914069682246,0.7072196992468007,0.0,0.0,0.0,-0.7514750448456198
2025/04/11 11:51:22.41360079,1744365082,41176260,,-1.0754645580395845,0.707050571573967,0.0,0.0,0.0,-0.7503162033775652
2025/04/11 11:51:22.111263732,1744365082,111077921,,-1.04540731885902,0.7071739416379272,0.0,0.0,0.0,-0.7475724491849292
2025/04/11 11:51:22.227557195,1744365082,227218571,,-0.922584820906593,0.7071619483636495,0.0,0.0,0.0,-0.7334084578757825
2025/04/11 11:51:22.288252252,1744365082,287700418,,-0.7236875477925793,0.7070494122103042,0.0,0.0,0.0,-0.7262396846300305
2025/04/11 11:51:22.366178364,1744365082,365972920,,0.007036534539389017,0.002372514951283655,0.0,0.0,0.0,-0.013880439609721407
2025/04/11 11:51:22.444754517,1744365082,444569187,,-0.0,0.002372445240110821,0.0,0.0,0.0,-0.003918329828486833
2025/04/11 11:51:22.515497962,1744365082,515210377,,-4.440892098500626e-16,0.002372445568044057,0.0,0.0,0.0,-0.004450221143876831
2025/04/11 11:51:22.582914146,1744365082,582692812,,-4.440892098500626e-16,0.0023724447332664766,0.0,0.0,0.0,-0.0028545388656198156
2025/04/11 11:51:22.655326734,1744365082,653347908,,1.1102230246251565e-15,0.0023724446780750696,0.0,0.0,0.0,-0.002322644329684209
2025/04/11 11:51:22.727526096,1744365082,727408197,,0.7072067955955508,-0.1414264904918845,0.0,0.0,0.0,-0.826394268542705
2025/04/11 11:51:22.794032442,1744365082,793852746,,8.881784197001252e-16,0.002372444977715382,0.0,0.0,0.0,-0.0033864326873747075
2025/04/11 11:51:22.862265300,1744365082,862035595,,0.7072070797107657,0.709578906263264,0.0,0.0,0.0,0.7059472449845821
2025/04/11 11:51:22.930185575,1744365082,930013143,,0.7072068651288299,0.7095793876086383,0.0,0.0,0.0,0.7059482828828116
2025/04/11 11:51:23.10127030,1744365083,9611174,,0.7072067014815704,-0.14142668532975655,0.0,0.0,0.0,-0.8263945440205944
2025/04/11 11:51:23.80814888,1744365083,80619512,,0.7072069947910191,0.7095792074207901,0.0,0.0,0.0,0.7059478548554736
2025/04/11 11:51:23.186665462,1744365083,185893360,,1.9984014443252818e-15,0.0023724550562089775,0.0,0.0,0.0,-0.0023226463156440502
2025/04/11 11:51:23.267643642,1744365083,267426251,,-5.679536840830224e-10,0.0021241100611151253,0.0,0.0,0.0,-1.367759069595344
2025/04/11 11:51:23.341480527,1744365083,341305425,,-4.3500492097336974e-10,0.0032556451756198257,0.0,0.0,0.0,-5.035115571325491
2025/04/11 11:51:23.423585713,1744365083,423316898,,1.7763568394002505e-15,0.002372447550587964,0.0,0.0,0.0,-0.009237268151906619
2025/04/11 11:51:23.486162735,1744365083,485916040,,-4.440892098500626e-15,0.0023724475508482,0.0,0.0,0.0,-0.009237268150656064
2025/04/11 11:51:23.558001509,1744365083,556583918,,-0.0,0.0023724475504725007,0.0,0.0,0.0,-0.009237268152560318
2025/04/11 11:51:23.631692585,1744365083,631551476,,-1.7763568394002505e-15,0.0023724477914530695,0.0,0.0,0.0,-0.009769162207660997
2025/04/11 11:51:23.711582572,1744365083,711448247,,8.881784197001252e-16,0.00237244645294421,0.0,0.0,0.0,-0.00657779803736247
2025/04/11 11:51:23.779411673,1744365083,779206358,,8.881784197001252e-16,0.0016532110583256099,0.0,0.0,0.0,-0.004982115505029583
2025/04/11 11:51:23.843693205,1744365083,843494709,,-4.440892098500626e-16,0.0016532110379468001,0.0,0.0,0.0,-0.00498211537264126
2025/04/11 11:51:23.916198974,1744365083,916045984,,-1.7763568394002505e-15,0.001697229272386469,0.0,0.0,0.0,-0.008853785086472499
2025/04/11 11:51:23.991663404,1744365083,991522407,,-0.0,1.0454419448191477e-16,0.0,0.0,0.0,-0.006045903314763734
2025/04/11 11:51:24.235236484,1744365084,235075561,,15.737129016184404,-5.007041656290845e-12,0.0,0.0,0.0,-21.616292673392962
2025/04/11 11:51:24.365836649,1744365084,365685901,,63.86675771579229,-325.60057614781545,0.0,0.0,0.0,-79.86146669302195
2025/04/11 11:51:24.445097828,1744365084,444885633,,68.59813568439768,-381.55327662769184,0.0,0.0,0.0,-87.00293739903165
2025/04/11 11:51:24.528861185,1744365084,528701261,,61.63569471525181,-334.7334601778191,0.0,0.0,0.0,-91.50592621754352
2025/04/11 11:51:24.594375884,1744365084,594208654,,40.699450202334354,-287.7649901262341,0.0,0.0,0.0,-98.39010214554008
2025/04/11 11:51:24.669392806,1744365084,669196532,,11.137765745710524,-235.5120538110329,0.0,0.0,0.0,-130.7421466477386
2025/04/11 11:51:24.730920948,1744365084,730795035,,-36.68160382902849,-210.3485287818201,0.0,0.0,0.0,-116.78844089816954
2025/04/11 11:51:24.812258101,1744365084,812107012,,-88.75260404079907,-199.0678272235034,0.0,0.0,0.0,-109.52858451761406
2025/04/11 11:51:24.880571399,1744365084,880357311,,-87.7317807454236,-197.98416858421268,0.0,0.0,0.0,-109.9080369785791
2025/04/11 11:51:24.955096527,1744365084,951911769,,-86.80759729349677,-195.91151038501658,0.0,0.0,0.0,-108.75079807020117
2025/04/11 11:51:25.24532922,1744365085,24257363,,-85.66576697363936,-192.02225565433827,0.0,0.0,0.0,-105.6930065053501
2025/04/11 11:51:25.96243821,1744365085,96024648,,-83.8013317568273,-189.15823411736665,0.0,0.0,0.0,-104.9924749313538
2025/04/11 11:51:25.167287330,1744365085,167097539,,-84.21276683644405,-188.79930739839233,0.0,0.0,0.0,-103.8603143316032
2025/04/11 11:51:25.250445107,1744365085,250251085,,-80.85801230859765,-182.4984421393671,0.0,0.0,0.0,-101.29003928796593
2025/04/11 11:51:25.334252103,1744365085,334076999,,-78.33251983475937,-175.69289948423085,0.0,0.0,0.0,-96.4938529847417
2025/04/11 11:51:25.451106010,1744365085,450810068,,-76.92324474883341,-173.69137849509906,0.0,0.0,0.0,-96.38953076693181
2025/04/11 11:51:25.521001240,1744365085,520747534,,-74.70094909102063,-167.42353484473017,0.0,0.0,0.0,-91.96572923673284
2025/04/11 11:51:25.593715060,1744365085,593413922,,-70.72716322441879,-159.74882052399494,0.0,0.0,0.0,-88.63899006948824
2025/04/11 11:51:25.665979112,1744365085,665759501,,-70.98520843510434,-159.1572823990756,0.0,0.0,0.0,-87.31464808774086
2025/04/11 11:51:25.734965495,1744365085,734766483,,-67.38263916933548,-152.22535873907736,0.0,0.0,0.0,-84.45442831133329
2025/04/11 11:51:25.796628783,1744365085,796374771,,-71.49775457872086,-160.48696676751848,0.0,0.0,0.0,-87.92830457190405
2025/04/11 11:51:25.859227883,1744365085,859002013,,-68.46281086786581,-154.65410761997305,0.0,0.0,0.0,-85.79837435848358
2025/04/11 11:51:25.930060641,1744365085,929754632,,-68.89446440167015,-155.17194590813676,0.0,0.0,0.0,-84.59110793938274
2025/04/11 11:51:25.995275901,1744365085,995145370,,-65.66412974998224,-148.37958156363737,0.0,0.0,0.0,-82.30686771508812
2025/04/11 11:51:26.70671883,1744365086,70446570,,-64.71277401616065,-144.2591579249506,0.0,0.0,0.0,-79.40574918087259
2025/04/11 11:51:26.145428346,1744365086,145273241,,-60.7755140807987,-137.37349543906402,0.0,0.0,0.0,-76.19058917548097
2025/04/11 11:51:26.226859501,1744365086,226608402,,-60.49512541771669,-134.91144236823254,0.0,0.0,0.0,-74.23662809841201
2025/04/11 11:51:26.300517286,1744365086,300237998,,-57.94958022350707,-129.8227336818274,0.0,0.0,0.0,-71.01931796616037
2025/04/11 11:51:26.433699773,1744365086,433481541,,-55.23514389995859,-123.90676035597937,0.0,0.0,0.0,-67.59624188348951
2025/04/11 11:51:26.510976175,1744365086,510803458,,-50.05505648161764,-112.34898393519256,0.0,0.0,0.0,-61.142289535695
2025/04/11 11:51:26.591462729,1744365086,591310326,,-46.06991003218718,-102.95646691875288,0.0,0.0,0.0,-56.213420721539876
2025/04/11 11:51:26.677976541,1744365086,677809366,,-42.4134439963656,-94.8723556449969,0.0,0.0,0.0,-51.652926718386254
2025/04/11 11:51:26.748332938,1744365086,748196359,,-38.68635303690172,-86.446028596313,0.0,0.0,0.0,-46.485559459735725
2025/04/11 11:51:26.820116439,1744365086,819904334,,-35.440077337347304,-79.38969278122062,0.0,0.0,0.0,-42.8708078280182
2025/04/11 11:51:26.896089198,1744365086,895904685,,-32.92958112540359,-73.65099410896721,0.0,0.0,0.0,-39.751571876201155
2025/04/11 11:51:26.967934418,1744365086,967623886,,-28.828789743471248,-64.54673662752725,0.0,0.0,0.0,-34.61039084810321
2025/04/11 11:51:27.202308624,1744365087,202162108,,-26.393928927382404,-59.03814110136227,0.0,0.0,0.0,-31.601918330899252
2025/04/11 11:51:27.462550798,1744365087,462366589,,-16.335806606542036,-36.45928086799131,0.0,0.0,0.0,-19.038655797262635
2025/04/11 11:51:27.666050138,1744365087,665865131,,-6.129575752856994,-13.60895945472106,0.0,0.0,0.0,-6.31263170218898
2025/04/11 11:51:27.738068708,1744365087,737917024,,-0.7072266661487845,-1.4008145492467747,0.0,0.0,0.0,0.48226379909206685
2025/04/11 11:51:27.808080526,1744365087,806259409,,-0.7069788230297434,-1.3801799684386538,0.0,0.0,0.0,0.49459116634949396
2025/04/11 11:51:27.919333700,1744365087,919186521,,-0.7072227988380178,-1.3586554292321011,0.0,0.0,0.0,0.5024829426263864
2025/04/11 11:51:27.992065762,1744365087,990811929,,-0.7070398144589092,-1.325317929219807,0.0,0.0,0.0,0.5195232986358178
2025/04/11 11:51:28.63738616,1744365088,63556504,,-0.7071509701536627,-1.2969896413075048,0.0,0.0,0.0,0.5320444684264203
2025/04/11 11:51:28.143903371,1744365088,143158110,,-0.7074191652639854,-1.2800799569657784,0.0,0.0,0.0,0.5365726440455205
2025/04/11 11:51:28.218120839,1744365088,217943458,,-0.7078000924341836,-1.249329382103383,0.0,0.0,0.0,0.5492743788891516
2025/04/11 11:51:28.304279074,1744365088,301024551,,-0.7073381228221933,-1.2280299854382974,0.0,0.0,0.0,0.5621340147022806
2025/04/11 11:51:28.399778109,1744365088,399477071,,-0.7074240839738195,-1.1970066407558306,0.0,0.0,0.0,0.5766835269022863
2025/04/11 11:51:28.473329519,1744365088,472658445,,-0.707206961021285,-1.1721359418377233,0.0,0.0,0.0,0.5906595342788421
2025/04/11 11:51:28.548268221,1744365088,548015625,,-0.7072067838993661,-1.143675102220186,0.0,0.0,0.0,0.6041426564806329
2025/04/11 11:51:28.620683226,1744365088,620550542,,-0.7073758604384892,-1.1463533624520323,0.0,0.0,0.0,0.6044703232048505
2025/04/11 11:51:28.701563366,1744365088,701396131,,-0.707444727729353,-1.1183574580190339,0.0,0.0,0.0,0.6173302810036887
2025/04/11 11:51:28.769027876,1744365088,768873385,,-0.7072067808167191,-1.1196961309033213,0.0,0.0,0.0,0.6191408595282724
2025/04/11 11:51:28.842757742,1744365088,842577696,,-0.7076278905667976,-1.1183181350395444,0.0,0.0,0.0,0.6207614273208577
2025/04/11 11:51:28.965275433,1744365088,957162335,,-0.7075485391262077,-1.1272437531204105,0.0,0.0,0.0,0.6179088602293348
2025/04/11 11:51:29.100009171,1744365089,99875543,,-4.470265362266787,-13.359455212097373,0.0,0.0,0.0,-4.0968271209616205
2025/04/11 11:51:29.251684776,1744365089,251486605,,-6.913952133552016,-20.877738315373335,0.0,0.0,0.0,-7.163477146162677
2025/04/11 11:51:29.519070777,1744365089,518930222,,-10.93943762365187,-24.165497143689436,0.0,0.0,0.0,-12.18754807735084
2025/04/11 11:51:29.608690723,1744365089,606283638,,-0.7072060005382355,-1.2671276164401206,0.0,0.0,0.0,0.5779086976623518
2025/04/11 11:51:29.690968440,1744365089,690630688,,-0.707350788016555,-1.2609980168535913,0.0,0.0,0.0,0.580264126600099
2025/04/11 11:51:29.764307203,1744365089,764176295,,-0.7076946346184485,-1.2246306383195815,0.0,0.0,0.0,0.5961259927839535
2025/04/11 11:51:29.830157361,1744365089,829888998,,-0.7076141420269266,-1.214486887074031,0.0,0.0,0.0,0.600834383648106
2025/04/11 11:51:29.901795260,1744365089,900976967,,-0.7075370100503591,-1.1939507282044133,0.0,0.0,0.0,0.6100420901128984
2025/04/11 11:51:29.979566057,1744365089,979342236,,-0.7076678095480986,-1.172481943689263,0.0,0.0,0.0,0.6199152202535174
2025/04/11 11:51:30.52870435,1744365090,52706069,,-0.7078094124212413,-1.1427126411406334,0.0,0.0,0.0,0.6340715933476986
2025/04/11 11:51:30.131420040,1744365090,131272805,,-0.7072065784982797,-1.1327969592719,0.0,0.0,0.0,0.6390603911557946
2025/04/11 11:51:30.202858987,1744365090,202706814,,-0.7071420299332019,-1.126560727607739,0.0,0.0,0.0,0.6405368101917475
2025/04/11 11:51:30.330653121,1744365090,330449880,,-0.7072068119538599,-1.1005429120746157,0.0,0.0,0.0,0.6512333888506987
2025/04/11 11:51:30.414539642,1744365090,414156875,,-0.7072068337305524,-1.068534889271632,0.0,0.0,0.0,0.6646901085750301
2025/04/11 11:51:30.493786629,1744365090,493101072,,-0.7072067989375057,-1.0430909735866862,0.0,0.0,0.0,0.676498822263568
2025/04/11 11:51:30.566538399,1744365090,566329068,,-0.7072995638340203,-1.0205435459788532,0.0,0.0,0.0,0.6860850100046889
2025/04/11 11:51:30.638303813,1744365090,638103442,,-0.7073128574874978,-1.0205718828547106,0.0,0.0,0.0,0.686125128400306
2025/04/11 11:51:30.713685786,1744365090,713535104,,-0.7073152981543132,-1.0206822082412828,0.0,0.0,0.0,0.6863210863799623
2025/04/11 11:51:30.781408405,1744365090,781224113,,-0.7075716625475916,-1.0208829460966626,0.0,0.0,0.0,0.6870046860340153
2025/04/11 11:51:30.851720155,1744365090,850969389,,-0.7072241840443674,-1.0205103203991257,0.0,0.0,0.0,0.6860867793710668
2025/04/11 11:51:30.923093420,1744365090,922947926,,-0.7072895246503581,-1.0221670483252865,0.0,0.0,0.0,0.6869571791253861
2025/04/11 11:51:31.5799214,1744365091,4196823,,-0.7071005434708493,-1.021791205164277,0.0,0.0,0.0,0.6869680565110627
2025/04/11 11:51:31.74013339,1744365091,73850149,,-0.7072098193693268,-1.0220428577586063,0.0,0.0,0.0,0.68786298925653
2025/04/11 11:51:31.148818848,1744365091,148660274,,-0.7071284592639255,-1.0217664030885771,0.0,0.0,0.0,0.6874330196774849
2025/04/11 11:51:31.230448383,1744365091,226626135,,-0.7070752093388606,-1.02216999559721,0.0,0.0,0.0,0.6887326329606083
2025/04/11 11:51:31.301310978,1744365091,301184310,,-0.7073279431688544,-1.0220407758599777,0.0,0.0,0.0,0.6882950033382258
2025/04/11 11:51:31.434666565,1744365091,434420700,,-0.7072160486497694,-1.0220296561080886,0.0,0.0,0.0,0.6888979623366538
2025/04/11 11:51:31.513557254,1744365091,508291675,,-0.7075804673604082,-1.022081577528752,0.0,0.0,0.0,0.6876307735365401
2025/04/11 11:51:31.583496809,1744365091,583248770,,-0.707100826880227,-1.0221912509530284,0.0,0.0,0.0,0.6882180310095976
2025/04/11 11:51:31.658678092,1744365091,658493827,,-0.707206762156078,-1.0220619276269645,0.0,0.0,0.0,0.6878997368589239
2025/04/11 11:51:31.734413696,1744365091,734227800,,-0.7071883083721833,-1.0222197546218013,0.0,0.0,0.0,0.6876660973488811
2025/04/11 11:51:31.802179202,1744365091,801835923,,-0.7072190677021801,-1.021726646645675,0.0,0.0,0.0,0.6867560911967701
2025/04/11 11:51:31.872007823,1744365091,871857172,,-0.7074082584482948,-1.0246654100903925,0.0,0.0,0.0,0.686712962703723
2025/04/11 11:51:31.944355110,1744365091,944126429,,-0.7072361736832811,-1.024605634587033,0.0,0.0,0.0,0.6878095375182056
2025/04/11 11:51:32.23347869,1744365092,23186963,,-0.7074856065349593,-1.0247423522174586,0.0,0.0,0.0,0.687319933157994
2025/04/11 11:51:32.92410565,1744365092,92201855,,-0.7072629814876503,-1.0269873700085554,0.0,0.0,0.0,0.688189906676655
2025/04/11 11:51:32.176141099,1744365092,175975289,,-0.7072067957074868,-1.027076261304046,0.0,0.0,0.0,0.6889269995530185
2025/04/11 11:51:32.247674297,1744365092,247509774,,-0.7072761358299289,-1.0272235988850298,0.0,0.0,0.0,0.688603194396336
2025/04/11 11:51:32.324228640,1744365092,324052200,,-0.7072609280724045,-1.0284415352344922,0.0,0.0,0.0,0.689263341539629
2025/04/11 11:51:32.442215354,1744365092,442019658,,-0.7072963200711584,-1.0284610912272,0.0,0.0,0.0,0.689801471780612
2025/04/11 11:51:32.520431440,1744365092,520220309,,-0.7073833990894656,-1.0316524831662264,0.0,0.0,0.0,0.6900678167133805
2025/04/11 11:51:32.582876212,1744365092,582693378,,-0.7074759368943937,-1.031872424841481,0.0,0.0,0.0,0.692514620212421
2025/04/11 11:51:32.655221058,1744365092,655030400,,1.4841923881757582,-2.8062898416410462,0.0,0.0,0.0,0.27454315196460755
2025/04/11 11:51:32.896527962,1744365092,896230958,,10.368486339531227,-22.823021669949867,0.0,0.0,0.0,11.403855389707054
2025/04/11 11:51:33.143258855,1744365093,143082741,,15.007674201740254,-33.25002825819524,0.0,0.0,0.0,17.2184005973308
2025/04/11 11:51:33.402557853,1744365093,402328290,,5.385406074137567,-11.586779195589315,0.0,0.0,0.0,5.190164069773374
2025/04/11 11:51:33.485855100,1744365093,485644312,,0.7022206575353174,-1.1061420146251066,0.0,0.0,0.0,-0.6606381720906995
2025/04/11 11:51:33.558746766,1744365093,558599766,,0.7022198127208235,-1.0869357978219796,0.0,0.0,0.0,-0.6690179547965727
2025/04/11 11:51:33.635499073,1744365093,635348757,,2.3162094819035026,-4.72298199356328,0.0,0.0,0.0,1.3550606578461952
2025/04/11 11:51:33.706862215,1744365093,706596469,,0.7022210844629111,-1.082262933337006,0.0,0.0,0.0,-0.6674635764385357
2025/04/11 11:51:33.784277917,1744365093,784077124,,0.7022210606895545,-1.0561955882217262,0.0,0.0,0.0,-0.6783618937708695
2025/04/11 11:51:33.847728084,1744365093,847228924,,0.7022863706152283,-1.0349091623402273,0.0,0.0,0.0,-0.6871188125688263
2025/04/11 11:51:33.958572642,1744365093,958416922,,0.7021062652517962,-1.034767198337022,0.0,0.0,0.0,-0.6864788139093037
2025/04/11 11:51:34.36685325,1744365094,36464731,,0.7035282271437069,-1.034869109259489,0.0,0.0,0.0,-0.6856204435675579
2025/04/11 11:51:34.107856933,1744365094,107700287,,0.7035087057488827,-1.0350941794226856,0.0,0.0,0.0,-0.6849763162064164
2025/04/11 11:51:34.179431680,1744365094,178717292,,0.7035425318671704,-1.0337018315815385,0.0,0.0,0.0,-0.6839677722777822
2025/04/11 11:51:34.261903896,1744365094,260469471,,0.703009784106003,-1.0337143849183121,0.0,0.0,0.0,-0.6849024796084677
2025/04/11 11:51:34.340346628,1744365094,340106269,,0.7030551659086104,-1.0336616296754073,0.0,0.0,0.0,-0.684238929087087
2025/04/11 11:51:34.423499853,1744365094,423334734,,0.7029722284359448,-1.033471058066084,0.0,0.0,0.0,-0.6839645399534788
2025/04/11 11:51:34.499274970,1744365094,499112908,,0.7015064300021123,-1.0335248360029254,0.0,0.0,0.0,-0.6846058899418779
2025/04/11 11:51:34.577576331,1744365094,577424376,,0.7017051906435139,-1.0332910496550767,0.0,0.0,0.0,-0.6834928916203467
2025/04/11 11:51:34.648775367,1744365094,648626766,,0.700063367402258,-1.033560188499564,0.0,0.0,0.0,-0.6836093460665325
2025/04/11 11:51:34.719915419,1744365094,719740496,,0.7001270619746993,-1.0340325187160033,0.0,0.0,0.0,-0.6849369329962371
2025/04/11 11:51:34.783730690,1744365094,783502294,,0.7010578313556284,-1.033902250023175,0.0,0.0,0.0,-0.6834673172898533
2025/04/11 11:51:34.847083250,1744365094,846859363,,0.6978038145260115,-1.033696707263175,0.0,0.0,0.0,-0.6839371483687273
2025/04/11 11:51:34.961332017,1744365094,958111493,,0.6991790384538383,-1.0334650826812322,0.0,0.0,0.0,-0.683041147837514
2025/04/11 11:51:35.38900426,1744365095,38770379,,0.6990495546433557,-1.0333257482718636,0.0,0.0,0.0,-0.6823649498337261
2025/04/11 11:51:35.109353626,1744365095,107988915,,0.6976575568339101,-1.0334504651599445,0.0,0.0,0.0,-0.6830824377848614
2025/04/11 11:51:35.185608661,1744365095,185452616,,0.6979931314932024,-1.033513536380724,0.0,0.0,0.0,-0.6829226302771474
2025/04/11 11:51:35.257305425,1744365095,257157151,,0.6923054445513799,-1.0346953975663382,0.0,0.0,0.0,-0.6818766110907575
2025/04/11 11:51:35.346326443,1744365095,344481474,,-0.7294907327476565,-1.0350766161923275,0.0,0.0,0.0,0.7314544681865129
2025/04/11 11:51:35.425323570,1744365095,422933724,,-0.7279028696835823,-1.0354027605592364,0.0,0.0,0.0,0.7321604518068625
2025/04/11 11:51:35.507168872,1744365095,506966950,,-0.7310802808470029,-1.034483106198195,0.0,0.0,0.0,0.7307972559107156
2025/04/11 11:51:35.578142188,1744365095,577974377,,-0.730913004673063,-1.0367353681509712,0.0,0.0,0.0,0.7329280587365758
2025/04/11 11:51:35.648821799,1744365095,648577340,,-0.7314822864198902,-1.037093459195603,0.0,0.0,0.0,0.7331601549433913
2025/04/11 11:51:35.718713653,1744365095,718532046,,-0.7300468592226963,-1.0370151071359714,0.0,0.0,0.0,0.7335484445117402
2025/04/11 11:51:35.794833484,1744365095,794591598,,0.6987341653365426,-1.034636353359474,0.0,0.0,0.0,-0.681101135160219
2025/04/11 11:51:35.854013762,1744365095,853881977,,0.7051940480339045,-1.0349257081454653,0.0,0.0,0.0,-0.6811317150736613
2025/04/11 11:51:35.961684838,1744365095,960081829,,0.7066566926422038,-1.0338742020355767,0.0,0.0,0.0,-0.6813437359607519
2025/04/11 11:51:36.28464979,1744365096,28265020,,0.7122263126764935,-1.0324698779331811,0.0,0.0,0.0,-0.680477491856692
2025/04/11 11:51:36.96163973,1744365096,95987035,,0.7091827769453796,-1.0308757896475527,0.0,0.0,0.0,-0.6799835825741525
2025/04/11 11:51:36.171039368,1744365096,170829862,,0.7071892966488893,-1.0258001421483414,0.0,0.0,0.0,-0.6817881234497918
2025/04/11 11:51:36.241192528,1744365096,239575008,,0.7070120063479638,-1.0176545166389133,0.0,0.0,0.0,-0.6836399918939264
2025/04/11 11:51:36.325345996,1744365096,313150813,,0.7070068750686159,-1.0075750971764137,0.0,0.0,0.0,-0.6900288600068052
2025/04/11 11:51:36.394253507,1744365096,394065206,,0.7072273545273203,-0.9593213498476416,0.0,0.0,0.0,-0.6967281449349656
2025/04/11 11:51:36.489572047,1744365096,488861634,,0.7245527146268991,-0.8936996049446293,0.0,0.0,0.0,-0.7106639804466468
2025/04/11 11:51:36.568290695,1744365096,563986918,,0.74333424831012,-0.77582965769966,0.0,0.0,0.0,-0.7162974971141125
2025/04/11 11:51:36.640785891,1744365096,640636939,,0.7340855222945919,-0.7072093735001415,0.0,0.0,0.0,-0.7163628916957379
2025/04/11 11:51:36.705005604,1744365096,701011546,,-0.0030870586123104005,9.596124861716731e-08,0.0,0.0,0.0,-0.009873911561712134
2025/04/11 11:51:36.780130152,1744365096,780002926,,8.881784197001252e-16,6.697169945349413e-12,0.0,0.0,0.0,-0.009769162104191764
2025/04/11 11:51:36.842619167,1744365096,842508739,,2.311040248059726e-12,-1.1896584978390119e-09,0.0,0.0,0.0,-0.0965875447708271
2025/04/11 11:51:36.911712909,1744365096,911553316,,7.105427357601002e-15,-1.4146686497614651e-12,0.0,0.0,0.0,-0.015715204925328408
2025/04/11 11:51:37.31180387,1744365097,31021492,,5.329070518200751e-15,-1.4668848817914193e-14,0.0,0.0,0.0,-0.012960527355389218
2025/04/11 11:51:37.104238350,1744365097,104075283,,-1.7763568394002505e-15,4.803449304979779e-15,0.0,0.0,0.0,-0.013492421398154875
2025/04/11 11:51:37.363738943,1744365097,363495849,,1.2665424264923786e-12,-1.011982164733638e-12,0.0,0.0,0.0,-26.29418988659438
2025/04/11 11:51:37.447046585,1744365097,446598643,,3.552713678800501e-15,-9.638638628559071e-15,0.0,0.0,0.0,-0.0188113628279325
2025/04/11 11:51:37.525160737,1744365097,524703315,,-5.329070518200751e-15,2.1000847003245504e-14,0.0,0.0,0.0,-0.018279469757004563
2025/04/11 11:51:37.598962526,1744365097,598733294,,-5.329070518200751e-15,-5.3753930560201946e-15,0.0,0.0,0.0,-0.017747574729241933
2025/04/11 11:51:37.672214052,1744365097,670071130,,3.552713678800501e-15,-1.3991778113724151e-14,0.0,0.0,0.0,-0.016683786642289533
2025/04/11 11:51:37.743803416,1744365097,743562890,,-1.7763568394002505e-15,-6.6934847421651344e-15,0.0,0.0,0.0,-0.016683786638168385
2025/04/11 11:51:37.809686492,1744365097,809493575,,5.329070518200751e-15,-7.552647201224116e-15,0.0,0.0,0.0,-0.017747574723330217
2025/04/11 11:51:37.876149490,1744365097,875976227,,5.329070518200751e-15,-7.840177617367272e-15,0.0,0.0,0.0,-0.015619998556331893
2025/04/11 11:51:37.948289189,1744365097,948031884,,1.7763568394002505e-15,-4.290526809704043e-15,0.0,0.0,0.0,-0.006045903308830702
2025/04/11 11:51:38.26616344,1744365098,26472993,,-1.3073986337985843e-12,1.763745047364193e-12,0.0,0.0,0.0,-6.061530968506119
2025/04/11 11:51:38.92641625,1744365098,92408716,,-1.7763568394002505e-15,-3.947200639259352e-15,0.0,0.0,0.0,-0.006577797365025617
2025/04/11 11:51:38.207239769,1744365098,206412046,,-0.0,3.52613717304745e-15,0.0,0.0,0.0,-0.006577797356527526
2025/04/11 11:51:38.335020951,1744365098,328753896,,1.3447021274259896e-12,6.197076678855426e-13,0.0,0.0,0.0,-11.470918130190185
2025/04/11 11:51:38.410927309,1744365098,410764998,,-1.7763568394002505e-15,-2.3676535992195324e-15,0.0,0.0,0.0,-0.010301057148865311
2025/04/11 11:51:38.483820300,1744365098,483570074,,3.552713678800501e-15,2.8600982259624486e-15,0.0,0.0,0.0,-0.010301057141333558
2025/04/11 11:51:38.558718029,1744365098,558505547,,-8.881784197001252e-16,1.1257813258003235e-15,0.0,0.0,0.0,-0.002854538251163774
2025/04/11 11:51:38.625438218,1744365098,622760938,,-2.220446049250313e-16,0.0,0.0,0.0,0.0,0.0
2025/04/11 11:51:38.696100967,1744365098,695937503,,-2.220446049250313e-16,0.0,0.0,0.0,0.0,0.0
2025/04/11 11:51:38.945103580,1744365098,944941503,,-1.0045297926808416e-12,-1.2200310206544884e-13,0.0,0.0,0.0,-37.98437254288703
2025/04/11 11:51:39.190751610,1744365099,190619364,,1.3571366253017914e-12,1.5707504741335754e-12,0.0,0.0,0.0,-22.874359050466126
2025/04/11 11:51:39.261992917,1744365099,261803676,,-2.220446049250313e-16,0.0,0.0,0.0,0.0,0.0
2025/04/11 11:51:39.524390156,1744365099,519880151,,-1.7935306018124209e-13,1.1723955140041653e-13,0.0,0.0,0.0,18.04839725064481
2025/04/11 11:51:39.593597523,1744365099,593445661,,1.8398477186210016e-13,-1.0878409284487134e-11,0.0,0.0,0.0,123.47615106324434
2025/04/11 11:51:39.674265626,1744365099,671577504,,-5.488942633746774e-13,1.8669510382096632e-11,0.0,0.0,0.0,132.9982373400107
2025/04/11 11:51:39.775092670,1744365099,774913155,,-4.278959131465143e-12,9.274714329876588e-11,0.0,0.0,0.0,140.9767266700582
2025/04/11 11:51:39.843866760,1744365099,843675331,,-6.65098531804631e-12,2.490949668754183e-10,0.0,0.0,0.0,150.8014163713081
2025/04/11 11:51:39.923955568,1744365099,918413118,,-3.80261794274972e-11,5.242171141617291e-10,0.0,0.0,0.0,153.2674830230318
2025/04/11 11:51:40.1891551,1744365100,1068309,,-4.808574372017205e-11,1.0620553325679793e-09,0.0,0.0,0.0,153.6214286908212
2025/04/11 11:51:40.68907821,1744365100,68736951,,-5.438124950352119e-11,2.149391775674303e-09,0.0,0.0,0.0,164.64210526896483
2025/04/11 11:51:40.144706377,1744365100,144562446,,-4.464119351954565e-11,4.246352602876868e-09,0.0,0.0,0.0,183.84851022643065
2025/04/11 11:51:40.209084330,1744365100,208516557,,-4.015548657476664e-11,8.937433904065983e-09,0.0,0.0,0.0,196.33731166710834
2025/04/11 11:51:40.291519608,1744365100,291332473,,-1.1343857797552204e-10,1.8146359082038543e-08,0.0,0.0,0.0,200.2758791251622
2025/04/11 11:51:40.373868316,1744365100,373718406,,-1.3571647972110412e-10,3.164154094292826e-08,0.0,0.0,0.0,186.1348695593781
2025/04/11 11:51:40.457472757,1744365100,457323965,,-1.9177980037365927e-10,6.492088289178355e-08,0.0,0.0,0.0,176.70869650484195
2025/04/11 11:51:40.519718787,1744365100,519582108,,-1.8392655454224638e-10,1.2340882449279889e-07,0.0,0.0,0.0,158.35189424270453
2025/04/11 11:51:40.587234032,1744365100,586999971,,-1.2855227993213703e-10,2.3101567592220817e-07,0.0,0.0,0.0,141.0989865263665
2025/04/11 11:51:40.651022328,1744365100,650775897,,1.43494917337339e-09,4.0124047018252895e-07,0.0,0.0,0.0,118.58377605210859
2025/04/11 11:51:40.740066012,1744365100,739781229,,1.1746256328715177e-09,6.796117872909235e-07,0.0,0.0,0.0,101.56178450384817
2025/04/11 11:51:40.808738558,1744365100,808570438,,8.610219204285841e-10,1.085775423348423e-06,0.0,0.0,0.0,78.44342021785184
2025/04/11 11:51:40.862822253,1744365100,862570759,,2.663006898329101e-10,1.3996176591035692e-06,0.0,0.0,0.0,60.21479788954946
2025/04/11 11:51:41.74652834,1744365101,74499334,,5.922595179043422e-10,1.031423010999788e-06,0.0,0.0,0.0,45.798267892230115
2025/04/11 11:51:41.144463341,1744365101,144302347,,-0.005704989728437582,5.43096234650875e-09,0.0,0.0,0.0,0.11415881829572072
2025/04/11 11:51:41.199893173,1744365101,198832339,,-0.005705077700048022,1.9551009700080613e-09,0.0,0.0,0.0,0.10437849590397263
2025/04/11 11:51:41.278088997,1744365101,277955938,,-0.005704995431443649,9.254961241822457e-10,0.0,0.0,0.0,0.09665610329250285
2025/04/11 11:51:41.346468599,1744365101,346279354,,-0.00570499183842621,3.6911274037265684e-10,0.0,0.0,0.0,0.08557134250486342
2025/04/11 11:51:41.426043713,1744365101,425851857,,-0.005704955820579727,1.9632295789051568e-10,0.0,0.0,0.0,0.07597849594435502
2025/04/11 11:51:41.491378944,1744365101,491039342,,-0.007143461454051092,7.051426109683234e-11,0.0,0.0,0.0,0.06480228730032422
2025/04/11 11:51:41.555119437,1744365101,554970086,,-0.008581930707606489,3.03839214979007e-05,0.0,0.0,0.0,0.06455219578140259
2025/04/11 11:51:41.614888449,1744365101,614678038,,-0.015809007154182098,4.949318653757473e-05,0.0,0.0,0.0,0.06500456828825918
2025/04/11 11:51:41.678321226,1744365101,677403041,,-0.021759610369549875,0.00020328227975596747,0.0,0.0,0.0,0.06533845336241484
2025/04/11 11:51:41.770298864,1744365101,770108579,,-0.027465072159010617,0.00027185546474584044,0.0,0.0,0.0,0.06562600572829069
2025/04/11 11:51:41.827638031,1744365101,827490126,,-0.02225863020289154,0.00027499983458767474,0.0,0.0,0.0,0.0645516050722108
2025/04/11 11:51:41.882416589,1744365101,882233180,,-0.02516953169774183,0.0002751384658239431,0.0,0.0,0.0,0.06456161788003101
2025/04/11 11:51:41.942769940,1744365101,942602297,,-0.03138201138904151,0.00027466167723844137,0.0,0.0,0.0,0.06494506221093843
2025/04/11 11:51:42.25761959,1744365102,25581685,,-0.029462216860736135,0.0002749220625730686,0.0,0.0,0.0,0.0645515560563581
2025/04/11 11:51:42.83234537,1744365102,82924001,,-0.03161991896703853,0.0002747917416314749,0.0,0.0,0.0,0.06455199280770785
2025/04/11 11:51:42.147712023,1744365102,147578541,,-0.033058386953371155,0.00027459998959500354,0.0,0.0,0.0,0.06455194051164881
2025/04/11 11:51:42.213423241,1744365102,213027024,,-0.03305838317946552,0.0002787079984329921,0.0,0.0,0.0,0.06454519999493868
2025/04/11 11:51:42.279145311,1744365102,278747731,,-0.03593532223166562,0.0002772053986461742,0.0,0.0,0.0,0.06454806479683839
2025/04/11 11:51:42.353143943,1744365102,351453914,,-0.03881228606519471,0.00027489788375589796,0.0,0.0,0.0,0.06455195618866583
2025/04/11 11:51:42.435721939,1744365102,435463487,,-0.04026198525289715,0.000275056604309043,0.0,0.0,0.0,0.06455117501292307
2025/04/11 11:51:42.514857419,1744365102,514662862,,-0.04241962784369946,0.0002742791749881235,0.0,0.0,0.0,0.06455167948240614
2025/04/11 11:51:42.582905265,1744365102,582665805,,-0.04457729285573464,0.00027533747494601357,0.0,0.0,0.0,0.06455278038453116
2025/04/11 11:51:42.649109201,1744365102,648911215,,-0.04601580784620296,0.00027502351116481805,0.0,0.0,0.0,0.06455165534589469
2025/04/11 11:51:42.738818107,1744365102,738595138,,-0.04601576245120498,0.00027507919925540136,0.0,0.0,0.0,0.06455415924824592
2025/04/11 11:51:42.800668649,1744365102,800344934,,-0.04457730652826797,0.0002750323075701999,0.0,0.0,0.0,0.06455194302412792
2025/04/11 11:51:42.851773313,1744365102,851528239,,-0.0445773103020457,0.0002750248481646622,0.0,0.0,0.0,0.06455189880495027
2025/04/11 11:51:42.914608638,1744365102,914385083,,-0.04457729156840173,0.0002749499642789033,0.0,0.0,0.0,0.06455319692241801
2025/04/11 11:51:42.976276217,1744365102,976092988,,-0.04457731465909376,0.0002750164985485526,0.0,0.0,0.0,0.0645518422319924
2025/04/11 11:51:43.41165729,1744365103,40999819,,-0.046015780253057414,0.00027502881039254135,0.0,0.0,0.0,0.0645519435062738
2025/04/11 11:51:43.112299038,1744365103,112050252,,-0.04601576844605404,0.0002749872956684385,0.0,0.0,0.0,0.06455448417182197
2025/04/11 11:51:43.168636680,1744365103,168443205,,-0.04745420005154699,0.0002750379231599709,0.0,0.0,0.0,0.06455339107651525
2025/04/11 11:51:43.235180027,1744365103,234748209,,-0.047454277967517555,0.0002752454926593373,0.0,0.0,0.0,0.06455128700099522
2025/04/11 11:51:43.310170147,1744365103,309927627,,-0.04673507906501584,0.0002364137343136008,0.0,0.0,0.0,0.06455212065191063
2025/04/11 11:51:43.378772252,1744365103,378583594,,-0.04817343971870969,0.0002753570821738549,0.0,0.0,0.0,0.06455405711608364
2025/04/11 11:51:43.444567270,1744365103,444401654,,-0.04961191098340123,0.0002751858266947238,0.0,0.0,0.0,0.06455157988773408
2025/04/11 11:51:43.510766735,1744365103,510527747,,-0.16687612501840476,-0.7069727152778142,0.0,0.0,0.0,1.2449178659892368
2025/04/11 11:51:43.610588629,1744365103,609952023,,-0.7637189730289293,-0.7071814655770936,0.0,0.0,0.0,0.7724738027088165
2025/04/11 11:51:43.669916319,1744365103,669632028,,-0.7627916890943283,-0.7100904073581091,0.0,0.0,0.0,0.7784298674933439
2025/04/11 11:51:43.726647124,1744365103,726385181,,-0.7658614033816633,-0.7077625269811563,0.0,0.0,0.0,0.7735100005414779
2025/04/11 11:51:43.790581315,1744365103,790169482,,-0.7655134557347196,-0.7086092931686636,0.0,0.0,0.0,0.7753107706346327
2025/04/11 11:51:43.841691188,1744365103,841491472,,-0.7649631161377926,-0.7101243440029492,0.0,0.0,0.0,0.7784810826196917
2025/04/11 11:51:43.899203700,1744365103,899037395,,-0.764733268824358,-0.7070018577243644,0.0,0.0,0.0,0.7718482155869424
2025/04/11 11:51:43.960476200,1744365103,960326499,,-0.7661069142659187,-0.706850319507339,0.0,0.0,0.0,0.7716674710907796
2025/04/11 11:51:44.27715143,1744365104,27313153,,-0.7646588740042262,-0.7070890197175999,0.0,0.0,0.0,0.7721080171891685
2025/04/11 11:51:44.95475509,1744365104,95258928,,-0.7654565857326077,-0.7087515939161477,0.0,0.0,0.0,0.7756120008854168
2025/04/11 11:51:44.155280024,1744365104,155072283,,-0.767603153706915,-0.7068958875917843,0.0,0.0,0.0,0.7717045476144904
2025/04/11 11:51:44.231254340,1744365104,229515864,,-0.7735168919336388,-0.7069754300873399,0.0,0.0,0.0,0.7721013363996576
2025/04/11 11:51:44.331000201,1744365104,330249325,,-0.7728204178300473,-0.7069000172254789,0.0,0.0,0.0,0.7706669400511146
2025/04/11 11:51:44.407258296,1744365104,407112438,,-0.7731291343514215,-0.7076082810058182,0.0,0.0,0.0,0.7716997825457952
2025/04/11 11:51:44.511468733,1744365104,511308215,,-0.7737120243911306,-0.7071852938492924,0.0,0.0,0.0,0.7716065079449095
2025/04/11 11:51:44.584109231,1744365104,583921220,,-0.7738000695869971,-0.707209567631395,0.0,0.0,0.0,0.7715798903619202
2025/04/11 11:51:44.645522287,1744365104,645216920,,-0.773777578509879,-0.7072502265741036,0.0,0.0,0.0,0.7716712619510417
2025/04/11 11:51:44.734883827,1744365104,734716881,,-0.7737745943749132,-0.7072417708110947,0.0,0.0,0.0,0.7716583887645925
2025/04/11 11:51:44.800926523,1744365104,800776620,,-0.04745432289672635,0.00026817759716379896,0.0,0.0,0.0,0.06455240996098155
2025/04/11 11:51:44.879240174,1744365104,874494534,,0.038076490530191354,0.0002746998925005073,0.0,0.0,0.0,0.06045676678985501
2025/04/11 11:51:44.943679526,1744365104,943502334,,-1.3322676295501878e-15,-5.011995592857366e-15,0.0,0.0,0.0,-0.0049821152075608666
2025/04/11 11:51:45.22647023,1744365105,22387873,,-1.7763568394002505e-15,4.3521230456283755e-16,0.0,0.0,0.0,-0.004450220677128414
2025/04/11 11:51:45.95878580,1744365105,95529073,,-2.220446049250313e-16,0.0,0.0,0.0,0.0,0.0
2025/04/11 11:51:45.361299874,1744365105,360406575,,-5.169198402654729e-13,1.6861980561833079e-12,0.0,0.0,0.0,-21.60109040868256
2025/04/11 11:51:45.441413501,1744365105,441123944,,7.105427357601002e-14,7.020065084795135e-12,0.0,0.0,0.0,-63.9252751950078
2025/04/11 11:51:45.685451667,1744365105,683421398,,7.709388682997087e-13,3.9654703132274705e-12,0.0,0.0,0.0,-42.912667923073656
2025/04/11 11:51:45.750346671,1744365105,750143408,,28.639496822803515,18.431639981845386,0.0,0.0,0.0,-226.61298497873054
2025/04/11 11:51:45.841910889,1744365105,841396926,,31.433615814029245,14.11056302209605,0.0,0.0,0.0,-303.48632815308054
2025/04/11 11:51:45.901118325,1744365105,900939095,,38.58212689566652,14.012399163701781,0.0,0.0,0.0,-278.98441755602784
2025/04/11 11:51:45.962322882,1744365105,962062858,,38.56623251840516,18.192336970592898,0.0,0.0,0.0,-262.8836869669291
2025/04/11 11:51:46.39193610,1744365106,38951130,,38.68946946414545,14.956754789668278,0.0,0.0,0.0,-246.38350861505694
2025/04/11 11:51:46.94013827,1744365106,93878166,,38.811496715874924,14.856320995809039,0.0,0.0,0.0,-225.69408465152185
2025/04/11 11:51:46.171561942,1744365106,171383595,,34.32125982360138,11.885023875813406,0.0,0.0,0.0,-210.7659579810096
2025/04/11 11:51:46.232761026,1744365106,232549984,,11.300263565883562,6.153556608240695,0.0,0.0,0.0,-190.34441481364723
2025/04/11 11:51:46.296908960,1744365106,296705923,,15.312733489802447,-2.608331378357355,0.0,0.0,0.0,-173.3000758000602
2025/04/11 11:51:46.379905540,1744365106,379560536,,4.112705603329275,-5.089713449671678,0.0,0.0,0.0,-156.40179306065068
2025/04/11 11:51:46.442995143,1744365106,442026256,,4.2246033644143495,-10.047671803835234,0.0,0.0,0.0,-133.96030144593317
2025/04/11 11:51:46.517673131,1744365106,517449340,,3.9950977141677697,-7.109697314357243,0.0,0.0,0.0,-117.47296145695555
2025/04/11 11:51:46.583785897,1744365106,583508169,,4.015227421481697,-6.989517574666113,0.0,0.0,0.0,-97.6338185155123
2025/04/11 11:51:46.644986841,1744365106,644763791,,4.0222977365636865,-6.919016967094542,0.0,0.0,0.0,-80.14357836603597
2025/04/11 11:51:46.810083008,1744365106,809826146,,3.9508326922542523,-6.949592323992499,0.0,0.0,0.0,-59.83804408966739
2025/04/11 11:51:46.892886401,1744365106,892705388,,3.97981203306,-6.9508283596379545,0.0,0.0,0.0,-21.094325550891256
2025/04/11 11:51:46.980407908,1744365106,980272954,,2.443416024968556,-5.614206675627346,0.0,0.0,0.0,-3.174158607757704
2025/04/11 11:51:47.42052049,1744365107,41423648,,0.0006703492199875427,-0.11097643475455334,0.0,0.0,0.0,-0.11618278079646416
2025/04/11 11:51:47.143199931,1744365107,141461171,,0.0006703490518731314,-0.08569097982318917,0.0,0.0,0.0,-0.10444826832281251
2025/04/11 11:51:47.243894885,1744365107,243753084,,0.0006703493399129457,-0.05533105595789736,0.0,0.0,0.0,-0.090358284821491
2025/04/11 11:51:47.325714684,1744365107,324899851,,0.0006703488261976531,-0.031492086943485945,0.0,0.0,0.0,-0.0792951572963716
2025/04/11 11:51:47.395872178,1744365107,394929337,,0.0006703487096473282,-0.006360918235533108,0.0,0.0,0.0,-0.06763151383859167
2025/04/11 11:51:47.460910059,1744365107,460655237,,0.0006703492213020468,5.372311945563499e-07,0.0,0.0,0.0,-0.06455219565589232
2025/04/11 11:51:47.520886849,1744365107,520625591,,0.0006703492212096762,9.606050435813894e-07,0.0,0.0,0.0,-0.06455219565327752
2025/04/11 11:51:47.586386753,1744365107,586206307,,0.0006703492212309925,1.2506086731821586e-06,0.0,0.0,0.0,-0.0645521956565176
2025/04/11 11:51:47.647094582,1744365107,646956011,,0.0006703492212167816,9.605923403708356e-07,0.0,0.0,0.0,-0.06455219565310699
2025/04/11 11:51:47.730864896,1744365107,730688231,,0.0006703492212380979,9.602232261614368e-07,0.0,0.0,0.0,-0.06455219565100379
2025/04/11 11:51:47.795201888,1744365107,795040668,,0.0028280532640607703,9.607153967043912e-07,0.0,0.0,0.0,-0.06455219565833659
2025/04/11 11:51:47.876653886,1744365107,876356722,,0.0028280532638689238,7.053153753350019e-06,0.0,0.0,0.0,-0.06455219569215842
2025/04/11 11:51:47.935193633,1744365107,935026657,,0.002828053263989716,5.1646270197223645e-06,0.0,0.0,0.0,-0.06455219567345694
2025/04/11 11:51:48.9753557,1744365108,9510353,,0.0028280532638333966,7.537781060632247e-06,0.0,0.0,0.0,-0.06455219569818382
2025/04/11 11:51:48.89887285,1744365108,83107990,,0.0028280532639612943,5.946375741580726e-06,0.0,0.0,0.0,-0.06455219568135817
2025/04/11 11:51:48.143158310,1744365108,142989302,,0.0035472878853113343,6.067919834986833e-06,0.0,0.0,0.0,-0.06455219568579196
2025/04/11 11:51:48.202239478,1744365108,201821225,,0.003547287884920536,1.0437312398515837e-05,0.0,0.0,0.0,-0.06455219570358395
2025/04/11 11:51:48.269243340,1744365108,269024517,,0.003547287884941852,1.0674736970463808e-05,0.0,0.0,0.0,-0.06455219570432291
2025/04/11 11:51:48.367375193,1744365108,366825865,,0.003547287885325545,5.450013716167088e-06,0.0,0.0,0.0,-0.06455219567658332
2025/04/11 11:51:48.450657845,1744365108,450466914,,0.0021088186425330946,7.94435725130447e-06,0.0,0.0,0.0,-0.06455219569352266
2025/04/11 11:51:48.519042777,1744365108,518857752,,0.0021088186427107303,3.4682976130466758e-06,0.0,0.0,0.0,-0.0645521956595303
2025/04/11 11:51:48.590089097,1744365108,589911715,,0.0006703492211883599,4.7320759118373034e-06,0.0,0.0,0.0,-0.06455219567021686
2025/04/11 11:51:48.650749152,1744365108,650520841,,-7.105427357601002e-15,9.604435826007633e-07,0.0,0.0,0.0,-0.06455219565202697
2025/04/11 11:51:48.724354306,1744365108,724075517,,7.105427357601002e-15,-3.572432605812581e-15,0.0,0.0,0.0,-0.06455219565282277
2025/04/11 11:51:48.811854554,1744365108,811712300,,2.1316282072803006e-14,1.1087918777574757e-14,0.0,0.0,0.0,-0.06455219565162906
2025/04/11 11:51:48.868286112,1744365108,866629572,,-7.105427357601002e-15,1.4022799848384393e-15,0.0,0.0,0.0,-0.06455219565015113
2025/04/11 11:51:48.926294070,1744365108,925511431,,-7.105427357601002e-15,1.5340634036513368e-14,0.0,0.0,0.0,-0.06455219565418702
2025/04/11 11:51:49.38885100,1744365109,38653688,,-2.842170943040401e-14,-6.900317990610194e-14,0.0,0.0,0.0,-0.0645521956491848
2025/04/11 11:51:49.109027184,1744365109,108585712,,-7.105427357601002e-15,-5.784408325590351e-15,0.0,0.0,0.0,-0.064552195651288
2025/04/11 11:51:49.178361363,1744365109,178144880,,2.1316282072803006e-14,1.213716898252476e-14,0.0,0.0,0.0,-0.05763964165350899
2025/04/11 11:51:49.254706053,1744365109,254363681,,-7.105427357601002e-15,-2.606190274440784e-14,0.0,0.0,0.0,-0.025194093489460556
2025/04/11 11:51:49.322785134,1744365109,322591858,,3.552713678800501e-15,-8.402160260947977e-16,0.0,0.0,0.0,-0.013492421438016322
2025/04/11 11:51:49.403161231,1744365109,402841181,,-5.329070518200751e-15,-6.44990517158911e-15,0.0,0.0,0.0,-0.013492421393323184
2025/04/11 11:51:49.473843918,1744365109,473640456,,2.6645352591003757e-15,-3.993387651807234e-15,0.0,0.0,0.0,-0.0055140087674416804
2025/04/11 11:51:49.538410244,1744365109,538243094,,1.3322676295501878e-15,-3.5242669242999125e-15,0.0,0.0,0.0,-0.0039183266229230185
2025/04/11 11:51:49.781354460,1744365109,781177668,,-4.1499182562576564e-13,-1.6084911180769268e-12,0.0,0.0,0.0,23.38660675127089
2025/04/11 11:51:49.837832267,1744365109,837664068,,-80.6912183945342,8.352429858859978e-12,0.0,0.0,0.0,395.2188503897291
2025/04/11 11:51:49.938755560,1744365109,938345698,,-83.49783052989748,-4.784026709664815,0.0,0.0,0.0,378.3452217596308
2025/04/11 11:51:50.11863751,1744365110,11669499,,-89.45293224510411,-9.607590502991563,0.0,0.0,0.0,346.8116767892301
2025/04/11 11:51:50.80753346,1744365110,80631448,,-78.32481910540301,-15.588229021554191,0.0,0.0,0.0,322.7343959140045
2025/04/11 11:51:50.148266554,1744365110,148079120,,-78.42253593333479,-21.233454762533437,0.0,0.0,0.0,299.5545448587525
2025/04/11 11:51:50.204824222,1744365110,204413390,,-92.36959312130512,-26.777604535716275,0.0,0.0,0.0,275.72418682468435
2025/04/11 11:51:50.265658599,1744365110,265463763,,-86.1504452447414,-21.138548550381095,0.0,0.0,0.0,262.7477320901562
2025/04/11 11:51:50.346475267,1744365110,345487226,,-86.50825941105153,-20.49397120314834,0.0,0.0,0.0,246.17882079090978
2025/04/11 11:51:50.421960755,1744365110,421702340,,-86.5161700193515,-20.458429405113726,0.0,0.0,0.0,224.54736344564424
2025/04/11 11:51:50.496293518,1744365110,495922142,,-86.66745497801986,-20.3789284908762,0.0,0.0,0.0,204.31543352914002
2025/04/11 11:51:50.569904562,1744365110,569689767,,-87.13669736272888,-20.187895594747566,0.0,0.0,0.0,183.87471236979843
2025/04/11 11:51:50.640417530,1744365110,640258075,,-87.02606795627,-16.727996848779796,0.0,0.0,0.0,164.99937435459924
2025/04/11 11:51:50.715092513,1744365110,714421942,,-87.11462309382912,-18.483988400321465,0.0,0.0,0.0,141.91568000141848
2025/04/11 11:51:50.785893900,1744365110,785619212,,-82.41366456280977,-18.4609260924667,0.0,0.0,0.0,126.24766129978559
2025/04/11 11:51:50.887993880,1744365110,887806674,,-75.86090284019622,-18.130917309353222,0.0,0.0,0.0,107.94831559771217
2025/04/11 11:51:50.960601369,1744365110,960310960,,-67.09712896269548,-21.079121827266036,0.0,0.0,0.0,83.99295603471603
2025/04/11 11:51:51.33679475,1744365111,33497400,,-56.26416231799016,-19.602155446560317,0.0,0.0,0.0,70.44860097524008
