time,header_stamp_secs,header_stamp_nsecs,header_frame_id,wrench_force_x,wrench_force_y,wrench_force_z,wrench_torque_x,wrench_torque_y,wrench_torque_z
2025/04/11 11:51:10.629503367,1744365070,629020862,,2.220446049250313e-16,-1.3247595295057257e-16,0.0,0.0,0.0,-12.906734717274299
2025/04/11 11:51:10.718425446,1744365070,718141017,,6.661338147750939e-16,1.7452944471585408e-15,0.0,0.0,0.0,-12.906734717256205
2025/04/11 11:51:10.799960115,1744365070,799546487,,0.0,3.5561831257524545e-17,0.0,0.0,0.0,-12.906734717275532
2025/04/11 11:51:10.889299883,1744365070,888591053,,-6.661338147750939e-16,-9.884806731821905e-16,0.0,0.0,0.0,-12.906734717274281
2025/04/11 11:51:10.986650106,1744365070,986406159,,-1.1102230246251565e-15,-6.030874584450618e-17,0.0,0.0,0.0,-12.906734717275622
2025/04/11 11:51:11.61446958,1744365071,61067336,,-2.220446049250313e-16,4.85925861180847e-16,0.0,0.0,0.0,-12.906734717276384
2025/04/11 11:51:11.143663825,1744365071,143268616,,-2.220446049250313e-16,8.911735282016164e-16,0.0,0.0,0.0,-12.906734717273235
2025/04/11 11:51:11.222471054,1744365071,222270106,,0.0,-4.923633115799797e-16,0.0,0.0,0.0,-12.906734717273432
2025/04/11 11:51:11.297805130,1744365071,296049438,,-2.220446049250313e-16,1.976974898891537e-15,0.0,0.0,0.0,-12.906734717273235
2025/04/11 11:51:11.372992370,1744365071,372702858,,-2.220446049250313e-16,-4.876605846568238e-16,0.0,0.0,0.0,-12.906734717271583
2025/04/11 11:51:11.442231650,1744365071,441835988,,2.220446049250313e-16,-5.843172083339065e-16,0.0,0.0,0.0,-12.906734717272588
2025/04/11 11:51:11.539714636,1744365071,539449444,,-3.3306690738754696e-16,1.1102230246251565e-16,0.0,0.0,0.0,-2.3066577465733538
2025/04/11 11:51:11.618811886,1744365071,618569738,,1.1102230246251565e-16,5.551115123125783e-16,0.0,0.0,0.0,-2.3066513611273614
2025/04/11 11:51:11.730820513,1744365071,730556524,,4.440892098500626e-16,2.76349581239399e-16,0.0,0.0,0.0,-8.779237741625534
2025/04/11 11:51:11.800153738,1744365071,799877465,,-2.220446049250313e-16,-7.518535490372291e-16,0.0,0.0,0.0,-8.779237741623685
2025/04/11 11:51:11.869613851,1744365071,869304472,,2.220446049250313e-16,2.397713104451693e-16,0.0,0.0,0.0,-8.779237741620978
2025/04/11 11:51:11.941652662,1744365071,941134046,,4.440892098500626e-16,1.1102230246251565e-16,0.0,0.0,0.0,-2.3066497576395975
2025/04/11 11:51:12.18322450,1744365072,18017273,,0.0,-4.457155131087909e-16,0.0,0.0,0.0,-8.779237741634276
2025/04/11 11:51:12.94462330,1744365072,92710698,,-8.881784197001252e-16,3.7960628564148724e-16,0.0,0.0,0.0,-8.779237741617571
2025/04/11 11:51:12.168822072,1744365072,168110139,,6.661338147750939e-16,5.551115123125783e-16,0.0,0.0,0.0,-2.3066501417223675
2025/04/11 11:51:12.250885173,1744365072,250603891,,0.0,4.3599835113788954e-16,0.0,0.0,0.0,-8.779237741629455
2025/04/11 11:51:12.317414192,1744365072,317135683,,3.3306690738754696e-16,-3.3306690738754696e-16,0.0,0.0,0.0,-2.306651557719544
2025/04/11 11:51:12.409304191,1744365072,408764922,,8.881784197001252e-16,5.551115123125783e-16,0.0,0.0,0.0,-2.3066418160535433
2025/04/11 11:51:12.473299000,1744365072,473049593,,4.440892098500626e-16,-1.1102230246251565e-16,0.0,0.0,0.0,-2.306650033471647
2025/04/11 11:51:12.549015132,1744365072,548670806,,-2.220446049250313e-16,1.1315140447873406e-15,0.0,0.0,0.0,-8.779237741646025
2025/04/11 11:51:12.619816976,1744365072,619598852,,-4.440892098500626e-16,2.1033522146218786e-16,0.0,0.0,0.0,-8.779237741618212
2025/04/11 11:51:12.795642968,1744365072,792412708,,-7.016609515630989e-14,-8.859145242488126e-13,0.0,0.0,0.0,-27.285135269502923
2025/04/11 11:51:12.857601099,1744365072,857376314,,0.0,-2.9067460244336374e-16,0.0,0.0,0.0,-8.779237741662804
2025/04/11 11:51:12.917597637,1744365072,917322495,,-8.881784197001252e-16,8.494859546695488e-16,0.0,0.0,0.0,-8.779237741624755
2025/04/11 11:51:12.998260282,1744365072,994029864,,5.679884286962125,0.14565243678963943,0.0,0.0,0.0,-0.26217662164033606
2025/04/11 11:51:13.65744287,1744365073,65508380,,2.802949034349166,4.363304862057625e-17,0.0,0.0,0.0,0.0
2025/04/11 11:51:13.318601901,1744365073,318320073,,10.598643487970978,8.9116507753298,0.0,0.0,0.0,-1.6976046674373313
2025/04/11 11:51:13.401937954,1744365073,401715609,,38.68466457975411,35.778869193086415,0.0,0.0,0.0,-3.2188478705267007
2025/04/11 11:51:13.469214697,1744365073,468573035,,58.014678770694246,53.24059258353796,0.0,0.0,0.0,-3.6731470854610055
2025/04/11 11:51:13.540796790,1744365073,540592641,,76.3996652528002,72.88676155313988,0.0,0.0,0.0,-15.436002896235866
2025/04/11 11:51:13.611401301,1744365073,610904893,,98.78389583585272,84.54658844941814,0.0,0.0,0.0,-13.373617300696111
2025/04/11 11:51:13.679832986,1744365073,678840376,,127.83773572723483,107.02887050116206,0.0,0.0,0.0,-6.062669744784621
2025/04/11 11:51:13.747696601,1744365073,742842423,,154.52128523907768,115.64859410979354,0.0,0.0,0.0,-2.5620672530022546
2025/04/11 11:51:13.804364777,1744365073,804108158,,186.9347924398236,126.57867188340182,0.0,0.0,0.0,0.012801032342977692
2025/04/11 11:51:13.878154451,1744365073,877881284,,214.29399725029887,128.768575935363,0.0,0.0,0.0,-0.5392542946020171
2025/04/11 11:51:13.986431921,1744365073,986199967,,245.91746358529466,137.48989208376054,0.0,0.0,0.0,-0.39404323031571664
2025/04/11 11:51:14.61869251,1744365074,61623938,,281.98233676164796,140.2348700843766,0.0,0.0,0.0,-0.49094365814909224
2025/04/11 11:51:14.132949292,1744365074,132708083,,314.95390270001684,154.61421424580422,0.0,0.0,0.0,-0.6387156089140547
2025/04/11 11:51:14.198230350,1744365074,196755875,,350.0826129486919,154.7037829604753,0.0,0.0,0.0,-0.49750888954136485
2025/04/11 11:51:14.273384949,1744365074,273129863,,384.2747104252298,154.6713859449703,0.0,0.0,0.0,-0.5739689840578137
2025/04/11 11:51:14.356991924,1744365074,356685621,,419.4642296800891,154.6617700095525,0.0,0.0,0.0,-0.588925456721455
2025/04/11 11:51:14.470622661,1744365074,470288429,,455.1967752440783,157.56147767325265,0.0,0.0,0.0,-0.5952640791675208
2025/04/11 11:51:14.698139471,1744365074,697833209,,494.36133825689,160.43843892364237,0.0,0.0,0.0,-0.6265105333158658
2025/04/11 11:51:14.848183993,1744365074,842457422,,544.7759078883499,164.28397979650052,0.0,0.0,0.0,0.5161159236943149
2025/04/11 11:51:14.915861795,1744365074,915611729,,567.7029820244273,171.94615444065576,0.0,0.0,0.0,-0.6605611705141428
2025/04/11 11:51:14.982278644,1744365074,981983448,,569.1455563950238,167.63138783336854,0.0,0.0,0.0,-0.6606680013865684
2025/04/11 11:51:15.53361456,1744365075,53017847,,569.1492180287864,167.63086127761474,0.0,0.0,0.0,-0.6621069477012043
2025/04/11 11:51:15.112184314,1744365075,111920330,,569.1533677795207,167.63089781407476,0.0,0.0,0.0,-0.6629099096941218
2025/04/11 11:51:15.245346619,1744365075,244516075,,569.1582858649655,167.6308971435479,0.0,0.0,0.0,-0.6639375797980733
2025/04/11 11:51:15.322838363,1744365075,322571464,,569.1648662086965,167.63024817765603,0.0,0.0,0.0,-0.6664687317555149
2025/04/11 11:51:15.398448973,1744365075,398074690,,566.2939447399581,167.630588939574,0.0,0.0,0.0,-0.6668835008311476
2025/04/11 11:51:15.475418253,1744365075,475162253,,563.4236677706066,167.63083347031457,0.0,0.0,0.0,-0.667971284152685
2025/04/11 11:51:15.550443602,1744365075,550038017,,552.1063056070706,167.22639468330743,0.0,0.0,0.0,-0.8945244302751689
2025/04/11 11:51:15.612365938,1744365075,612015504,,551.9312624248452,167.63090032692446,0.0,0.0,0.0,-0.6709560828689121
2025/04/11 11:51:15.718200354,1744365075,717945173,,551.9372145074395,167.63070963951319,0.0,0.0,0.0,-0.6725656084375373
2025/04/11 11:51:15.783578631,1744365075,783263512,,549.0665120238455,167.63087054189137,0.0,0.0,0.0,-0.6738380399734751
2025/04/11 11:51:15.855645906,1744365075,855432271,,537.6991372284724,167.28431083267316,0.0,0.0,0.0,-0.8677767188931398
2025/04/11 11:51:15.916747830,1744365075,916445105,,513.2228090769119,167.30586397457085,0.0,0.0,0.0,-0.8580650309758084
2025/04/11 11:51:15.994879496,1744365075,994040813,,474.33914425147805,163.02192644665098,0.0,0.0,0.0,-0.8434598872004244
2025/04/11 11:51:16.71840347,1744365076,71506285,,412.44034325804205,140.07535463386662,0.0,0.0,0.0,-0.8034853756714284
2025/04/11 11:51:16.150318557,1744365076,149850382,,284.2814010911329,102.79088263119839,0.0,0.0,0.0,-0.7368886848472442
2025/04/11 11:51:16.269820680,1744365076,268543904,,124.45371511023119,48.126002578756754,0.0,0.0,0.0,-0.7060326432236581
2025/04/11 11:51:16.357158700,1744365076,356926375,,2.220446049250313e-16,0.0,0.0,0.0,0.0,0.0
2025/04/11 11:51:16.428425161,1744365076,428152871,,2.220446049250313e-16,0.0,0.0,0.0,0.0,0.0
2025/04/11 11:51:16.501895429,1744365076,501665811,,2.220446049250313e-16,0.0,0.0,0.0,0.0,0.0
2025/04/11 11:51:16.583967788,1744365076,583744970,,3.3306690738754696e-16,7.771561172376096e-16,0.0,0.0,0.0,-2.306652145321542
2025/04/11 11:51:16.664122211,1744365076,663796650,,2.220446049250313e-16,0.0,0.0,0.0,0.0,0.0
2025/04/11 11:51:16.739662061,1744365076,739447533,,2.220446049250313e-16,-7.628446485608009e-16,0.0,0.0,0.0,-8.779237741625442
2025/04/11 11:51:17.1657155,1744365076,996026946,,-1.8918200339612667e-13,1.9153515579128921e-13,0.0,0.0,0.0,-28.528629419349013
2025/04/11 11:51:17.77903827,1744365077,70884705,,1.3322676295501878e-15,-4.8341051214068065e-15,0.0,0.0,0.0,-37.67172610621964
2025/04/11 11:51:17.157229484,1744365077,157005297,,-1.7763568394002505e-15,1.8152119347566997e-15,0.0,0.0,0.0,-37.671726106218365
2025/04/11 11:51:17.239973046,1744365077,239711801,,2.220446049250313e-15,5.145759035887765e-16,0.0,0.0,0.0,-37.671726106217164
2025/04/11 11:51:17.335825805,1744365077,335481249,,0.0,2.239907478246428e-15,0.0,0.0,0.0,-33.54422531643101
2025/04/11 11:51:17.416355413,1744365077,415714705,,-8.881784197001252e-16,1.607248405546824e-15,0.0,0.0,0.0,-37.67172610621743
2025/04/11 11:51:17.540121524,1744365077,539912439,,8.881784197001252e-16,-2.6680860212152657e-15,0.0,0.0,0.0,-37.67172610621781
2025/04/11 11:51:17.612906429,1744365077,612605803,,8.881784197001252e-16,-5.708974959439672e-15,0.0,0.0,0.0,-37.67172610621379
2025/04/11 11:51:17.675616338,1744365077,675361649,,-3.1086244689504383e-15,8.89316831981235e-16,0.0,0.0,0.0,-37.6717261062186
2025/04/11 11:51:17.747833067,1744365077,747189153,,4.440892098500626e-16,-2.5135872116360813e-16,0.0,0.0,0.0,-33.5442253164327
2025/04/11 11:51:17.816227053,1744365077,815825770,,8.881784197001252e-16,2.581485372687986e-16,0.0,0.0,0.0,-29.416728340854025
2025/04/11 11:51:17.874021651,1744365077,873785209,,-8.881784197001252e-16,1.7007608429236987e-15,0.0,0.0,0.0,-21.16173248261994
2025/04/11 11:51:17.951788700,1744365077,945782164,,1.3322676295501878e-15,1.0700126765531004e-15,0.0,0.0,0.0,-21.161732482616895
2025/04/11 11:51:18.23283619,1744365078,22960151,,6.661338147750939e-16,3.1149806041866346e-15,0.0,0.0,0.0,-17.034233599941327
2025/04/11 11:51:18.105326445,1744365078,102806361,,-2.220446049250313e-16,7.527209107752175e-16,0.0,0.0,0.0,-8.779237741625959
2025/04/11 11:51:18.173398470,1744365078,172173723,,-8.881784197001252e-16,3.032513476441956e-15,0.0,0.0,0.0,-21.16173248261667
2025/04/11 11:51:18.253261266,1744365078,252552521,,3.810285420513537e-13,8.293575753188977e-13,0.0,0.0,0.0,-39.207242877942534
2025/04/11 11:51:18.326278770,1744365078,326076568,,4.440892098500626e-16,3.216312849732561e-15,0.0,0.0,0.0,-37.671726106216425
2025/04/11 11:51:18.413603920,1744365078,410588531,,-1.7763568394002505e-15,6.774772800047235e-16,0.0,0.0,0.0,-50.05421703296999
2025/04/11 11:51:18.541718120,1744365078,541431336,,2.6645352591003757e-15,-8.172783738831513e-15,0.0,0.0,0.0,-54.181714008547814
2025/04/11 11:51:18.625592785,1744365078,625138523,,-8.881784197001252e-16,8.102378360255735e-16,0.0,0.0,0.0,-70.6917057250935
2025/04/11 11:51:18.736788322,1744365078,736391466,,-1.0054179711005418e-12,-1.4272709736632382e-12,0.0,0.0,0.0,-92.4347162830193
2025/04/11 11:51:18.988960398,1744365078,988549128,,-21.867530152464237,-0.7403356574464524,0.0,0.0,0.0,-102.899362939512
2025/04/11 11:51:19.72421083,1744365079,72073649,,-69.06926870353482,-1.2657325323947375,0.0,0.0,0.0,-132.37567428886877
2025/04/11 11:51:19.150889873,1744365079,148433743,,-97.08144329847023,-8.076114758319939,0.0,0.0,0.0,-148.74589172046655
2025/04/11 11:51:19.241794969,1744365079,241414156,,-124.71207715262871,-9.967691333848293,0.0,0.0,0.0,-151.81864706115076
2025/04/11 11:51:19.337716753,1744365079,337474755,,-148.66244385783597,-8.434571536053548,0.0,0.0,0.0,-149.00754015351208
2025/04/11 11:51:19.429192486,1744365079,428882655,,-177.56827672955754,-9.916507632159256,0.0,0.0,0.0,-151.84491621266486
2025/04/11 11:51:19.516897574,1744365079,516555840,,-199.36450313407911,-6.514480943691007,0.0,0.0,0.0,-150.12509367855023
2025/04/11 11:51:19.602014246,1744365079,601625320,,-222.16544238971338,-6.702889488606525,0.0,0.0,0.0,-154.3741571977932
2025/04/11 11:51:19.697467621,1744365079,694877332,,-245.18203611605188,-7.168716728543098,0.0,0.0,0.0,-157.80815353953497
2025/04/11 11:51:19.777091060,1744365079,775214670,,-269.4471116766323,-5.532014708388951,0.0,0.0,0.0,-158.73852046086296
2025/04/11 11:51:19.858291064,1744365079,858029201,,-291.9411432363467,-4.737839697351143,0.0,0.0,0.0,-159.11053266804032
2025/04/11 11:51:19.978529156,1744365079,978104787,,-314.65202321921424,-3.72018446903335,0.0,0.0,0.0,-159.68823034475423
2025/04/11 11:51:20.61170203,1744365080,56403714,,-340.8517586981693,-0.5722243386577843,0.0,0.0,0.0,-161.8982056059249
2025/04/11 11:51:20.148205233,1744365080,146410719,,-362.6394072242251,-1.322109337559405,0.0,0.0,0.0,-165.18033460051606
2025/04/11 11:51:20.225666297,1744365080,225138830,,-385.9597095023817,-0.19006707400706935,0.0,0.0,0.0,-166.07272904630224
2025/04/11 11:51:20.317921205,1744365080,317596128,,-408.22201793756403,-0.7072327404428846,0.0,0.0,0.0,-160.8791233471809
2025/04/11 11:51:20.431468872,1744365080,431158776,,-431.4401202786771,-0.584579582231322,0.0,0.0,0.0,-156.99015687359122
2025/04/11 11:51:20.664730705,1744365080,664474899,,-456.32280167733217,-0.7071261111007714,0.0,0.0,0.0,-156.6274121075145
2025/04/11 11:51:20.730143007,1744365080,729928620,,-489.98650643069135,-0.7071944202157652,0.0,0.0,0.0,-160.7534303072835
2025/04/11 11:51:20.804337064,1744365080,803714178,,-484.24014866881487,-0.7072589923309862,0.0,0.0,0.0,-160.75468106538744
2025/04/11 11:51:20.880901357,1744365080,880613174,,-481.3696446387955,-0.7071761832986367,0.0,0.0,0.0,-156.62888887747857
2025/04/11 11:51:20.958265099,1744365080,956940919,,-481.3734730757459,-0.7070876139143478,0.0,0.0,0.0,-160.75761153810572
2025/04/11 11:51:21.35367218,1744365081,34975251,,-481.3787477344274,-0.707325750226866,0.0,0.0,0.0,-160.75756697114076
2025/04/11 11:51:21.110432861,1744365081,110235990,,-482.82047812786493,-0.7071554382795369,0.0,0.0,0.0,-160.75905014891686
2025/04/11 11:51:21.222460824,1744365081,222057499,,-488.57536513347355,-0.7073175100326039,0.0,0.0,0.0,-164.88599899145163
2025/04/11 11:51:21.303710087,1744365081,302413513,,-491.45772536201935,-0.7072866055700415,0.0,0.0,0.0,-160.75976372288198
2025/04/11 11:51:21.381500432,1744365081,380170107,,-500.110425206538,-0.7071913444053108,0.0,0.0,0.0,-160.76007672428702
2025/04/11 11:51:21.459877914,1744365081,459663213,,-502.9897939485574,-0.7072298840349815,0.0,0.0,0.0,-164.88793170772854
2025/04/11 11:51:21.533870525,1744365081,533404341,,-502.99484712750575,-0.7071463263446929,0.0,0.0,0.0,-160.76183751616728
2025/04/11 11:51:21.614393392,1744365081,614100004,,-511.62500413406417,-0.7071599241067559,0.0,0.0,0.0,-160.76162507395412
2025/04/11 11:51:21.687066392,1744365081,686335147,,-511.63010773930546,-0.7072758855768995,0.0,0.0,0.0,-160.76218178643663
2025/04/11 11:51:21.762814213,1744365081,762611639,,-511.6336180623531,-0.7071534240647508,0.0,0.0,0.0,-164.89092591201387
2025/04/11 11:51:21.823866054,1744365081,823625798,,-511.638342855896,-0.7070194182019889,0.0,0.0,0.0,-160.76498744123046
2025/04/11 11:51:21.892228320,1744365081,892029908,,-511.6418754809755,-0.7071750803391352,0.0,0.0,0.0,-164.89252590176034
2025/04/11 11:51:21.958696853,1744365081,958472125,,-503.02053217701615,-0.7072196992468007,0.0,0.0,0.0,-164.89415483796688
2025/04/11 11:51:22.41270730,1744365082,40963643,,-511.6501213794604,-0.707050571573967,0.0,0.0,0.0,-160.76729243920056
2025/04/11 11:51:22.111167981,1744365082,110878355,,-488.6306485893441,-0.7071739416379272,0.0,0.0,0.0,-164.89805743362757
2025/04/11 11:51:22.227379013,1744365082,226953610,,-380.7018963802653,-0.7071619483636495,0.0,0.0,0.0,-164.91222142493672
2025/04/11 11:51:22.287640010,1744365082,287313401,,-32.27983341778359,-0.7070494122103042,0.0,0.0,0.0,-144.2792382206434
2025/04/11 11:51:22.366079874,1744365082,365802225,,-0.007036534539389017,4.194885957491343,0.0,0.0,0.0,-95.45524340072231
2025/04/11 11:51:22.444651454,1744365082,444341865,,0.0,4.194886027202516,0.0,0.0,0.0,-29.416728337651982
2025/04/11 11:51:22.515336625,1744365082,515007134,,4.440892098500626e-16,4.194886026874583,0.0,0.0,0.0,-33.5442253159655
2025/04/11 11:51:22.582758578,1744365082,582481897,,4.440892098500626e-16,4.1948860277093605,0.0,0.0,0.0,-21.161732482008404
2025/04/11 11:51:22.653692888,1744365082,652910818,,-1.1102230246251565e-15,4.194886027764552,0.0,0.0,0.0,-17.0342335995668
2025/04/11 11:51:22.727455051,1744365082,727209799,,-0.7072067955955508,4.3386849629345114,0.0,0.0,0.0,-12.08213119837624
2025/04/11 11:51:22.793939883,1744365082,793671425,,-8.881784197001252e-16,4.194886027464912,0.0,0.0,0.0,-25.289229457815555
2025/04/11 11:51:22.862115553,1744365082,861899688,,-0.7072070797107657,3.487679566179363,0.0,0.0,0.0,-9.486443842274621
2025/04/11 11:51:22.930065317,1744365082,929829399,,-0.7072068651288299,3.4876790848339887,0.0,0.0,0.0,-9.48644488017285
2025/04/11 11:51:23.10152249,1744365083,8704531,,-0.7072067014815704,4.3386851577723835,0.0,0.0,0.0,-12.082130922898351
2025/04/11 11:51:23.80724362,1744365083,80497320,,-0.7072069947910191,3.487679265021837,0.0,0.0,0.0,-9.486444452145513
2025/04/11 11:51:23.186043562,1744365083,185675019,,-1.9984014443252818e-15,4.194886017386418,0.0,0.0,0.0,-17.03423359758084
2025/04/11 11:51:23.267534067,1744365083,266964363,,5.679536840830224e-10,4.195134362381512,0.0,0.0,0.0,-44.565006891098015
2025/04/11 11:51:23.341424305,1744365083,341130951,,4.3500492097336974e-10,4.194002827267007,0.0,0.0,0.0,-65.66582742183857
2025/04/11 11:51:23.423489847,1744365083,422812915,,-1.7763568394002505e-15,4.194886024892039,0.0,0.0,0.0,-70.69170572501216
2025/04/11 11:51:23.486050691,1744365083,485708701,,4.440892098500626e-15,4.194886024891779,0.0,0.0,0.0,-70.6917057250134
2025/04/11 11:51:23.558012200,1744365083,556360914,,0.0,4.1948860248921545,0.0,0.0,0.0,-70.6917057250115
2025/04/11 11:51:23.631566802,1744365083,631388152,,1.7763568394002505e-15,4.194886024651174,0.0,0.0,0.0,-74.81920270058531
2025/04/11 11:51:23.711470540,1744365083,711246112,,-8.881784197001252e-16,4.194886025989683,0.0,0.0,0.0,-50.0542170322849
2025/04/11 11:51:23.779238588,1744365083,779030184,,-8.881784197001252e-16,2.756417019425683,0.0,0.0,0.0,-37.67172610593052
2025/04/11 11:51:23.843562546,1744365083,843049354,,4.440892098500626e-16,2.756417019446062,0.0,0.0,0.0,-37.671726106062906
2025/04/11 11:51:23.916075000,1744365083,915905312,,1.7763568394002505e-15,2.7563730012116223,0.0,0.0,0.0,-54.1799699148647
2025/04/11 11:51:23.991678794,1744365083,991371040,,0.0,-1.0454419448191477e-16,0.0,0.0,0.0,-45.926720057378596
2025/04/11 11:51:24.235151020,1744365084,234897633,,0.01861401054899403,5.007041656290845e-12,0.0,0.0,0.0,-65.59676579828673
2025/04/11 11:51:24.365740966,1744365084,365515261,,3.744745885281926,-44.53290773890329,0.0,0.0,0.0,-56.887953472993665
2025/04/11 11:51:24.444977540,1744365084,444686064,,17.745309139821078,-69.24222508129253,0.0,0.0,0.0,-45.6184615267496
2025/04/11 11:51:24.528748886,1744365084,528533595,,29.025323656330222,-90.13415456827462,0.0,0.0,0.0,-49.371530447495545
2025/04/11 11:51:24.594250718,1744365084,593989955,,47.0831807180758,-115.4922730573596,0.0,0.0,0.0,-46.615375759733354
2025/04/11 11:51:24.669295762,1744365084,668892142,,76.64486517469963,-151.91415468506085,0.0,0.0,0.0,-18.391367756558267
2025/04/11 11:51:24.730843686,1744365084,730590336,,115.80661908781755,-177.07767971427364,0.0,0.0,0.0,-28.217037007103897
2025/04/11 11:51:24.812157607,1744365084,811921258,,147.72897962063305,-191.2367382061841,0.0,0.0,0.0,-39.60492988668281
2025/04/11 11:51:24.880415148,1744365084,880191771,,143.80729267779665,-208.15151256813107,0.0,0.0,0.0,-35.09744092669433
2025/04/11 11:51:24.954982313,1744365084,951668072,,138.5655394932038,-221.76015099193654,0.0,0.0,0.0,-27.998622095814454
2025/04/11 11:51:25.24325476,1744365085,24037575,,137.4237091733464,-228.5277626562086,0.0,0.0,0.0,-26.928392420431152
2025/04/11 11:51:25.96138407,1744365085,95834211,,132.68089794945425,-242.92779493536773,0.0,0.0,0.0,-23.500887495404015
2025/04/11 11:51:25.167138398,1744365085,166906313,,121.57882518605342,-247.6042875723108,0.0,0.0,0.0,-20.50501159613117
2025/04/11 11:51:25.250336230,1744365085,250099823,,106.68807326745996,-253.905152831336,0.0,0.0,0.0,-23.07528663976845
2025/04/11 11:51:25.334159410,1744365085,333930988,,112.82020217728866,-263.589052420066,0.0,0.0,0.0,-27.871472942992682
2025/04/11 11:51:25.450999730,1744365085,450655016,,111.41092709136271,-277.1041232138853,0.0,0.0,0.0,-32.103831659826
2025/04/11 11:51:25.520867314,1744365085,520575158,,100.53101004988294,-286.25032379784795,0.0,0.0,0.0,-32.399596691001534
2025/04/11 11:51:25.593460246,1744365085,592995129,,96.5572241832811,-296.82588650725506,0.0,0.0,0.0,-35.72633585824613
2025/04/11 11:51:25.665862858,1744365085,665623209,,93.9368952942352,-303.17419953451815,0.0,0.0,0.0,-37.05067783999351
2025/04/11 11:51:25.734808056,1744365085,734590026,,87.45594620668899,-312.98451064568826,0.0,0.0,0.0,-39.91089761640109
2025/04/11 11:51:25.796525549,1744365085,796233398,,82.93593073381119,-320.57644875982527,0.0,0.0,0.0,-36.437021355830325
2025/04/11 11:51:25.859114865,1744365085,858791925,,77.00012242182089,-329.28766484096445,0.0,0.0,0.0,-38.56695156925079
2025/04/11 11:51:25.930074800,1744365085,929570580,,77.43177595562523,-335.9658104395195,0.0,0.0,0.0,-39.77421798835164
2025/04/11 11:51:25.995187767,1744365085,994978791,,74.20144130393732,-347.0757101844095,0.0,0.0,0.0,-42.05845821264626
2025/04/11 11:51:26.70523719,1744365086,70249394,,71.81089708973853,-351.19613382309626,0.0,0.0,0.0,-44.959576746861785
2025/04/11 11:51:26.145332282,1744365086,145056664,,62.116882875239924,-358.08179630898286,0.0,0.0,0.0,-52.30277325127685
2025/04/11 11:51:26.226648628,1744365086,226411543,,60.49512541771669,-361.98305836418933,0.0,0.0,0.0,-58.38477082736924
2025/04/11 11:51:26.300370408,1744365086,299946755,,57.94958022350707,-367.0717670505945,0.0,0.0,0.0,-69.85813869887869
2025/04/11 11:51:26.433569721,1744365086,433334732,,55.23514389995859,-372.9877403764425,0.0,0.0,0.0,-77.40923602178393
2025/04/11 11:51:26.510790447,1744365086,510512258,,50.05505648161764,-384.5455167972293,0.0,0.0,0.0,-87.99122486860188
2025/04/11 11:51:26.591379051,1744365086,591111475,,46.06991003218718,-393.938033813669,0.0,0.0,0.0,-88.79205718373356
2025/04/11 11:51:26.677817913,1744365086,677612157,,42.4134439963656,-402.022145087425,0.0,0.0,0.0,-93.35255118688718
2025/04/11 11:51:26.748352590,1744365086,748065638,,38.68635303690172,-410.4484721361089,0.0,0.0,0.0,-98.51991844553771
2025/04/11 11:51:26.820030906,1744365086,819705254,,35.440077337347304,-417.50480795120126,0.0,0.0,0.0,-102.13467007725524
2025/04/11 11:51:26.895930224,1744365086,895707666,,32.92958112540359,-423.24350662345466,0.0,0.0,0.0,-109.38194252809572
2025/04/11 11:51:26.967669530,1744365086,967406114,,28.828789743471248,-432.3477641048946,0.0,0.0,0.0,-110.39508705717023
2025/04/11 11:51:27.202206554,1744365087,201978888,,26.393928927382404,-437.8563596310596,0.0,0.0,0.0,-117.53159607339762
2025/04/11 11:51:27.462455682,1744365087,462208173,,16.335806606542036,-460.43521986443056,0.0,0.0,0.0,-130.09485860703424
2025/04/11 11:51:27.666060731,1744365087,665657795,,6.129575752856994,-486.16389821129457,0.0,0.0,0.0,-142.8208827021079
2025/04/11 11:51:27.737945807,1744365087,737773986,,0.7072266661487845,-498.37204311676885,0.0,0.0,0.0,-149.61577820338894
2025/04/11 11:51:27.808089171,1744365087,805996909,,0.7069788230297434,-498.39267769757697,0.0,0.0,0.0,-149.62810557064637
2025/04/11 11:51:27.919221620,1744365087,919052140,,0.7072227988380178,-498.4142022367835,0.0,0.0,0.0,-149.63599734692326
2025/04/11 11:51:27.990869380,1744365087,990076870,,0.7070398144589092,-498.4475397367958,0.0,0.0,0.0,-149.6530377029327
2025/04/11 11:51:28.63584285,1744365088,63350266,,0.7071509701536627,-498.4758680247081,0.0,0.0,0.0,-145.53752237369986
2025/04/11 11:51:28.143912297,1744365088,142350163,,0.7074191652639854,-498.49277770904985,0.0,0.0,0.0,-149.6700870483424
2025/04/11 11:51:28.217999106,1744365088,217745432,,0.7078000924341836,-498.52352828391224,0.0,0.0,0.0,-145.5547522841626
2025/04/11 11:51:28.304288842,1744365088,300684302,,0.7073381228221933,-498.5448276805773,0.0,0.0,0.0,-145.56761191997572
2025/04/11 11:51:28.399559636,1744365088,399276419,,0.7074240839738195,-498.5758510252598,0.0,0.0,0.0,-141.45414019194135
2025/04/11 11:51:28.473340192,1744365088,472372958,,0.707206961021285,-501.5015701128498,0.0,0.0,0.0,-137.34007970029447
2025/04/11 11:51:28.548033758,1744365088,547792101,,0.7072067838993661,-501.5300309524673,0.0,0.0,0.0,-133.22554158226188
2025/04/11 11:51:28.620591948,1744365088,620383387,,0.7073758604384892,-508.7233365789542,0.0,0.0,0.0,-133.2258692489861
2025/04/11 11:51:28.701473975,1744365088,701249610,,0.707444727729353,-508.7513324833872,0.0,0.0,0.0,-129.1106927077615
2025/04/11 11:51:28.768924870,1744365088,768644473,,0.7072067808167191,-515.9459166620654,0.0,0.0,0.0,-129.11250328628608
2025/04/11 11:51:28.842771022,1744365088,842368574,,0.7076278905667976,-523.143278544648,0.0,0.0,0.0,-124.98608735505523
2025/04/11 11:51:28.957326214,1744365088,956827531,,0.7075485391262077,-530.3527367156296,0.0,0.0,0.0,-129.11127128698715
2025/04/11 11:51:29.99882471,1744365089,99694962,,4.470265362266787,-551.2443655886839,0.0,0.0,0.0,-124.39653530579619
2025/04/11 11:51:29.251576092,1744365089,251314825,,6.913952133552016,-576.8723837549392,0.0,0.0,0.0,-117.2018487815717
2025/04/11 11:51:29.518982305,1744365089,518767282,,10.93943762365187,-603.8301083250606,0.0,0.0,0.0,-112.17777785038353
2025/04/11 11:51:29.608584911,1744365089,605911824,,0.7072060005382355,-629.6068347859036,0.0,0.0,0.0,-124.94323462539673
2025/04/11 11:51:29.690976564,1744365089,690373316,,0.707350788016555,-633.9305303034589,0.0,0.0,0.0,-129.0736265533579
2025/04/11 11:51:29.764221273,1744365089,763982829,,0.7076946346184485,-632.5276886976179,0.0,0.0,0.0,-124.96145192051833
2025/04/11 11:51:29.830028797,1744365089,829749109,,0.7076141420269266,-632.5378324488635,0.0,0.0,0.0,-133.22223330942936
2025/04/11 11:51:29.901505840,1744365089,900727632,,0.7075370100503591,-632.5583686077331,0.0,0.0,0.0,-133.23144101589415
2025/04/11 11:51:29.979466836,1744365089,979183897,,0.7076678095480986,-632.5798373922482,0.0,0.0,0.0,-133.24131414603477
2025/04/11 11:51:30.52786948,1744365090,52473415,,0.7078094124212413,-632.6096066947969,0.0,0.0,0.0,-129.1274340201055
2025/04/11 11:51:30.131305254,1744365090,131048035,,0.7072065784982797,-632.6195223766656,0.0,0.0,0.0,-137.38848055717142
2025/04/11 11:51:30.202755300,1744365090,202542953,,0.7071420299332019,-632.6257586083298,0.0,0.0,0.0,-149.77405121448862
2025/04/11 11:51:30.330487742,1744365090,330281191,,0.7072068119538599,-629.7734194902691,0.0,0.0,0.0,-153.91276903338195
2025/04/11 11:51:30.414280850,1744365090,413912209,,0.7072068337305524,-628.3662185286971,0.0,0.0,0.0,-162.18229875115316
2025/04/11 11:51:30.493121117,1744365090,492882268,,0.7072067989375057,-628.3916624443821,0.0,0.0,0.0,-162.1941074648417
2025/04/11 11:51:30.566443334,1744365090,566138609,,0.7072995638340203,-625.5358529383961,0.0,0.0,0.0,-162.2036936525828
2025/04/11 11:51:30.638214488,1744365090,637944463,,0.7073128574874978,-625.5358246015203,0.0,0.0,0.0,-162.20373377097843
2025/04/11 11:51:30.713589748,1744365090,713388371,,0.7073152981543132,-625.5357142761337,0.0,0.0,0.0,-162.2039297289581
2025/04/11 11:51:30.781317486,1744365090,780946712,,0.7075716625475916,-625.5355135382783,0.0,0.0,0.0,-158.0765768295887
2025/04/11 11:51:30.851509807,1744365090,850426303,,0.7072241840443674,-625.5358861639759,0.0,0.0,0.0,-162.2036954219492
2025/04/11 11:51:30.922962211,1744365090,922756777,,0.7072895246503581,-628.4125863696435,0.0,0.0,0.0,-158.07652932268007
2025/04/11 11:51:31.5436989,1744365091,3984332,,0.7071005434708493,-628.4129622128045,0.0,0.0,0.0,-153.9485037010423
2025/04/11 11:51:31.73891925,1744365091,73648356,,0.7072098193693268,-628.4127105602101,0.0,0.0,0.0,-149.8213773935534
2025/04/11 11:51:31.148685879,1744365091,148479466,,0.7071284592639255,-628.4129870148802,0.0,0.0,0.0,-149.82094742397436
2025/04/11 11:51:31.230473632,1744365091,226386623,,0.7070752093388606,-628.4125834223715,0.0,0.0,0.0,-145.69421053823405
2025/04/11 11:51:31.301236156,1744365091,300967435,,0.7073279431688544,-628.4127126421088,0.0,0.0,0.0,-145.69377290861166
2025/04/11 11:51:31.434543920,1744365091,434233447,,0.7072160486497694,-628.4127237618607,0.0,0.0,0.0,-141.56635462737572
2025/04/11 11:51:31.513563954,1744365091,508095654,,0.7075804673604082,-628.41267184044,0.0,0.0,0.0,-149.82114517783342
2025/04/11 11:51:31.583421516,1744365091,582990620,,0.707100826880227,-628.4125621670157,0.0,0.0,0.0,-149.82173243530647
2025/04/11 11:51:31.658556415,1744365091,658268574,,0.707206762156078,-628.4126914903418,0.0,0.0,0.0,-149.8214141411558
2025/04/11 11:51:31.734285567,1744365091,734086127,,0.7071883083721833,-628.412533663347,0.0,0.0,0.0,-153.94920174188013
2025/04/11 11:51:31.801893467,1744365091,801668824,,0.7072190677021801,-628.4130267713231,0.0,0.0,0.0,-153.94829173572802
2025/04/11 11:51:31.871901345,1744365091,871670499,,0.7074082584482948,-634.1668629102221,0.0,0.0,0.0,-153.94824860723497
2025/04/11 11:51:31.944374096,1744365091,943809036,,0.7072361736832811,-634.1669226857255,0.0,0.0,0.0,-145.69328744279164
2025/04/11 11:51:32.23261819,1744365092,23058975,,0.7074856065349593,-634.166785968095,0.0,0.0,0.0,-149.82083433745487
2025/04/11 11:51:32.92235199,1744365092,92023919,,0.7072629814876503,-638.4821068682727,0.0,0.0,0.0,-145.6936678119501
2025/04/11 11:51:32.176065488,1744365092,175777578,,0.7072067957074868,-638.4820179769772,0.0,0.0,0.0,-141.56638366459208
2025/04/11 11:51:32.247550738,1744365092,247309148,,0.7072761358299289,-638.4818706393962,0.0,0.0,0.0,-145.69408109966977
2025/04/11 11:51:32.324145711,1744365092,323868698,,0.7072609280724045,-641.3814705741405,0.0,0.0,0.0,-137.43868350755525
2025/04/11 11:51:32.442110139,1744365092,441824805,,0.7072963200711584,-641.3814510181478,0.0,0.0,0.0,-133.31120039756186
2025/04/11 11:51:32.520336132,1744365092,520032715,,0.7073833990894656,-648.5742435129275,0.0,0.0,0.0,-125.05539374444776
2025/04/11 11:51:32.582775280,1744365092,582529308,,0.7074759368943937,-648.5740235712523,0.0,0.0,0.0,-108.54572506943117
2025/04/11 11:51:32.655066462,1744365092,654840250,,-1.4841923881757582,-646.7996061544527,0.0,0.0,0.0,-66.84745727549976
2025/04/11 11:51:32.896258408,1744365092,896002055,,-24.66255276866941,-636.8572151464564,0.0,0.0,0.0,-11.403855389707054
2025/04/11 11:51:33.143103813,1744365093,142898529,,-29.301740630878438,-626.430208558211,0.0,0.0,0.0,74.10662686848951
2025/04/11 11:51:33.402331913,1744365093,401932556,,-22.557849464030145,-648.0934576208169,0.0,0.0,0.0,94.39092876469928
2025/04/11 11:51:33.485749586,1744365093,485465918,,-10.678721168704751,-658.5740948017811,0.0,0.0,0.0,112.62581761545007
2025/04/11 11:51:33.558644702,1744365093,558409373,,-10.678720323890257,-658.5933010185843,0.0,0.0,0.0,116.76222626778485
2025/04/11 11:51:33.635404758,1744365093,635179268,,-12.292709993072936,-654.957254822843,0.0,0.0,0.0,143.63434974254443
2025/04/11 11:51:33.706678078,1744365093,706356536,,-10.678721595632345,-658.5979738830692,0.0,0.0,0.0,145.65687397682916
2025/04/11 11:51:33.784110840,1744365093,783880785,,-10.678721571858988,-655.7456232594345,0.0,0.0,0.0,149.795824051974
2025/04/11 11:51:33.847378605,1744365093,847040864,,-10.678786881784662,-654.3277617360973,0.0,0.0,0.0,153.93260221100633
2025/04/11 11:51:33.958431469,1744365093,958237355,,-10.67860677642123,-654.3279037001005,0.0,0.0,0.0,158.05998345258118
2025/04/11 11:51:34.36555127,1744365094,36286131,,-7.779164614015045,-654.327801789178,0.0,0.0,0.0,166.31518282149725
2025/04/11 11:51:34.107770171,1744365094,107551373,,-7.779145092620221,-654.3275767190148,0.0,0.0,0.0,174.57061169218298
2025/04/11 11:51:34.179441131,1744365094,178460470,,-7.779178918738508,-651.450551098106,0.0,0.0,0.0,182.82566088751216
2025/04/11 11:51:34.261912451,1744365094,260246389,,-9.217834651354538,-651.4505385447692,0.0,0.0,0.0,174.57053785558503
2025/04/11 11:51:34.340250095,1744365094,339904417,,-9.217880033157146,-651.4505913000121,0.0,0.0,0.0,178.69789554529802
2025/04/11 11:51:34.423372604,1744365094,423140549,,-9.21779709568448,-651.4507818716214,0.0,0.0,0.0,178.69762115616442
2025/04/11 11:51:34.499129545,1744365094,498882546,,-12.117194944711585,-651.4507280936846,0.0,0.0,0.0,174.57024126591844
2025/04/11 11:51:34.577486596,1744365094,577235559,,-12.117393705352987,-651.4509618800324,0.0,0.0,0.0,178.69714950783128
2025/04/11 11:51:34.648677163,1744365094,648428950,,-14.994129796540442,-651.4506927411879,0.0,0.0,0.0,182.8253024613009
2025/04/11 11:51:34.719818269,1744365094,719544926,,-14.994193491112883,-651.4502204109715,0.0,0.0,0.0,178.69859354920717
2025/04/11 11:51:34.783740419,1744365094,783192464,,-13.555935303279457,-651.4503506796643,0.0,0.0,0.0,186.9531816727586
2025/04/11 11:51:34.846983830,1744365094,846637303,,-19.30943711530726,-651.4505562224243,0.0,0.0,0.0,182.8256302636031
2025/04/11 11:51:34.958254928,1744365094,957983195,,-16.432434424806377,-651.4507878470063,0.0,0.0,0.0,186.95275550330626
2025/04/11 11:51:35.38831782,1744365095,38627130,,-16.432304940995895,-651.4509271814156,0.0,0.0,0.0,191.0801158043259
2025/04/11 11:51:35.109361379,1744365095,107779795,,-19.30929085761516,-651.4508024645276,0.0,0.0,0.0,186.9527967932536
2025/04/11 11:51:35.185479338,1744365095,185287232,,-19.309626432274452,-651.4507393933068,0.0,0.0,0.0,186.9526369857459
2025/04/11 11:51:35.257217215,1744365095,256999130,,-30.817446588350208,-654.3279755008712,0.0,0.0,0.0,191.07962746558294
2025/04/11 11:51:35.344804058,1744365095,344211531,,-43.81002190152969,-654.3275942822452,0.0,0.0,0.0,185.53825988728224
2025/04/11 11:51:35.425176656,1744365095,422693464,,-40.93323375751368,-654.3272681378783,0.0,0.0,0.0,185.5375539036619
2025/04/11 11:51:35.507030291,1744365095,506797432,,-46.686812175207685,-654.3281877922393,0.0,0.0,0.0,189.66695359858147
2025/04/11 11:51:35.578006066,1744365095,577717807,,-46.686979451381625,-657.2042924638803,0.0,0.0,0.0,193.79284403599
2025/04/11 11:51:35.648723460,1744365095,648260401,,-48.12560008052347,-657.2039343728356,0.0,0.0,0.0,189.6645906995488
2025/04/11 11:51:35.718560449,1744365095,718358792,,-45.248659500640585,-657.2040127248953,0.0,0.0,0.0,193.79222365021482
2025/04/11 11:51:35.794734990,1744365095,794438947,,-25.06712138762658,-654.328034545078,0.0,0.0,0.0,191.0788519896524
2025/04/11 11:51:35.853928931,1744365095,853723988,,-14.999260477172088,-654.327745190292,0.0,0.0,0.0,195.20690380980022
2025/04/11 11:51:35.961164265,1744365095,959882589,,-10.683157203811637,-651.4503787276519,0.0,0.0,0.0,203.4631888287342
2025/04/11 11:51:36.28320406,1744365096,28018662,,-0.7122263126764935,-648.5734261181606,0.0,0.0,0.0,207.5903438248645
2025/04/11 11:51:36.96069491,1744365096,95783345,,-0.7091827769453796,-645.6966022376962,0.0,0.0,0.0,211.7178864146054
2025/04/11 11:51:36.170885605,1744365096,170632575,,-0.7071892966488893,-635.6049371625392,0.0,0.0,0.0,199.3355967171998
2025/04/11 11:51:36.240454680,1744365096,239394123,,-0.7070120063479638,-619.7819670653923,0.0,0.0,0.0,182.8253331071283
2025/04/11 11:51:36.325353639,1744365096,312151133,,-0.7070068750686159,-599.6209649418861,0.0,0.0,0.0,133.29536028090524
2025/04/11 11:51:36.394130321,1744365096,393905308,,-0.7072273545273203,-503.15359368921486,0.0,0.0,0.0,79.63766900186856
2025/04/11 11:51:36.489043717,1744365096,488646028,,30.862264073092827,-369.2397842817741,0.0,0.0,0.0,0.7106639804466468
2025/04/11 11:51:36.568065005,1744365096,563783826,,59.672231242412536,-135.9841953667144,0.0,0.0,0.0,-78.2407108647023
2025/04/11 11:51:36.640708899,1744365096,640463917,,52.46305040299838,0.7072093735001415,0.0,0.0,0.0,-69.98458010146832
2025/04/11 11:51:36.705014398,1744365096,700725794,,0.0030870586123104005,-9.596124861716731e-08,0.0,0.0,0.0,-70.69106908160235
2025/04/11 11:51:36.780011500,1744365096,779811870,,-8.881784197001252e-16,-6.697169945349413e-12,0.0,0.0,0.0,-74.81920270068878
2025/04/11 11:51:36.842565927,1744365096,842378950,,-2.311040248059726e-12,1.1896584978390119e-09,0.0,0.0,0.0,-95.3725362955612
2025/04/11 11:51:36.911631854,1744365096,911420425,,-7.105427357601002e-15,1.4146686497614651e-12,0.0,0.0,0.0,-107.83749524429342
2025/04/11 11:51:37.31080156,1744365097,30840373,,-5.329070518200751e-15,1.4668848817914193e-14,0.0,0.0,0.0,-99.58419218260555
2025/04/11 11:51:37.104120136,1744365097,103819517,,1.7763568394002505e-15,-4.803449304979779e-15,0.0,0.0,0.0,-103.71168915819169
2025/04/11 11:51:37.363661240,1744365097,363245123,,-1.2665424264923786e-12,1.011982164733638e-12,0.0,0.0,0.0,-122.8393245177025
2025/04/11 11:51:37.446722295,1744365097,446390400,,-3.552713678800501e-15,9.638638628559071e-15,0.0,0.0,0.0,-144.9866665424455
2025/04/11 11:51:37.524779104,1744365097,524426587,,5.329070518200751e-15,-2.1000847003245504e-14,0.0,0.0,0.0,-140.85917719528206
2025/04/11 11:51:37.598859325,1744365097,598567716,,5.329070518200751e-15,5.3753930560201946e-15,0.0,0.0,0.0,-136.73167259128638
2025/04/11 11:51:37.672221006,1744365097,669787463,,-3.552713678800501e-15,1.3991778113724151e-14,0.0,0.0,0.0,-128.47667864011552
2025/04/11 11:51:37.743707969,1744365097,743263707,,1.7763568394002505e-15,6.6934847421651344e-15,0.0,0.0,0.0,-128.47667864011964
2025/04/11 11:51:37.809587718,1744365097,809336876,,-5.329070518200751e-15,7.552647201224116e-15,0.0,0.0,0.0,-136.7316725912923
2025/04/11 11:51:37.876006389,1744365097,875790696,,-5.329070518200751e-15,7.840177617367272e-15,0.0,0.0,0.0,-120.22168468894367
2025/04/11 11:51:37.948210750,1744365097,947768397,,-1.7763568394002505e-15,4.290526809704043e-15,0.0,0.0,0.0,-45.92672005738453
2025/04/11 11:51:38.26520640,1744365098,26262690,,1.3073986337985843e-12,-1.763745047364193e-12,0.0,0.0,0.0,-64.63941202465794
2025/04/11 11:51:38.92447240,1744365098,92208428,,1.7763568394002505e-15,3.947200639259352e-15,0.0,0.0,0.0,-50.05421703295724
2025/04/11 11:51:38.207250636,1744365098,205884723,,0.0,-3.52613717304745e-15,0.0,0.0,0.0,-50.05421703296574
2025/04/11 11:51:38.328787122,1744365098,328580649,,-1.3447021274259896e-12,-6.197076678855426e-13,0.0,0.0,0.0,-79.87017684051294
2025/04/11 11:51:38.410835341,1744365098,410601861,,1.7763568394002505e-15,2.3676535992195324e-15,0.0,0.0,0.0,-78.94670730466754
2025/04/11 11:51:38.483834475,1744365098,483369758,,-3.552713678800501e-15,-2.8600982259624486e-15,0.0,0.0,0.0,-78.94670730467507
2025/04/11 11:51:38.558622533,1744365098,558356047,,8.881784197001252e-16,-1.1257813258003235e-15,0.0,0.0,0.0,-21.16173248262286
2025/04/11 11:51:38.625445141,1744365098,622618340,,2.220446049250313e-16,0.0,0.0,0.0,0.0,0.0
2025/04/11 11:51:38.695973570,1744365098,695759793,,2.220446049250313e-16,0.0,0.0,0.0,0.0,0.0
2025/04/11 11:51:38.944935074,1744365098,944762763,,1.0045297926808416e-12,1.2200310206544884e-13,0.0,0.0,0.0,-24.460512711019224
2025/04/11 11:51:39.190662922,1744365099,190489259,,-1.3571366253017914e-12,-1.5707504741335754e-12,0.0,0.0,0.0,-89.10688026838153
2025/04/11 11:51:39.261891762,1744365099,261643769,,2.220446049250313e-16,0.0,0.0,0.0,0.0,0.0
2025/04/11 11:51:39.524397842,1744365099,519590049,,1.7935306018124209e-13,-1.1723955140041653e-13,0.0,0.0,0.0,23.74027233553683
2025/04/11 11:51:39.593496536,1744365099,593295645,,-1.8398477186210016e-13,1.0878409284487134e-11,0.0,0.0,0.0,91.68977300902128
2025/04/11 11:51:39.673387858,1744365099,671282589,,5.488942633746774e-13,-1.8669510382096632e-11,0.0,0.0,0.0,111.0638964490518
2025/04/11 11:51:39.774939318,1744365099,774658361,,4.278959131465143e-12,-9.274714329876588e-11,0.0,0.0,0.0,131.98161683580116
2025/04/11 11:51:39.843714827,1744365099,843512219,,6.65098531804631e-12,-2.490949668754183e-10,0.0,0.0,0.0,159.30920984939502
2025/04/11 11:51:39.923967714,1744365099,918142074,,3.80261794274972e-11,-5.242171141617291e-10,0.0,0.0,0.0,177.48327991642134
2025/04/11 11:51:40.1489691,1744365100,877828,,4.808574372017205e-11,-1.0620553325679793e-09,0.0,0.0,0.0,197.76950148496005
2025/04/11 11:51:40.68762300,1744365100,68516642,,5.438124950352119e-11,-2.149391775674303e-09,0.0,0.0,0.0,219.77305586384767
2025/04/11 11:51:40.144587200,1744365100,144403076,,4.464119351954565e-11,-4.246352602876868e-09,0.0,0.0,0.0,237.71890310364748
2025/04/11 11:51:40.208681120,1744365100,208353826,,4.015548657476664e-11,-8.937433904065983e-09,0.0,0.0,0.0,258.25436313757916
2025/04/11 11:51:40.291430041,1744365100,291142861,,1.1343857797552204e-10,-1.8146359082038543e-08,0.0,0.0,0.0,274.9559323982753
2025/04/11 11:51:40.373809372,1744365100,373572018,,1.3571647972110412e-10,-3.164154094292826e-08,0.0,0.0,0.0,297.3530149621063
2025/04/11 11:51:40.457377675,1744365100,457049852,,1.9177980037365927e-10,-6.492088289178355e-08,0.0,0.0,0.0,319.16325173734555
2025/04/11 11:51:40.519633941,1744365100,519339193,,1.8392655454224638e-10,-1.2340882449279889e-07,0.0,0.0,0.0,341.64810575729547
2025/04/11 11:51:40.587101723,1744365100,586824900,,1.2855227993213703e-10,-2.3101567592220817e-07,0.0,0.0,0.0,358.9010134736335
2025/04/11 11:51:40.650914237,1744365100,650598408,,-1.43494917337339e-09,-4.0124047018252895e-07,0.0,0.0,0.0,381.4162239478914
2025/04/11 11:51:40.739948899,1744365100,739627602,,-1.1746256328715177e-09,-6.796117872909235e-07,0.0,0.0,0.0,398.4382154961518
2025/04/11 11:51:40.808644792,1744365100,808384188,,-8.610219204285841e-10,-1.085775423348423e-06,0.0,0.0,0.0,421.55657978214816
2025/04/11 11:51:40.862697938,1744365100,862342452,,-2.663006898329101e-10,-1.3996176591035692e-06,0.0,0.0,0.0,439.78520211045054
2025/04/11 11:51:41.74552355,1744365101,74315610,,-5.922595179043422e-10,-1.031423010999788e-06,0.0,0.0,0.0,454.2017321077699
2025/04/11 11:51:41.144382517,1744365101,144049810,,-11.409983524981035,-5.43096234650875e-09,0.0,0.0,0.0,499.8858411817043
2025/04/11 11:51:41.199902147,1744365101,198534162,,-11.409983437009425,-1.9551009700080613e-09,0.0,0.0,0.0,499.895621504096
2025/04/11 11:51:41.278001167,1744365101,277806648,,-11.409983519278029,-9.254961241822457e-10,0.0,0.0,0.0,499.9033438967075
2025/04/11 11:51:41.346363157,1744365101,346095507,,-11.409983522871046,-3.6911274037265684e-10,0.0,0.0,0.0,499.91442865749514
2025/04/11 11:51:41.425943864,1744365101,425677042,,-11.409983558888893,-1.9632295789051568e-10,0.0,0.0,0.0,499.92402150405564
2025/04/11 11:51:41.491096854,1744365101,490827735,,-14.286922967684133,-7.051426109683234e-11,0.0,0.0,0.0,499.9351977126997
2025/04/11 11:51:41.555049024,1744365101,554736883,,-17.16386145918497,-3.03839214979007e-05,0.0,0.0,0.0,499.9354478042186
2025/04/11 11:51:41.614775757,1744365101,614499278,,-27.230956129564568,-4.949318653757473e-05,0.0,0.0,0.0,499.93499543171174
2025/04/11 11:51:41.677462185,1744365101,677189660,,-35.88262500266756,-0.00020328227975596747,0.0,0.0,0.0,499.9346615466376
2025/04/11 11:51:41.770170260,1744365101,769843156,,-44.51204756211833,-0.00027185546474584044,0.0,0.0,0.0,499.9343739942717
2025/04/11 11:51:41.827579745,1744365101,827358525,,-44.51725400407445,-0.00027499983458767474,0.0,0.0,0.0,499.9354483949278
2025/04/11 11:51:41.882333856,1744365101,882096250,,-50.271098931437024,-0.0002751384658239431,0.0,0.0,0.0,499.93543838211997
2025/04/11 11:51:41.942675666,1744365101,942411417,,-58.92250974276135,-0.00027466167723844137,0.0,0.0,0.0,499.93505493778906
2025/04/11 11:51:42.25697972,1744365102,25418786,,-58.924429537289654,-0.0002749220625730686,0.0,0.0,0.0,499.93544844394364
2025/04/11 11:51:42.83260146,1744365102,82685890,,-63.23983393845484,-0.0002747917416314749,0.0,0.0,0.0,499.9354480071923
2025/04/11 11:51:42.147636277,1744365102,147432447,,-66.11677529224585,-0.00027459998959500354,0.0,0.0,0.0,499.93544805948835
2025/04/11 11:51:42.213187251,1744365102,212823540,,-66.11677529601975,-0.0002787079984329921,0.0,0.0,0.0,499.93545480000506
2025/04/11 11:51:42.278912462,1744365102,278547195,,-71.87065037112771,-0.0002772053986461742,0.0,0.0,0.0,499.93545193520316
2025/04/11 11:51:42.353152937,1744365102,350419293,,-77.62453305084887,-0.00027489788375589796,0.0,0.0,0.0,499.93544804381133
2025/04/11 11:51:42.435607162,1744365102,435272247,,-80.52393936972757,-0.000275056604309043,0.0,0.0,0.0,499.9354488249871
2025/04/11 11:51:42.514751125,1744365102,514418244,,-84.83935527450005,-0.0002742791749881235,0.0,0.0,0.0,499.9354483205176
2025/04/11 11:51:42.582796135,1744365102,582496393,,-89.15475589806223,-0.00027533747494601357,0.0,0.0,0.0,499.93544721961547
2025/04/11 11:51:42.648993948,1744365102,648766767,,-92.03170483424364,-0.00027502351116481805,0.0,0.0,0.0,499.9354483446541
2025/04/11 11:51:42.738720334,1744365102,738357651,,-92.03170487963864,-0.00027507919925540136,0.0,0.0,0.0,499.93544584075175
2025/04/11 11:51:42.800392047,1744365102,800098439,,-89.1547558843897,-0.0002750323075701999,0.0,0.0,0.0,499.9354480569759
2025/04/11 11:51:42.851674250,1744365102,851385562,,-89.15475588061592,-0.0002750248481646622,0.0,0.0,0.0,499.93544810119505
2025/04/11 11:51:42.914489257,1744365102,914199027,,-89.15475589934957,-0.0002749499642789033,0.0,0.0,0.0,499.9354468030776
2025/04/11 11:51:42.976169918,1744365102,975958434,,-89.15475587625887,-0.0002750164985485526,0.0,0.0,0.0,499.935448157768
2025/04/11 11:51:43.41040746,1744365103,40836476,,-92.03170486183679,-0.00027502881039254135,0.0,0.0,0.0,499.9354480564937
2025/04/11 11:51:43.112206048,1744365103,111783459,,-92.03170487364379,-0.0002749872956684385,0.0,0.0,0.0,499.9354455158282
2025/04/11 11:51:43.168520784,1744365103,167996468,,-94.90863863442111,-0.0002750379231599709,0.0,0.0,0.0,499.9354466089235
2025/04/11 11:51:43.234913789,1744365103,234392236,,-94.90863855650514,-0.0002752454926593373,0.0,0.0,0.0,499.935448712999
2025/04/11 11:51:43.310060730,1744365103,309778750,,-93.4701640298217,-0.0002364137343136008,0.0,0.0,0.0,499.9354478793481
2025/04/11 11:51:43.378680695,1744365103,378404141,,-96.34710549094535,-0.0002753570821738549,0.0,0.0,0.0,499.9354459428839
2025/04/11 11:51:43.444421873,1744365103,444217813,,-99.22403921206347,-0.0002751858266947238,0.0,0.0,0.0,499.93544842011227
2025/04/11 11:51:43.510775694,1744365103,510241913,,-101.98516244920035,0.7069727152778142,0.0,0.0,0.0,498.75508213401076
2025/04/11 11:51:43.610202878,1744365103,609611037,,-110.04593526281091,0.7071814655770936,0.0,0.0,0.0,499.2275261972912
2025/04/11 11:51:43.669791463,1744365103,669435103,,-112.92523473912833,0.7100904073581091,0.0,0.0,0.0,499.22157013250666
2025/04/11 11:51:43.726472388,1744365103,726141400,,-117.23973857220427,0.7077625269811563,0.0,0.0,0.0,499.2264899994585
2025/04/11 11:51:43.790230875,1744365103,789887642,,-117.24008651985122,0.7086092931686636,0.0,0.0,0.0,499.22468922936537
2025/04/11 11:51:43.841546596,1744365103,841326263,,-117.24063685944814,0.7101243440029492,0.0,0.0,0.0,499.2215189173803
2025/04/11 11:51:43.899136779,1744365103,898882307,,-114.36248688498424,0.7070018577243644,0.0,0.0,0.0,499.22815178441306
2025/04/11 11:51:43.960389673,1744365103,960152718,,-117.23949306132002,0.706850319507339,0.0,0.0,0.0,499.2283325289092
2025/04/11 11:51:44.27627576,1744365104,27091350,,-114.36256127980437,0.7070890197175999,0.0,0.0,0.0,499.22789198281083
2025/04/11 11:51:44.95371667,1744365104,95103796,,-117.24014338985333,0.7087515939161477,0.0,0.0,0.0,499.2243879991146
2025/04/11 11:51:44.155105748,1744365104,154646337,,-120.11636901426183,0.7068958875917843,0.0,0.0,0.0,499.2282954523855
2025/04/11 11:51:44.231264080,1744365104,229238487,,-128.76807856705074,0.7069754300873399,0.0,0.0,0.0,499.22789866360034
2025/04/11 11:51:44.330531413,1744365104,329992675,,-128.76877504115433,0.7069000172254789,0.0,0.0,0.0,499.2293330599489
2025/04/11 11:51:44.407268635,1744365104,406880427,,-128.76846632463295,0.7076082810058182,0.0,0.0,0.0,499.2283002174542
2025/04/11 11:51:44.511394457,1744365104,511151158,,-131.64625562697606,0.7071852938492924,0.0,0.0,0.0,499.2283934920551
2025/04/11 11:51:44.584008873,1744365104,583776104,,-131.6461675817802,0.707209567631395,0.0,0.0,0.0,499.2284201096381
2025/04/11 11:51:44.645389782,1744365104,645037961,,-131.6461900728573,0.7072502265741036,0.0,0.0,0.0,499.22832873804896
2025/04/11 11:51:44.734788595,1744365104,734566241,,-131.64619305699227,0.7072417708110947,0.0,0.0,0.0,499.2283416112354
2025/04/11 11:51:44.800793978,1744365104,800575744,,-94.90863851157593,-0.00026817759716379896,0.0,0.0,0.0,499.935447590039
2025/04/11 11:51:44.874657055,1744365104,874256100,,-2.7961467210142,-0.0002746998925005073,0.0,0.0,0.0,404.99487160235077
2025/04/11 11:51:44.943555957,1744365104,943285379,,1.3322676295501878e-15,5.011995592857366e-15,0.0,0.0,0.0,-37.671726106227986
2025/04/11 11:51:45.22564180,1744365105,22135270,,1.7763568394002505e-15,-4.3521230456283755e-16,0.0,0.0,0.0,-33.54422531643225
2025/04/11 11:51:45.95583180,1744365105,95325872,,2.220446049250313e-16,0.0,0.0,0.0,0.0,0.0
2025/04/11 11:51:45.361169502,1744365105,360170079,,5.169198402654729e-13,-1.6861980561833079e-12,0.0,0.0,0.0,-24.3316755520108
2025/04/11 11:51:45.441285403,1744365105,440307701,,-7.105427357601002e-14,-7.020065084795135e-12,0.0,0.0,0.0,-93.46429694854689
2025/04/11 11:51:45.685209632,1744365105,683233352,,-7.709388682997087e-13,-3.9654703132274705e-12,0.0,0.0,0.0,-114.47690422048103
2025/04/11 11:51:45.750228154,1744365105,749995478,,0.06894205048750024,0.1799933189358623,0.0,0.0,0.0,-178.45839563650384
2025/04/11 11:51:45.841934278,1744365105,841194670,,0.15320097369048113,0.18350340704213275,0.0,0.0,0.0,-196.51367184691946
2025/04/11 11:51:45.901015297,1744365105,900778686,,0.22312136483152756,0.2816672654364021,0.0,0.0,0.0,-221.01558244397216
2025/04/11 11:51:45.962227944,1744365105,961896445,,0.23901574209288867,0.41929633018835094,0.0,0.0,0.0,-237.11631303307092
2025/04/11 11:51:46.39082992,1744365106,38750606,,0.11577879635259336,0.7765005966842622,0.0,0.0,0.0,-253.61649138494306
2025/04/11 11:51:46.93939017,1744365106,93681059,,-0.006248455376876905,0.8769343905434994,0.0,0.0,0.0,-274.30591534847815
2025/04/11 11:51:46.171427727,1744365106,171182083,,0.16642251892791649,0.9698535961104225,0.0,0.0,0.0,-289.2340420189904
2025/04/11 11:51:46.232614221,1744365106,232384950,,0.13791258920677052,0.9220797786306429,0.0,0.0,0.0,-309.65558518635277
2025/04/11 11:51:46.296794923,1744365106,296538808,,-6.775421935847369,2.608331378357355,0.0,0.0,0.0,-326.6999241999398
2025/04/11 11:51:46.379729048,1744365106,379365366,,-4.112705603329275,5.089713449671678,0.0,0.0,0.0,-343.5982069393493
2025/04/11 11:51:46.443003061,1744365106,441348639,,-4.2246033644143495,10.047671803835234,0.0,0.0,0.0,-366.03969855406683
2025/04/11 11:51:46.517537200,1744365106,517263436,,-3.9950977141677697,7.109697314357243,0.0,0.0,0.0,-382.52703854304445
2025/04/11 11:51:46.583727976,1744365106,583342751,,-4.015227421481697,6.989517574666113,0.0,0.0,0.0,-402.3661814844877
2025/04/11 11:51:46.644884127,1744365106,644612563,,-4.0222977365636865,6.919016967094542,0.0,0.0,0.0,-419.85642163396403
2025/04/11 11:51:46.809921027,1744365106,809625244,,-3.9508326922542523,6.949592323992499,0.0,0.0,0.0,-440.1619559103326
2025/04/11 11:51:46.892770178,1744365106,892508936,,-3.97981203306,6.9508283596379545,0.0,0.0,0.0,-478.90567444910874
2025/04/11 11:51:46.980314897,1744365106,980051376,,-2.443416024968556,5.614206675627346,0.0,0.0,0.0,-496.8258413922423
2025/04/11 11:51:47.42060203,1744365107,41116379,,1.3406984452212356,0.11097643475455334,0.0,0.0,0.0,-499.88381721920354
2025/04/11 11:51:47.143218936,1744365107,141211601,,1.34069844538935,0.08569097982318917,0.0,0.0,0.0,-499.8955517316772
2025/04/11 11:51:47.243799122,1744365107,243554059,,1.3406984451013102,0.05533105595789736,0.0,0.0,0.0,-499.9096417151785
2025/04/11 11:51:47.325499062,1744365107,324609522,,1.3406984456150255,0.031492086943485945,0.0,0.0,0.0,-499.9207048427036
2025/04/11 11:51:47.395417838,1744365107,394134397,,1.3406984457315758,0.006360918235533108,0.0,0.0,0.0,-499.9323684861614
2025/04/11 11:51:47.460792976,1744365107,460401697,,1.340698445219921,-5.372311945563499e-07,0.0,0.0,0.0,-499.9354478043441
2025/04/11 11:51:47.520761492,1744365107,520441964,,1.3406984452200135,-9.606050435813894e-07,0.0,0.0,0.0,-499.9354478043467
2025/04/11 11:51:47.586312207,1744365107,586029601,,1.3406984452199922,-1.2506086731821586e-06,0.0,0.0,0.0,-499.9354478043435
2025/04/11 11:51:47.646960205,1744365107,646753450,,1.3406984452200064,-9.605923403708356e-07,0.0,0.0,0.0,-499.9354478043469
2025/04/11 11:51:47.730767846,1744365107,730520819,,1.340698445219985,-9.602232261614368e-07,0.0,0.0,0.0,-499.935447804349
2025/04/11 11:51:47.795135515,1744365107,794866493,,5.656106539936623,-9.607153967043912e-07,0.0,0.0,0.0,-499.93544780434166
2025/04/11 11:51:47.876371671,1744365107,875953076,,5.656106539936815,-7.053153753350019e-06,0.0,0.0,0.0,-499.93544780430784
2025/04/11 11:51:47.935216283,1744365107,934771204,,5.656106539936694,-5.1646270197223645e-06,0.0,0.0,0.0,-499.93544780432654
2025/04/11 11:51:48.9647521,1744365108,9318093,,5.65610653993685,-7.537781060632247e-06,0.0,0.0,0.0,-499.9354478043018
2025/04/11 11:51:48.89895816,1744365108,82943359,,5.656106539936722,-5.946375741580726e-06,0.0,0.0,0.0,-499.93544780431864
2025/04/11 11:51:48.143093116,1744365108,142773364,,7.0945757856925695,-6.067919834986833e-06,0.0,0.0,0.0,-499.9354478043142
2025/04/11 11:51:48.202113503,1744365108,201386394,,7.09457578569296,-1.0437312398515837e-05,0.0,0.0,0.0,-499.9354478042964
2025/04/11 11:51:48.269140819,1744365108,268854968,,7.094575785692939,-1.0674736970463808e-05,0.0,0.0,0.0,-499.9354478042957
2025/04/11 11:51:48.367386758,1744365108,366625662,,7.094575785692555,-5.450013716167088e-06,0.0,0.0,0.0,-499.9354478043234
2025/04/11 11:51:48.450542164,1744365108,450218695,,4.217637294180953,-7.94435725130447e-06,0.0,0.0,0.0,-499.9354478043065
2025/04/11 11:51:48.518938580,1744365108,518651204,,4.217637294180776,-3.4682976130466758e-06,0.0,0.0,0.0,-499.93544780434047
2025/04/11 11:51:48.590101753,1744365108,589666220,,1.3406984452200348,-4.7320759118373034e-06,0.0,0.0,0.0,-499.9354478043298
2025/04/11 11:51:48.650651981,1744365108,650320564,,7.105427357601002e-15,-9.604435826007633e-07,0.0,0.0,0.0,-499.935447804348
2025/04/11 11:51:48.724232747,1744365108,723888234,,-7.105427357601002e-15,3.572432605812581e-15,0.0,0.0,0.0,-499.9354478043472
2025/04/11 11:51:48.811875951,1744365108,811541482,,-2.1316282072803006e-14,-1.1087918777574757e-14,0.0,0.0,0.0,-499.93544780434837
2025/04/11 11:51:48.868130875,1744365108,866447617,,7.105427357601002e-15,-1.4022799848384393e-15,0.0,0.0,0.0,-499.93544780434985
2025/04/11 11:51:48.926386635,1744365108,924981041,,7.105427357601002e-15,-1.5340634036513368e-14,0.0,0.0,0.0,-499.9354478043458
2025/04/11 11:51:49.38755250,1744365109,38272652,,2.842170943040401e-14,6.900317990610194e-14,0.0,0.0,0.0,-499.9354478043508
2025/04/11 11:51:49.108620395,1744365109,108415000,,7.105427357601002e-15,5.784408325590351e-15,0.0,0.0,0.0,-499.9354478043487
2025/04/11 11:51:49.178226691,1744365109,177908556,,-2.1316282072803006e-14,-1.213716898252476e-14,0.0,0.0,0.0,-446.294044928659
2025/04/11 11:51:49.254558690,1744365109,254173239,,7.105427357601002e-15,2.606190274440784e-14,0.0,0.0,0.0,-194.51664550611991
2025/04/11 11:51:49.322801952,1744365109,322371483,,-3.552713678800501e-15,8.402160260947977e-16,0.0,0.0,0.0,-103.71168915815183
2025/04/11 11:51:49.402969230,1744365109,402658584,,5.329070518200751e-15,6.44990517158911e-15,0.0,0.0,0.0,-103.71168915819652
2025/04/11 11:51:49.473758533,1744365109,473511377,,-2.6645352591003757e-15,3.993387651807234e-15,0.0,0.0,0.0,-41.799219267599746
2025/04/11 11:51:49.538325595,1744365109,538066879,,-1.3322676295501878e-15,3.5242669242999125e-15,0.0,0.0,0.0,-29.416728340857546
2025/04/11 11:51:49.781240726,1744365109,781000017,,4.1499182562576564e-13,1.6084911180769268e-12,0.0,0.0,0.0,39.042214812449814
2025/04/11 11:51:49.837769444,1744365109,837515997,,4.46706678320608,-8.352429858859978e-12,0.0,0.0,0.0,104.78114961027093
2025/04/11 11:51:49.938537671,1744365109,938195053,,10.152058740346709,4.784026709664815,0.0,0.0,0.0,121.6547782403692
2025/04/11 11:51:50.11755087,1744365110,11500390,,24.742284662096303,9.607590502991563,0.0,0.0,0.0,153.18832321076988
2025/04/11 11:51:50.80675534,1744365110,80500657,,35.22449256731708,15.588229021554191,0.0,0.0,0.0,177.2656040859955
2025/04/11 11:51:50.148163310,1744365110,147875043,,43.95734123118634,21.233454762533437,0.0,0.0,0.0,200.4454551412475
2025/04/11 11:51:50.204840237,1744365110,204238058,,52.14764259029925,26.777604535716275,0.0,0.0,0.0,224.27581317531568
2025/04/11 11:51:50.265566222,1744365110,265327056,,43.050118706655475,21.138548550381095,0.0,0.0,0.0,237.2522679098438
2025/04/11 11:51:50.346270229,1744365110,345217082,,43.40793287296559,20.49397120314834,0.0,0.0,0.0,253.82117920909022
2025/04/11 11:51:50.421861231,1744365110,421551731,,43.41584348126556,20.458429405113726,0.0,0.0,0.0,275.45263655435576
2025/04/11 11:51:50.496008480,1744365110,495636571,,43.567128439933924,20.3789284908762,0.0,0.0,0.0,295.68456647086
2025/04/11 11:51:50.569838998,1744365110,569550108,,44.03637082464295,20.187895594747566,0.0,0.0,0.0,316.12528763020157
2025/04/11 11:51:50.640341712,1744365110,640018814,,43.92574141818405,16.727996848779796,0.0,0.0,0.0,335.00062564540076
2025/04/11 11:51:50.715103763,1744365110,714178133,,44.01429655574319,18.483988400321465,0.0,0.0,0.0,358.0843199985815
2025/04/11 11:51:50.785917513,1744365110,785308869,,43.630903942692576,18.4609260924667,0.0,0.0,0.0,373.7523387002144
2025/04/11 11:51:50.887895921,1744365110,887634429,,42.857381874620046,18.130917309353222,0.0,0.0,0.0,392.05168440228783
2025/04/11 11:51:50.960482357,1744365110,960162291,,38.41117582243669,21.079121827266036,0.0,0.0,0.0,416.00704396528397
2025/04/11 11:51:51.33582030,1744365111,33343113,,31.895775095700124,19.602155446560317,0.0,0.0,0.0,429.5513990247599
2025/04/11 11:51:51.265478033,1744365111,264996210,,26.92864529705719,19.61109915871124,0.0,0.0,0.0,444.75688406732854
2025/04/11 11:51:51.530553062,1744365111,528180372,,2.0061403823170343,19.62167054849067,0.0,0.0,0.0,484.9217673248416
2025/04/11 11:51:51.597683231,1744365111,597342521,,-1.0319002596848037e-14,-2.842170943040401e-14,0.0,0.0,0.0,371.98300342044365
2025/04/11 11:51:51.664747923,1744365111,664496237,,3.552713678800501e-15,11.433764918388738,0.0,0.0,0.0,9.52047763499557e-15
2025/04/11 11:51:51.719867825,1744365111,718071583,,2.220446049250313e-16,0.0,0.0,0.0,0.0,0.0
2025/04/11 11:51:51.781825583,1744365111,781508789,,2.220446049250313e-16,0.0,0.0,0.0,0.0,0.0
