time,header_stamp_secs,header_stamp_nsecs,header_frame_id,wrench_force_x,wrench_force_y,wrench_force_z,wrench_torque_x,wrench_torque_y,wrench_torque_z
2025/04/09 10:24:44.732068164,1744187084,731258244,,4.9986252784729,-0.2404667735099797,0.0,0.0,0.0,-1.4732915163040152
2025/04/09 10:24:44.831244553,1744187084,831018327,,4.9489264488220215,-0.2104096114635463,0.0,0.0,0.0,-1.4054888486862191
2025/04/09 10:24:44.934409652,1744187084,934120046,,4.856329917907715,-0.17988473176956088,0.0,0.0,0.0,-1.345395803451539
2025/04/09 10:24:45.31099900,1744187085,30871806,,4.841146469116211,-0.17698360979556993,0.0,0.0,0.0,-1.426526308059695
2025/04/09 10:24:45.135814918,1744187085,135545914,,4.750617980957031,-0.1826049834489818,0.0,0.0,0.0,-1.401846408843995
2025/04/09 10:24:45.232325802,1744187085,232111061,,4.702360153198242,-0.18147787451744035,0.0,0.0,0.0,-1.3281164169311541
2025/04/09 10:24:45.333616042,1744187085,333111782,,4.696623325347901,-0.1814045608043675,0.0,0.0,0.0,-1.3661324977874774
2025/04/09 10:24:45.434415945,1744187085,434201420,,4.640923023223877,-0.18302051723003432,0.0,0.0,0.0,-1.4025566577911377
2025/04/09 10:24:45.531243730,1744187085,531013448,,4.6432390213012695,-0.5917059779167175,0.0,0.0,0.0,-1.4187376499176017
2025/04/09 10:24:45.631597261,1744187085,631338273,,4.6148681640625,-1.1441643238067627,0.0,0.0,0.0,-1.301631212234497
2025/04/09 10:24:45.731309706,1744187085,731074663,,4.617759704589844,-0.5320421457290647,0.0,0.0,0.0,-1.3519262075424212
2025/04/09 10:24:45.833316036,1744187085,833090563,,4.628206729888916,-0.4256003499031076,0.0,0.0,0.0,-1.3543021678924552
2025/04/09 10:24:45.935751018,1744187085,934493365,,4.621265411376953,0.17884016036987305,0.0,0.0,0.0,-1.3289352655410775
2025/04/09 10:24:46.35372791,1744187086,34832862,,4.571212291717529,-0.47048190236091525,0.0,0.0,0.0,-1.3693329095840472
2025/04/09 10:24:46.133583643,1744187086,133286493,,4.564513206481934,-1.9728981256484983,0.0,0.0,0.0,-1.3595844507217407
2025/04/09 10:24:46.234784546,1744187086,233593055,,4.480149745941163,1.0502443313598633,0.0,0.0,0.0,-1.369176983833313
2025/04/09 10:24:46.335243752,1744187086,334155934,,4.46644401550293,-0.7511823773384085,0.0,0.0,0.0,-1.371508240699769
2025/04/09 10:24:46.431144883,1744187086,430960356,,4.4342942237854,-1.1168745756149292,0.0,0.0,0.0,-1.3022497892379779
2025/04/09 10:24:46.531846234,1744187086,531208945,,4.327518463134766,-0.777723312377929,0.0,0.0,0.0,-1.3502984046936053
2025/04/09 10:24:46.634799500,1744187086,631737186,,4.313855171203613,0.827648997306824,0.0,0.0,0.0,-1.3524715900421151
2025/04/09 10:24:46.735718324,1744187086,732044685,,4.284334182739258,-2.0166916847229,0.0,0.0,0.0,-1.276548385620118
2025/04/09 10:24:46.831376925,1744187086,831214560,,4.21566390991211,-0.5245048403739936,0.0,0.0,0.0,-1.227712631225585
2025/04/09 10:24:46.931896458,1744187086,931671879,,4.211066722869873,-1.7589955329895024,0.0,0.0,0.0,-1.2676287889480617
2025/04/09 10:24:47.31565708,1744187087,31297959,,4.200397491455079,-0.5251870751380918,0.0,0.0,0.0,-1.2083603143692017
2025/04/09 10:24:47.133498173,1744187087,133219554,,4.203579425811768,-1.7903455495834353,0.0,0.0,0.0,-1.28512489795685
2025/04/09 10:24:47.233797697,1744187087,233114419,,4.196359634399414,1.605438709259033,0.0,0.0,0.0,-1.2394776344299325
2025/04/09 10:24:47.333488206,1744187087,332642339,,4.171313762664795,0.34984463453292824,0.0,0.0,0.0,-1.1889362335205087
2025/04/09 10:24:47.433553504,1744187087,433304764,,4.176363468170165,1.5587962865829466,0.0,0.0,0.0,-1.2646665573120108
2025/04/09 10:24:47.536509166,1744187087,536334504,,4.102113723754883,0.3185973167419429,0.0,0.0,0.0,-1.2328323125839216
2025/04/09 10:24:47.634760181,1744187087,634459922,,4.077293872833252,1.6468273401260374,0.0,0.0,0.0,-1.2492897510528564
2025/04/09 10:24:47.735253994,1744187087,734978653,,4.051513195037842,-1.6966322660446167,0.0,0.0,0.0,-1.243462562561037
2025/04/09 10:24:47.835143482,1744187087,834879992,,4.010802268981934,1.6235072612762447,0.0,0.0,0.0,-1.258834958076477
2025/04/09 10:24:47.933921862,1744187087,933683804,,3.958613157272339,-1.87260091304779,0.0,0.0,0.0,-1.1923161745071438
2025/04/09 10:24:48.31543688,1744187088,31394903,,3.9007019996643075,-0.6548545956611633,0.0,0.0,0.0,-1.1408087015151969
2025/04/09 10:24:48.131403628,1744187088,131195592,,3.8821313381195073,-1.9179749488830566,0.0,0.0,0.0,-1.1788222789764413
2025/04/09 10:24:48.231890693,1744187088,231648584,,3.8453683853149414,-0.6750175356864929,0.0,0.0,0.0,-1.2320380210876465
2025/04/09 10:24:48.336504253,1744187088,336004959,,3.8371856212615962,-1.9368928670883188,0.0,0.0,0.0,-1.234458088874816
2025/04/09 10:24:48.433208729,1744187088,432949943,,3.8004045486450195,0.11749365180730842,0.0,0.0,0.0,-1.1888500452041635
2025/04/09 10:24:48.536352056,1744187088,536126908,,3.8007161617279053,-1.9481959342956543,0.0,0.0,0.0,-1.1544917821884138
2025/04/09 10:24:48.639495263,1744187088,638472496,,3.800978899002075,1.4729454517364502,0.0,0.0,0.0,-1.1697500944137573
2025/04/09 10:24:48.732091388,1744187088,731848382,,3.7714171409606934,0.29908192157745317,0.0,0.0,0.0,-1.153932809829711
2025/04/09 10:24:48.832121005,1744187088,831902154,,3.7827913761138916,1.5114972591400149,0.0,0.0,0.0,-1.1562048196792611
2025/04/09 10:24:48.932241325,1744187088,931991046,,3.7276234626770024,0.2996281981468205,0.0,0.0,0.0,-1.1410093307495108
2025/04/09 10:24:49.43325778,1744187089,43107073,,33.51879093623482,0.5648301838910719,0.0,0.0,0.0,-0.6634059548400231
2025/04/09 10:24:49.140648509,1744187089,140376398,,64.78279857238476,-0.5263469815149797,0.0,0.0,0.0,-0.8458511829375368
2025/04/09 10:24:49.238389755,1744187089,238154080,,97.54613913565295,0.7528620956155478,0.0,0.0,0.0,-1.046223044397614
2025/04/09 10:24:49.339511746,1744187089,338557502,,120.21865844726564,-2.4740848541259837,0.0,0.0,0.0,-1.1594090461730815
2025/04/09 10:24:49.434849030,1744187089,434589238,,120.3259277343746,-0.7571824193002179,0.0,0.0,0.0,-1.1982949972148162
2025/04/09 10:24:49.534495307,1744187089,534066294,,120.61721038818324,-1.4248639345169138,0.0,0.0,0.0,-1.2388042211530603
2025/04/09 10:24:49.635027503,1744187089,634830562,,120.78929138183595,0.8961859345435599,0.0,0.0,0.0,-1.2828707695007466
2025/04/09 10:24:49.737670839,1744187089,735525964,,120.97234344482462,0.3587054908267824,0.0,0.0,0.0,-1.2497876882564327
2025/04/09 10:24:49.833738532,1744187089,833486391,,121.48130798339848,-0.46258994936946607,0.0,0.0,0.0,-1.3252112865449277
2025/04/09 10:24:49.932414580,1744187089,932232498,,121.74098205566406,-0.7256969213485611,0.0,0.0,0.0,-1.1599805355072448
2025/04/09 10:24:50.36293921,1744187090,36034304,,121.61852264404155,-0.5106918811757915,0.0,0.0,0.0,-1.1448999643426419
2025/04/09 10:24:50.133966810,1744187090,133742158,,121.39659881591795,0.6512154936790999,0.0,0.0,0.0,-0.9022538065908492
2025/04/09 10:24:50.232649919,1744187090,232464611,,121.57360076900119,1.7370032072129007,0.0,0.0,0.0,-0.8821704387786582
2025/04/09 10:24:50.333695471,1744187090,333430897,,121.47767639160134,-0.8009120225907207,0.0,0.0,0.0,-0.9009199142454207
2025/04/09 10:24:50.433076499,1744187090,431972332,,121.45630645751953,2.1374464035034073,0.0,0.0,0.0,-0.5246775150298788
2025/04/09 10:24:50.531948804,1744187090,531740986,,121.47530364990061,-1.7275410890589455,0.0,0.0,0.0,-0.5473668575267112
2025/04/09 10:24:50.633026058,1744187090,632809614,,121.43177795410158,-2.249927759170534,0.0,0.0,0.0,-0.3659098148345947
2025/04/09 10:24:50.732287753,1744187090,731987698,,120.98867797851561,-3.171597242355345,0.0,0.0,0.0,-0.5448001623153687
2025/04/09 10:24:50.832799521,1744187090,832592354,,121.07794952392578,-2.2282776832580584,0.0,0.0,0.0,-0.46596109867093105
2025/04/09 10:24:50.933212992,1744187090,932958072,,121.28816223144531,-0.5041723251342738,0.0,0.0,0.0,-0.4755897819996022
2025/04/09 10:24:51.31514161,1744187091,30986982,,121.49434661865234,-0.59410160779953,0.0,0.0,0.0,-0.39452818036079407
2025/04/09 10:24:51.131782541,1744187091,131503400,,121.6536636352539,1.3505897521972674,0.0,0.0,0.0,-0.3717613220214844
2025/04/09 10:24:51.234173028,1744187091,234031686,,121.48227691650389,2.4809484481811506,0.0,0.0,0.0,-0.37558293342591753
2025/04/09 10:24:51.332147089,1744187091,331740877,,121.86390686035156,1.3677481412887573,0.0,0.0,0.0,-0.35619908571241865
2025/04/09 10:24:51.432061550,1744187091,431846240,,121.94891357421874,1.834167242050171,0.0,0.0,0.0,-0.3491865098476552
2025/04/09 10:24:51.531294370,1744187091,531059826,,122.01480102539062,1.4286371469497663,0.0,0.0,0.0,-0.15579400956630707
2025/04/09 10:24:51.632902091,1744187091,632333410,,122.13214111328125,0.3398554921150172,0.0,0.0,0.0,-0.20585812628269196
2025/04/09 10:24:51.734318146,1744187091,733566659,,122.15117645263672,-1.0676667690277082,0.0,0.0,0.0,-0.2234654575586461
2025/04/09 10:24:51.831776071,1744187091,831483527,,121.84715270996094,0.35768532752990545,0.0,0.0,0.0,0.03559534996749392
2025/04/09 10:24:51.931816213,1744187091,931617088,,122.30089569091797,-1.394670248031618,0.0,0.0,0.0,-0.0643480345606946
2025/04/09 10:24:52.31442647,1744187092,31249430,,122.34752655029297,-2.550917625427248,0.0,0.0,0.0,-0.0967251360415986
2025/04/09 10:24:52.132329212,1744187092,132165935,,122.0148696899414,-1.0183174610137904,0.0,0.0,0.0,0.09376081079244614
2025/04/09 10:24:52.231730153,1744187092,231516287,,122.51508331298825,1.004872560501104,0.0,0.0,0.0,-0.0033940044231997035
2025/04/09 10:24:52.331197951,1744187092,330993898,,122.62663269042969,0.6887086033821141,0.0,0.0,0.0,-0.01261430513112316
2025/04/09 10:24:52.431743089,1744187092,431524583,,122.75286865234375,-0.10607816278933413,0.0,0.0,0.0,0.015022546984241103
2025/04/09 10:24:52.533210856,1744187092,532980566,,122.49415588378906,-1.5781146287918073,0.0,0.0,0.0,0.24895946681500902
2025/04/09 10:24:52.631648493,1744187092,631402030,,122.68115997314455,-0.5035921931266767,0.0,0.0,0.0,0.16501100361347198
2025/04/09 10:24:52.731118665,1744187092,730933342,,123.31546020507812,-0.5654918551444954,0.0,0.0,0.0,0.11538182944057951
2025/04/09 10:24:52.831493082,1744187092,831321287,,123.58621978759767,-1.0099163055419922,0.0,0.0,0.0,0.095964215695858
2025/04/09 10:24:52.935576145,1744187092,934829911,,123.87014770507812,-2.2281987667083776,0.0,0.0,0.0,0.11873535811902514
2025/04/09 10:24:53.31321837,1744187093,31099699,,123.72744750976562,-1.8220784664154053,0.0,0.0,0.0,0.13548853993414411
2025/04/09 10:24:53.131557128,1744187093,131342534,,124.41898345947266,-1.6344299316406232,0.0,0.0,0.0,0.10658834129571915
2025/04/09 10:24:53.231657667,1744187093,231449688,,124.55036163330078,0.6501786708831787,0.0,0.0,0.0,0.1171330139040947
2025/04/09 10:24:53.332119125,1744187093,331815692,,124.88261413574219,-0.7420136332511902,0.0,0.0,0.0,0.0318634808063365
2025/04/09 10:24:53.433538018,1744187093,431272208,,125.10363006591797,-1.306216359138494,0.0,0.0,0.0,0.00603252137081256
2025/04/09 10:24:53.533799627,1744187093,532760430,,125.3018341064449,2.0356032848360286,0.0,0.0,0.0,-0.07929664105218137
2025/04/09 10:24:53.632565377,1744187093,632305672,,125.48559570312501,3.3115196228027344,0.0,0.0,0.0,-0.06845661252735624
2025/04/09 10:24:53.731262487,1744187093,731073001,,125.7400817871094,3.066019773483273,0.0,0.0,0.0,-0.008942991495146657
2025/04/09 10:24:53.831716281,1744187093,831462130,,126.21290588378906,1.206400752067557,0.0,0.0,0.0,-0.07170883566139707
2025/04/09 10:24:53.931757211,1744187093,930911943,,126.39530944824217,0.732536792755127,0.0,0.0,0.0,0.03599019721151819
2025/04/09 10:24:54.32239776,1744187094,32031281,,126.29609680175781,-1.8129689693450892,0.0,0.0,0.0,0.08532094955447178
2025/04/09 10:24:54.133335444,1744187094,133118841,,126.71517181396483,-0.08175498992203956,0.0,0.0,0.0,0.06531072407960892
2025/04/09 10:24:54.231692594,1744187094,231488616,,127.22319030761719,0.6942675709724426,0.0,0.0,0.0,0.0733085274696208
2025/04/09 10:24:54.331667137,1744187094,331450554,,128.1321258544922,-0.5583161711692846,0.0,0.0,0.0,0.048019446432604695
2025/04/09 10:24:54.432279509,1744187094,431908161,,128.7250518798828,-1.2444381713867188,0.0,0.0,0.0,0.04655808582904797
2025/04/09 10:24:54.532696913,1744187094,531812056,,129.2683410644531,-3.053567886352541,0.0,0.0,0.0,0.06376136839389801
2025/04/09 10:24:54.631520735,1744187094,631256088,,129.78033447265625,-3.1450424194335938,0.0,0.0,0.0,0.08548372238873014
2025/04/09 10:24:54.731968579,1744187094,731745948,,130.264663696289,0.21502104401593947,0.0,0.0,0.0,0.040366303175588314
2025/04/09 10:24:54.831785372,1744187094,831562531,,130.71754455566406,1.4406772851943934,0.0,0.0,0.0,-0.03667696937918663
2025/04/09 10:24:54.934360793,1744187094,931923736,,131.15113830566406,1.6501021385192889,0.0,0.0,0.0,-0.0455957353115366
2025/04/09 10:24:55.33362066,1744187095,33199800,,131.87982177734372,-1.0064560174942265,0.0,0.0,0.0,0.007131685037194302
2025/04/09 10:24:55.133660888,1744187095,133441682,,132.05555725097656,0.6818253397941589,0.0,0.0,0.0,0.03883046656848421
2025/04/09 10:24:55.233711682,1744187095,233453406,,132.41053771972656,-0.25485390424728394,0.0,0.0,0.0,0.06361491978168488
2025/04/09 10:24:55.333384844,1744187095,333145344,,132.75068664550787,0.35401543974876226,0.0,0.0,0.0,0.010205289348959923
2025/04/09 10:24:55.432700302,1744187095,431718443,,133.0250701904297,-1.4724073410034233,0.0,0.0,0.0,0.0019647765439003706
2025/04/09 10:24:55.531920256,1744187095,531284623,,133.81158447265625,-2.6463651657104528,0.0,0.0,0.0,0.004747635684907436
2025/04/09 10:24:55.632228654,1744187095,631986762,,134.62881469726514,1.1476567983629593,0.0,0.0,0.0,0.012510209343872702
2025/04/09 10:24:55.731177206,1744187095,730991520,,135.4222412109375,1.0200181007385236,0.0,0.0,0.0,-0.05580855906009674
2025/04/09 10:24:55.831939644,1744187095,831760550,,136.75950622558585,-2.510569095611631,0.0,0.0,0.0,-0.09161996841420716
2025/04/09 10:24:55.932998956,1744187095,932782135,,137.76541137695315,-3.5145723819732666,0.0,0.0,0.0,-0.07424195855858784
2025/04/09 10:24:56.31794445,1744187096,31542523,,138.30360412597656,-1.6103839874267507,0.0,0.0,0.0,-0.048189371824264526
2025/04/09 10:24:56.131698819,1744187096,131516392,,138.68276977539062,0.15803855657577692,0.0,0.0,0.0,-0.07682043313980103
2025/04/09 10:24:56.231484356,1744187096,231243956,,139.50572204589844,0.4441780447959953,0.0,0.0,0.0,-0.19685979187489977
2025/04/09 10:24:56.331769875,1744187096,331593217,,140.22189331054688,2.6570296287536674,0.0,0.0,0.0,-0.22098438441750545
2025/04/09 10:24:56.438183372,1744187096,437954429,,140.88294982910153,3.195307970046999,0.0,0.0,0.0,-0.22363831102848053
2025/04/09 10:24:56.533532527,1744187096,533356981,,141.5852508544922,0.7215397953986926,0.0,0.0,0.0,-0.24920481443399467
2025/04/09 10:24:56.631481384,1744187096,631272057,,142.32241821289062,1.882192611694336,0.0,0.0,0.0,-0.23517492413523655
2025/04/09 10:24:56.732036123,1744187096,731824812,,143.11610412597656,0.15866965055464988,0.0,0.0,0.0,-0.20836563408371944
2025/04/09 10:24:56.831577202,1744187096,831396567,,144.01895141601562,-1.1301980018615705,0.0,0.0,0.0,-0.23192909359930525
2025/04/09 10:24:56.932501693,1744187096,932325604,,145.00544738769528,0.8446689844131505,0.0,0.0,0.0,-0.2311229705810689
2025/04/09 10:24:57.33085203,1744187097,32869146,,146.09869384765625,-1.4513037204742503,0.0,0.0,0.0,-0.2461133748292781
2025/04/09 10:24:57.132666114,1744187097,132452786,,147.09080505371094,-2.818259954452511,0.0,0.0,0.0,-0.29719653725626927
2025/04/09 10:24:57.232859575,1744187097,232652465,,148.10368347167966,-0.6504682302474905,0.0,0.0,0.0,-0.3222080469131612
2025/04/09 10:24:57.331503691,1744187097,331364223,,149.1245880126953,-1.9701355695724523,0.0,0.0,0.0,-0.2886779308319234
2025/04/09 10:24:57.431792131,1744187097,431574796,,150.1323699951172,0.778646945953378,0.0,0.0,0.0,-0.3538793921470642
2025/04/09 10:24:57.532635044,1744187097,532371506,,151.17225646972656,-0.7638743519783038,0.0,0.0,0.0,-0.4942454397678233
2025/04/09 10:24:57.633978523,1744187097,633744490,,152.02926635742188,0.5656170248985273,0.0,0.0,0.0,-0.42879274487494
2025/04/09 10:24:57.731647043,1744187097,731374905,,152.36158752441406,0.5604191422462481,0.0,0.0,0.0,-0.5473259091377258
2025/04/09 10:24:57.833575181,1744187097,833389536,,153.2282257080078,-0.5001947879791224,0.0,0.0,0.0,-0.5361822247505046
2025/04/09 10:24:57.931684609,1744187097,931482495,,154.78277587890625,1.1007566452026385,0.0,0.0,0.0,-0.46739736199377546
2025/04/09 10:24:58.32564497,1744187098,32290540,,155.78550720214844,0.30369147658348083,0.0,0.0,0.0,-0.4804724156856537
2025/04/09 10:24:58.132376287,1744187098,132205580,,156.3084716796875,-1.91040790081024,0.0,0.0,0.0,-0.49730008840562334
2025/04/09 10:24:58.233532380,1744187098,233374299,,158.04942321777338,-0.11716256290673854,0.0,0.0,0.0,-0.5229096412658834
2025/04/09 10:24:58.333039904,1744187098,331420161,,159.24827575683594,-1.315809488296507,0.0,0.0,0.0,-0.5422230362892151
2025/04/09 10:24:58.431778185,1744187098,431575247,,160.51039123535153,-0.8261801004409755,0.0,0.0,0.0,-0.5988122224807739
2025/04/09 10:24:58.531938945,1744187098,531741927,,161.33250427246094,-2.488142728805542,0.0,0.0,0.0,-0.6082580089569376
2025/04/09 10:24:58.632739030,1744187098,631481941,,158.82675170898435,-0.07804105430842156,0.0,0.0,0.0,-0.5994295477867126
2025/04/09 10:24:58.731975365,1744187098,731648027,,154.15771484374994,-1.8249605894088532,0.0,0.0,0.0,-0.8309682011604878
2025/04/09 10:24:58.832768873,1744187098,831518097,,147.28831481933588,-1.3672620058059781,0.0,0.0,0.0,-1.0108644962310933
2025/04/09 10:24:58.932972749,1744187098,932676398,,140.15791320800764,-1.4621529579162615,0.0,0.0,0.0,-0.8857247233390524
2025/04/09 10:24:59.32773660,1744187099,32533134,,133.30447387695295,-1.1297926902771138,0.0,0.0,0.0,-0.801380336284609
2025/04/09 10:24:59.131862474,1744187099,131656773,,125.4515304565428,-1.054276585578922,0.0,0.0,0.0,-0.850158631801591
2025/04/09 10:24:59.233969785,1744187099,233757327,,117.7457504272461,-3.539699316024782,0.0,0.0,0.0,-0.9032708406448364
2025/04/09 10:24:59.333042727,1744187099,332846480,,111.40014648437469,-2.3867061138153645,0.0,0.0,0.0,-0.8662307262419802
2025/04/09 10:24:59.432003273,1744187099,431769238,,105.9285049438466,-0.6988970041277298,0.0,0.0,0.0,-1.0487312078471547
2025/04/09 10:24:59.534006852,1744187099,532447361,,100.44206237792835,-2.023007631301624,0.0,0.0,0.0,-1.6144833564764127
2025/04/09 10:24:59.634873543,1744187099,634676325,,96.60181427001945,-1.4646817445755147,0.0,0.0,0.0,-1.455142140388432
2025/04/09 10:24:59.732944811,1744187099,732691274,,92.37310028076155,-2.1251299381255855,0.0,0.0,0.0,-1.2389986515045592
2025/04/09 10:24:59.832632675,1744187099,832394558,,88.30862426744775,0.4261929988558748,0.0,0.0,0.0,-1.1661269664149927
2025/04/09 10:24:59.934922471,1744187099,934629801,,84.45284271240207,-1.2669943571090219,0.0,0.0,0.0,-1.4927095174790495
2025/04/09 10:25:00.32158293,1744187100,31924040,,80.57298278808557,-1.9913187026976757,0.0,0.0,0.0,-1.888418436050614
2025/04/09 10:25:00.133007039,1744187100,132786987,,77.01070404052719,-1.4598449468613062,0.0,0.0,0.0,-1.5540548563002972
2025/04/09 10:25:00.232451245,1744187100,232238074,,73.18450927733431,-0.024605080488043996,0.0,0.0,0.0,-1.6184203624670417
2025/04/09 10:25:00.334893300,1744187100,333743267,,69.35876464843042,-1.2804667949657844,0.0,0.0,0.0,-1.7719830274625181
2025/04/09 10:25:00.431503381,1744187100,431280429,,65.78166198730456,-0.9729213714599751,0.0,0.0,0.0,-1.8749071359634257
2025/04/09 10:25:00.532814906,1744187100,532257404,,62.151359558105284,-0.5851693153381703,0.0,0.0,0.0,-1.761954426765385
2025/04/09 10:25:00.631992475,1744187100,631740888,,58.417152404784986,-0.3819622397422737,0.0,0.0,0.0,-2.4936661720276163
2025/04/09 10:25:00.733824276,1744187100,733603564,,54.698223114013516,-0.41389173269271495,0.0,0.0,0.0,-2.3997824192047332
2025/04/09 10:25:00.832658103,1744187100,832450173,,51.17124938964612,-2.1077265739493534,0.0,0.0,0.0,-2.768587827671084
2025/04/09 10:25:00.934310426,1744187100,933308736,,47.579223632812486,1.0455490350723373,0.0,0.0,0.0,-2.3556871414185494
2025/04/09 10:25:01.39550118,1744187101,38912930,,43.522384643554616,-0.9154404997825161,0.0,0.0,0.0,-2.3418886661530536
2025/04/09 10:25:01.133859407,1744187101,133646602,,40.51575088495804,-0.9062618613083995,0.0,0.0,0.0,-2.639063596766988
2025/04/09 10:25:01.232956226,1744187101,232758241,,37.128711700439226,-0.7666776776313693,0.0,0.0,0.0,-2.8132109642029164
2025/04/09 10:25:01.331882066,1744187101,331580145,,34.472259521484325,-1.8956636190414144,0.0,0.0,0.0,-2.6742694377899596
2025/04/09 10:25:01.431542360,1744187101,431277956,,31.642700195312464,-2.1727416515350626,0.0,0.0,0.0,-3.4811542034148673
2025/04/09 10:25:01.533121474,1744187101,532915226,,28.877544403076083,-1.348552227020292,0.0,0.0,0.0,-3.3500337600707013
2025/04/09 10:25:01.632103191,1744187101,631874413,,26.72669410705563,-0.7260976433754092,0.0,0.0,0.0,-3.310314655303916
2025/04/09 10:25:01.731996651,1744187101,731722617,,24.061717987060533,-1.4556850194931066,0.0,0.0,0.0,-4.379725456237786
2025/04/09 10:25:01.831562935,1744187101,831343785,,22.399147033691378,0.49199494719504955,0.0,0.0,0.0,-3.977668046951262
2025/04/09 10:25:01.931783176,1744187101,931580772,,20.462057113647457,-0.08080726116895676,0.0,0.0,0.0,-3.840057611465454
2025/04/09 10:25:02.31709192,1744187102,31433767,,18.753952026367184,-2.5102975368499703,0.0,0.0,0.0,-4.182380676269528
2025/04/09 10:25:02.134184204,1744187102,133716891,,16.712249755859368,-1.8913697004318237,0.0,0.0,0.0,-3.9339900016784632
2025/04/09 10:25:02.231600384,1744187102,231347466,,15.66745853424072,-0.4213710427284241,0.0,0.0,0.0,-4.330816268920888
2025/04/09 10:25:02.331633162,1744187102,331419473,,14.320465087890625,-1.8228448629379281,0.0,0.0,0.0,-4.204627513885502
2025/04/09 10:25:02.431724013,1744187102,431341818,,13.162710189819332,-0.608198344707489,0.0,0.0,0.0,-4.012135982513424
2025/04/09 10:25:02.531604561,1744187102,531391688,,12.062198638916012,-0.19940060377120972,0.0,0.0,0.0,-5.1073465347290075
2025/04/09 10:25:02.636383377,1744187102,636029304,,11.131974220275879,0.22782109677791684,0.0,0.0,0.0,-4.277806758880617
2025/04/09 10:25:02.731774017,1744187102,731558547,,10.269729614257812,0.6462802290916443,0.0,0.0,0.0,-5.30354166030884
2025/04/09 10:25:02.832726064,1744187102,832493863,,9.206833839416504,0.40447980165481656,0.0,0.0,0.0,-4.598264217376711
2025/04/09 10:25:02.931284869,1744187102,931080884,,8.944304466247559,0.16825714707374573,0.0,0.0,0.0,-4.345046520233154
2025/04/09 10:25:03.32408236,1744187103,32159751,,8.236833572387695,-1.825079083442687,0.0,0.0,0.0,-4.479172706604004
2025/04/09 10:25:03.133191403,1744187103,132988923,,8.2258243560791,0.2931479215621944,0.0,0.0,0.0,-4.378746509552
2025/04/09 10:25:03.236341464,1744187103,234435750,,7.980905532836916,0.5205789804458614,0.0,0.0,0.0,-5.402219772338869
2025/04/09 10:25:03.331036462,1744187103,330854713,,7.615024089813232,0.21558418869972273,0.0,0.0,0.0,-4.997848033905031
2025/04/09 10:25:03.431327335,1744187103,431101645,,7.844800472259522,0.7901102900505066,0.0,0.0,0.0,-4.911512374877928
2025/04/09 10:25:03.531929738,1744187103,531589137,,7.866692543029786,2.2757549285888676,0.0,0.0,0.0,-5.0079026222229
2025/04/09 10:25:03.632252381,1744187103,632033773,,7.642556190490722,1.387860774993896,0.0,0.0,0.0,-4.794920444488527
2025/04/09 10:25:03.733021964,1744187103,732776465,,7.711032390594482,-0.12304550409317017,0.0,0.0,0.0,-4.771584510803221
2025/04/09 10:25:03.831738158,1744187103,831536103,,8.090584754943848,1.3984204530715956,0.0,0.0,0.0,-4.808966636657713
2025/04/09 10:25:03.932014154,1744187103,931825420,,8.288559913635256,-0.8935732841491695,0.0,0.0,0.0,-4.740815162658691
2025/04/09 10:25:04.34040206,1744187104,33885186,,8.546969413757324,-0.3944036960601802,0.0,0.0,0.0,-5.124515056610109
2025/04/09 10:25:04.131680829,1744187104,131431116,,8.600781440734863,-2.0060715675354013,0.0,0.0,0.0,-4.944651126861578
2025/04/09 10:25:04.231442450,1744187104,231189878,,9.25108814239502,-1.4412580728530893,0.0,0.0,0.0,-4.885272502899172
2025/04/09 10:25:04.335430189,1744187104,335074297,,9.7113618850708,-1.1417475938797002,0.0,0.0,0.0,-5.462305068969727
2025/04/09 10:25:04.431570146,1744187104,431334601,,10.134581565856934,0.6637793183326712,0.0,0.0,0.0,-5.2150402069091815
2025/04/09 10:25:04.532058022,1744187104,531480940,,10.952306747436522,0.6962038278579685,0.0,0.0,0.0,-5.060576915740967
2025/04/09 10:25:04.632120741,1744187104,631880520,,11.638646125793457,-2.1995983123779306,0.0,0.0,0.0,-5.004370689392093
2025/04/09 10:25:04.734111166,1744187104,733840279,,12.328221321105957,0.7333913445472735,0.0,0.0,0.0,-5.229003429412847
2025/04/09 10:25:04.831658135,1744187104,831468420,,13.026636123657228,0.6481481194496146,0.0,0.0,0.0,-5.076361656188965
2025/04/09 10:25:04.931438995,1744187104,931109955,,13.811477661132812,0.5856193900108337,0.0,0.0,0.0,-5.038442611694331
2025/04/09 10:25:05.31153294,1744187105,30928814,,14.526399612426754,0.5638771653175354,0.0,0.0,0.0,-5.411296367645264
2025/04/09 10:25:05.131722616,1744187105,131460097,,15.07478618621826,-1.798457384109498,0.0,0.0,0.0,-5.250844478607174
2025/04/09 10:25:05.232992337,1744187105,232381741,,15.980300903320312,-0.9923617839813241,0.0,0.0,0.0,-5.152332782745361
2025/04/09 10:25:05.331644775,1744187105,331452255,,16.757598876953125,-1.5652202367782584,0.0,0.0,0.0,-5.120379447937015
2025/04/09 10:25:05.435200424,1744187105,434999250,,17.555047988891598,1.6421860456466657,0.0,0.0,0.0,-5.257770538330078
2025/04/09 10:25:05.531624512,1744187105,531374754,,18.18234252929688,1.247186541557312,0.0,0.0,0.0,-5.171840190887448
2025/04/09 10:25:05.633771486,1744187105,633343369,,19.206663131713867,1.0219701528549177,0.0,0.0,0.0,-5.181695461273186
2025/04/09 10:25:05.735695667,1744187105,735417231,,20.224166870117184,0.6692320704460162,0.0,0.0,0.0,-5.156856536865238
2025/04/09 10:25:05.831550229,1744187105,831371462,,20.853816986083984,-0.2768886089324951,0.0,0.0,0.0,-5.19805383682251
2025/04/09 10:25:05.934007425,1744187105,933846060,,21.97397232055664,1.4420369863510132,0.0,0.0,0.0,-5.194118499755863
2025/04/09 10:25:06.34241934,1744187106,31994400,,22.881450653076165,-0.02081137709319769,0.0,0.0,0.0,-5.201138973236066
2025/04/09 10:25:06.132878159,1744187106,132479693,,24.029237747192383,1.5556304454803538,0.0,0.0,0.0,-5.179571151733413
2025/04/09 10:25:06.231427328,1744187106,231205298,,25.034265518188334,2.3793931007386266,0.0,0.0,0.0,-5.337569236755648
2025/04/09 10:25:06.331666476,1744187106,331488417,,26.070053100585298,1.5872005224224104,0.0,0.0,0.0,-5.220584392546652
2025/04/09 10:25:06.433968410,1744187106,433762094,,27.046401977538963,-0.23336224257953297,0.0,0.0,0.0,-5.247942924499096
2025/04/09 10:25:06.535888262,1744187106,535226945,,27.96569824218703,1.4763306379321666,0.0,0.0,0.0,-4.9992632865914395
2025/04/09 10:25:06.633927263,1744187106,633641517,,29.01146507260964,-0.8130106330105704,0.0,0.0,0.0,-5.058499336182084
2025/04/09 10:25:06.731517550,1744187106,731266680,,29.91955184936523,0.07743152230978012,0.0,0.0,0.0,-5.06680154800415
2025/04/09 10:25:06.831823366,1744187106,831604580,,30.86383628845212,1.3042604923248735,0.0,0.0,0.0,-5.152744770050134
2025/04/09 10:25:06.931403904,1744187106,931132829,,31.591932296752926,1.096913933753969,0.0,0.0,0.0,-5.085394382476796
2025/04/09 10:25:07.32245448,1744187107,32036473,,32.659374237059666,-0.40989789366821583,0.0,0.0,0.0,-5.16305160522117
2025/04/09 10:25:07.133504807,1744187107,132771853,,33.92786407470703,0.35695615410804393,0.0,0.0,0.0,-5.146793842315674
2025/04/09 10:25:07.235749051,1744187107,234758574,,34.87247848501947,1.5120244026544452,0.0,0.0,0.0,-5.033388614749136
2025/04/09 10:25:07.332986221,1744187107,332759589,,35.844692230224595,1.1891294717788679,0.0,0.0,0.0,-5.078205108642578
2025/04/09 10:25:07.432972898,1744187107,432764861,,36.84799575805657,2.077188730239934,0.0,0.0,0.0,-5.110838413238689
2025/04/09 10:25:07.533566824,1744187107,532260562,,38.0809516906736,1.1460301876066499,0.0,0.0,0.0,-5.10862159728967
2025/04/09 10:25:07.631542108,1744187107,631130199,,39.03131103515625,1.0876129865646362,0.0,0.0,0.0,-4.791043758392334
2025/04/09 10:25:07.732948377,1744187107,732713169,,40.01386642456235,-0.4653738737008766,0.0,0.0,0.0,-4.9632358551239335
2025/04/09 10:25:07.831193946,1744187107,830963086,,40.94898605346677,-1.1787921190262054,0.0,0.0,0.0,-4.493397712707456
2025/04/09 10:25:07.934321830,1744187107,932205212,,41.86664581298827,-0.2582068741321457,0.0,0.0,0.0,-4.86322593688967
2025/04/09 10:25:08.31355421,1744187108,31073066,,42.54990768432617,-0.27287331223487854,0.0,0.0,0.0,-4.907300949096687
2025/04/09 10:25:08.135963244,1744187108,135754035,,43.54963302612302,-1.6627280712127952,0.0,0.0,0.0,-4.951842784881357
2025/04/09 10:25:08.232197124,1744187108,231903975,,44.55537414550781,-1.251201868057267,0.0,0.0,0.0,-5.008214950561516
2025/04/09 10:25:08.331590948,1744187108,331366600,,45.50121688842773,-0.9979821443557757,0.0,0.0,0.0,-5.14000511169435
2025/04/09 10:25:08.431765309,1744187108,431493427,,46.28328704833983,-1.9473606348037684,0.0,0.0,0.0,-5.134758949279778
2025/04/09 10:25:08.531647187,1744187108,531441712,,47.355770111083956,-3.0627396106719935,0.0,0.0,0.0,-5.105271816253627
2025/04/09 10:25:08.634816260,1744187108,634598405,,48.26069259643555,-1.3182072639465368,0.0,0.0,0.0,-5.069920063018806
2025/04/09 10:25:08.735734007,1744187108,732948571,,49.184696197507705,0.6034736037149031,0.0,0.0,0.0,-5.484487056707451
2025/04/09 10:25:08.831730815,1744187108,831408648,,50.097911834716754,0.6432877779007047,0.0,0.0,0.0,-5.245087623596206
2025/04/09 10:25:08.931504899,1744187108,931268129,,51.006370544433594,0.47969895601272583,0.0,0.0,0.0,-5.664381027221673
2025/04/09 10:25:09.32128698,1744187109,31855480,,51.90815734863024,1.7601810693752018,0.0,0.0,0.0,-5.792977333071491
2025/04/09 10:25:09.135289175,1744187109,135022742,,52.88037872314443,-1.8011896610256226,0.0,0.0,0.0,-5.250994682312225
2025/04/09 10:25:09.233057865,1744187109,232831242,,53.62872314453123,-0.571038901805899,0.0,0.0,0.0,-5.2467641830444265
2025/04/09 10:25:09.332084975,1744187109,331691276,,54.45638656616211,-0.5642360448837298,0.0,0.0,0.0,-5.2287330627441335
2025/04/09 10:25:09.431783734,1744187109,431535073,,55.20019149780221,0.43456742167498597,0.0,0.0,0.0,-5.097273826599732
2025/04/09 10:25:09.531267276,1744187109,531035080,,55.83935546874999,0.8678764700889587,0.0,0.0,0.0,-5.13839673995971
2025/04/09 10:25:09.633640817,1744187109,633421844,,56.76364135742198,-1.9037734270092006,0.0,0.0,0.0,-5.252179145813557
2025/04/09 10:25:09.732848289,1744187109,732554024,,57.58485031127909,-0.034980308264390914,0.0,0.0,0.0,-5.492321014404489
2025/04/09 10:25:09.834682000,1744187109,834401689,,58.36239624023436,0.2969851493835485,0.0,0.0,0.0,-5.257168292999275
2025/04/09 10:25:09.931495957,1744187109,931261624,,58.67969512939453,0.1389757543802279,0.0,0.0,0.0,-5.29464864730835
2025/04/09 10:25:10.33793193,1744187110,31509757,,59.75774765014634,-1.00514245033275,0.0,0.0,0.0,-5.33242845535257
2025/04/09 10:25:10.138056233,1744187110,137795308,,60.30024337768555,-2.281414031982445,0.0,0.0,0.0,-5.367596149444509
2025/04/09 10:25:10.238584139,1744187110,238284988,,61.22863388061559,-0.17167370021463135,0.0,0.0,0.0,-5.407724380490336
2025/04/09 10:25:10.334692766,1744187110,334485189,,61.953453063964574,0.6905075907708387,0.0,0.0,0.0,-5.363340854645038
2025/04/09 10:25:10.431581937,1744187110,431402384,,62.68172073364258,0.2582099139690399,0.0,0.0,0.0,-6.046601295471184
2025/04/09 10:25:10.533327446,1744187110,533108609,,63.59754180908182,1.5417040586472996,0.0,0.0,0.0,-5.870610713959053
2025/04/09 10:25:10.631915447,1744187110,631680127,,64.32872772216797,1.5254834890365583,0.0,0.0,0.0,-5.783626079559326
2025/04/09 10:25:10.731841430,1744187110,731651396,,64.89809417724575,0.05424740537975303,0.0,0.0,0.0,-5.843573570250946
2025/04/09 10:25:10.834782247,1744187110,833700733,,65.48051452636679,-1.5639514923098794,0.0,0.0,0.0,-5.65620279312072
2025/04/09 10:25:10.931062394,1744187110,930878177,,66.12640380859375,-1.4599288702011108,0.0,0.0,0.0,-5.782315731048598
2025/04/09 10:25:11.34411626,1744187111,32861152,,66.41176605224616,-3.470894813537301,0.0,0.0,0.0,-5.597414493561466
2025/04/09 10:25:11.131396199,1744187111,131223679,,66.61865997314453,-3.242406368255617,0.0,0.0,0.0,-5.953386306762688
2025/04/09 10:25:11.234512572,1744187111,234240770,,67.53565216064452,-3.808794498443607,0.0,0.0,0.0,-5.9004888534545685
2025/04/09 10:25:11.335956850,1744187111,335661925,,67.83479309082031,-2.713678359985341,0.0,0.0,0.0,-6.146068096160903
2025/04/09 10:25:11.432241522,1744187111,431922161,,68.44551849365234,-2.2269630432128853,0.0,0.0,0.0,-6.626879215240514
2025/04/09 10:25:11.533857523,1744187111,533173347,,69.23055267323772,-0.18757916983553358,0.0,0.0,0.0,-6.292856216512213
2025/04/09 10:25:11.631923207,1744187111,631692130,,69.78967285156249,-1.1189671754837143,0.0,0.0,0.0,-6.143963336944573
2025/04/09 10:25:11.732323039,1744187111,731789549,,70.3143310546875,-0.7794039845466632,0.0,0.0,0.0,-7.754380226135247
2025/04/09 10:25:11.831721755,1744187111,831454271,,70.93727874755857,-0.151954501867273,0.0,0.0,0.0,-6.723055839538624
2025/04/09 10:25:11.932716481,1744187111,931648949,,71.5749282836914,-0.3700188398361153,0.0,0.0,0.0,-7.625990867614746
2025/04/09 10:25:12.31053041,1744187112,30873266,,71.98136138916016,-0.6122559309005702,0.0,0.0,0.0,-7.690917015075705
2025/04/09 10:25:12.131501760,1744187112,131269934,,72.37931823730469,0.13541096448899737,0.0,0.0,0.0,-6.851619720458999
2025/04/09 10:25:12.231241239,1744187112,231032312,,72.67471313476564,0.362427562475208,0.0,0.0,0.0,-7.106886386871338
2025/04/09 10:25:12.332421836,1744187112,332224812,,73.05546569824219,0.10956127941608784,0.0,0.0,0.0,-6.988543987274163
2025/04/09 10:25:12.434432792,1744187112,434098850,,73.52200317382812,0.661930322647093,0.0,0.0,0.0,-7.886988639831564
2025/04/09 10:25:12.532553372,1744187112,532302534,,73.93426513671825,-1.805315613748201,0.0,0.0,0.0,-7.307404518124379
2025/04/09 10:25:12.631652682,1744187112,631437655,,74.29611968994139,-2.0800571441650355,0.0,0.0,0.0,-7.205346584320054
2025/04/09 10:25:12.731765992,1744187112,731506404,,74.70372772216791,-0.6030804514884398,0.0,0.0,0.0,-8.017599105835089
2025/04/09 10:25:12.831662538,1744187112,831399420,,74.79336547851561,-1.9843775033950628,0.0,0.0,0.0,-7.580120086669943
2025/04/09 10:25:12.934033334,1744187112,933795828,,75.07026672363281,0.4632259607314886,0.0,0.0,0.0,-7.443303585052455
2025/04/09 10:25:13.34455498,1744187113,34164255,,75.53514862060547,-0.26993322372437945,0.0,0.0,0.0,-8.87948799133298
2025/04/09 10:25:13.131792759,1744187113,131562554,,75.66679382324219,-0.9809040427207947,0.0,0.0,0.0,-9.123163223266594
2025/04/09 10:25:13.233114618,1744187113,232872341,,76.2789840698242,-0.5299772024154574,0.0,0.0,0.0,-8.276558876037619
2025/04/09 10:25:13.332881807,1744187113,332673516,,76.58508300781249,-2.2174715995788077,0.0,0.0,0.0,-8.121904373169038
2025/04/09 10:25:13.433939946,1744187113,433191086,,76.8508377075198,-3.7000093460077768,0.0,0.0,0.0,-9.18125534057718
2025/04/09 10:25:13.532007383,1744187113,531462225,,77.10884094238281,-3.3866333961486816,0.0,0.0,0.0,-8.52823543548584
2025/04/09 10:25:13.633390103,1744187113,633171638,,77.16535949706326,-1.4645804166772116,0.0,0.0,0.0,-8.372184753423447
2025/04/09 10:25:13.732254160,1744187113,731958328,,77.23942565917969,-1.209752082824707,0.0,0.0,0.0,-9.124454498291001
2025/04/09 10:25:13.831564806,1744187113,831329662,,77.89641571044922,-2.720099925994875,0.0,0.0,0.0,-8.642967224121094
2025/04/09 10:25:13.931623642,1744187113,931436219,,78.51626586914072,-3.9046928882597776,0.0,0.0,0.0,-8.628391265869375
2025/04/09 10:25:14.33778360,1744187114,33578584,,78.2902145385742,-2.903613328933716,0.0,0.0,0.0,-8.986969947814956
2025/04/09 10:25:14.131424456,1744187114,131196684,,78.40670013427736,-2.2851521968841517,0.0,0.0,0.0,-9.688929557800314
2025/04/09 10:25:14.232680050,1744187114,232435800,,78.51448822021484,-2.90205669403076,0.0,0.0,0.0,-9.332833290100105
2025/04/09 10:25:14.331379498,1744187114,331193931,,78.96562194824219,-2.490206718444824,0.0,0.0,0.0,-9.382602691650376
2025/04/09 10:25:14.432290186,1744187114,431167761,,79.02595520019531,-2.79445481300354,0.0,0.0,0.0,-9.154115676879876
2025/04/09 10:25:14.532241440,1744187114,531400869,,79.08059692382812,-1.5761725902557195,0.0,0.0,0.0,-9.691361427307179
2025/04/09 10:25:14.631635035,1744187114,631373679,,79.24744415283205,-0.4266081452369619,0.0,0.0,0.0,-11.882863998413093
2025/04/09 10:25:14.732288827,1744187114,732048848,,79.37291717529283,-2.118671178817623,0.0,0.0,0.0,-12.231897354126282
2025/04/09 10:25:14.831611761,1744187114,831443272,,79.47847747802734,-2.4243025779724103,0.0,0.0,0.0,-10.441147804260233
2025/04/09 10:25:14.932825394,1744187114,932571420,,79.59068298339841,-3.8463816642760715,0.0,0.0,0.0,-10.402955055236767
2025/04/09 10:25:15.31846576,1744187115,31603439,,79.7919998168947,-3.8124361038208416,0.0,0.0,0.0,-12.304677009582768
2025/04/09 10:25:15.131712891,1744187115,131363573,,79.95379638671878,-3.6662511825561506,0.0,0.0,0.0,-13.109761238098166
2025/04/09 10:25:15.231888270,1744187115,231676266,,80.1082992553734,-2.6887660026563083,0.0,0.0,0.0,-11.849370956424004
2025/04/09 10:25:15.332362409,1744187115,332093193,,80.13382720947497,-4.911432266236288,0.0,0.0,0.0,-11.58217430114906
2025/04/09 10:25:15.437260003,1744187115,436737775,,80.199844360353,-2.1809568405165844,0.0,0.0,0.0,-11.399884223939651
2025/04/09 10:25:15.535219820,1744187115,534843736,,80.60952758789062,-2.322573184967041,0.0,0.0,0.0,-13.049291610717745
2025/04/09 10:25:15.634737497,1744187115,633701127,,80.21479797363281,-2.0045886039733887,0.0,0.0,0.0,-11.776633262634263
2025/04/09 10:25:15.731293837,1744187115,731071852,,80.23985290527342,-2.2249364852905256,0.0,0.0,0.0,-11.499897956848145
2025/04/09 10:25:15.833275117,1744187115,833039175,,80.18857574462896,-4.240801334381125,0.0,0.0,0.0,-14.481962203979535
2025/04/09 10:25:15.931582470,1744187115,931317094,,80.10120391845703,-4.891644477844231,0.0,0.0,0.0,-13.160145759582534
2025/04/09 10:25:16.35119867,1744187116,34834009,,80.04109954843298,-2.5747871399480395,0.0,0.0,0.0,-12.41028690349507
2025/04/09 10:25:16.134200637,1744187116,133110859,,80.19145965576172,-1.702520966529839,0.0,0.0,0.0,-12.110286712646477
2025/04/09 10:25:16.231936631,1744187116,230959533,,80.22219085693358,-0.4767187833785904,0.0,0.0,0.0,-13.027527809143088
2025/04/09 10:25:16.336017603,1744187116,334169905,,80.16465759277679,-4.6310763359084035,0.0,0.0,0.0,-13.255220413209777
2025/04/09 10:25:16.434037984,1744187116,433825167,,80.21097564697352,-3.0346434116367647,0.0,0.0,0.0,-13.439914703370036
2025/04/09 10:25:16.532050324,1744187116,531831311,,80.2461700439456,-4.1020746231080025,0.0,0.0,0.0,-13.668832778930884
2025/04/09 10:25:16.634931979,1744187116,634472681,,80.13967895507814,-4.169228076934818,0.0,0.0,0.0,-13.823256492614746
2025/04/09 10:25:16.739942251,1744187116,736091277,,80.17280578613558,-1.967265129090924,0.0,0.0,0.0,-14.001605033877993
2025/04/09 10:25:16.831891379,1744187116,831423436,,80.08339691162142,-1.9043561220170435,0.0,0.0,0.0,-15.054203033447685
2025/04/09 10:25:16.937938501,1744187116,937766365,,79.92564392089949,-3.570060253143735,0.0,0.0,0.0,-14.744605064392822
2025/04/09 10:25:17.42896820,1744187117,40248319,,79.79974365234855,-5.423377513886882,0.0,0.0,0.0,-14.723311424256146
2025/04/09 10:25:17.133567299,1744187117,133320170,,79.73087310791128,-3.906958818436067,0.0,0.0,0.0,-14.717959403992424
2025/04/09 10:25:17.231838942,1744187117,231571014,,79.6053237915039,-3.367870092391975,0.0,0.0,0.0,-15.056577682495117
2025/04/09 10:25:17.348206149,1744187117,345536595,,79.50563812255925,-4.360743045807066,0.0,0.0,0.0,-16.137496948242486
2025/04/09 10:25:17.436169474,1744187117,435685113,,79.32910156250003,-4.455896377563482,0.0,0.0,0.0,-15.323400497436545
2025/04/09 10:25:17.542742841,1744187117,538705935,,79.32018280029298,-4.3903021812438965,0.0,0.0,0.0,-15.028703689575224
2025/04/09 10:25:17.640871873,1744187117,640134162,,79.27095031738324,-4.604184150695886,0.0,0.0,0.0,-17.512313842773644
2025/04/09 10:25:17.744731508,1744187117,744382606,,78.72370147705078,-5.186201572418211,0.0,0.0,0.0,-17.03250694274901
2025/04/09 10:25:17.834111611,1744187117,833863505,,79.3729476928711,-5.232666015625007,0.0,0.0,0.0,-17.034257888793938
2025/04/09 10:25:17.931821040,1744187117,931512974,,78.6194381713868,-4.406741142272947,0.0,0.0,0.0,-16.80454826354986
2025/04/09 10:25:18.32266099,1744187118,31999140,,78.5355300903324,-5.773797988891642,0.0,0.0,0.0,-16.995822906494077
2025/04/09 10:25:18.132073876,1744187118,131857978,,78.80646514892983,-3.938764572144814,0.0,0.0,0.0,-17.03872108459575
2025/04/09 10:25:18.231720419,1744187118,231529608,,78.69862365722669,-2.932190179824863,0.0,0.0,0.0,-17.049205780029382
2025/04/09 10:25:18.331406963,1744187118,331200389,,78.59482574462892,-3.664360523223884,0.0,0.0,0.0,-16.72520256042482
2025/04/09 10:25:18.431661152,1744187118,431337544,,78.32167816162118,-3.1196720600128316,0.0,0.0,0.0,-17.48977851867683
2025/04/09 10:25:18.531260062,1744187118,531059526,,78.07905578613281,-2.8659050464630127,0.0,0.0,0.0,-17.706804275512695
2025/04/09 10:25:18.636713490,1744187118,636472819,,77.80360412597662,-3.4487977027893244,0.0,0.0,0.0,-18.112434387207053
2025/04/09 10:25:18.732051555,1744187118,731793837,,77.62019348144676,-3.932062387466697,0.0,0.0,0.0,-20.937505722045977
2025/04/09 10:25:18.831838759,1744187118,831562100,,77.4403228759766,-4.5322122573852575,0.0,0.0,0.0,-21.271900177001946
2025/04/09 10:25:18.932087692,1744187118,931896448,,77.25125885009797,-5.906659603118886,0.0,0.0,0.0,-21.611719131469464
2025/04/09 10:25:19.31533062,1744187119,31278636,,77.05772399902531,-5.554616928100792,0.0,0.0,0.0,-19.843820571899016
2025/04/09 10:25:19.134248545,1744187119,133579760,,76.84725952149131,-2.4046628475210134,0.0,0.0,0.0,-18.94082641601822
2025/04/09 10:25:19.232074639,1744187119,231845866,,76.85643005371108,-4.348817348480214,0.0,0.0,0.0,-18.63385391235346
2025/04/09 10:25:19.333281547,1744187119,333089100,,76.68080139160175,-5.1945228576660405,0.0,0.0,0.0,-19.591278076171797
2025/04/09 10:25:19.432146147,1744187119,431930561,,76.3584976196291,-6.5515809059142995,0.0,0.0,0.0,-19.775531768798622
2025/04/09 10:25:19.531637192,1744187119,531477104,,76.17828369140629,-5.7210955619812065,0.0,0.0,0.0,-22.465753555297873
2025/04/09 10:25:19.635663240,1744187119,634574166,,75.90469360351948,-5.0887212753299504,0.0,0.0,0.0,-21.018024444578685
2025/04/09 10:25:19.732025647,1744187119,731638174,,75.66821289062501,-5.357831001281738,0.0,0.0,0.0,-20.719352722167976
2025/04/09 10:25:19.831813241,1744187119,831521529,,75.50740814208984,-5.994271278381344,0.0,0.0,0.0,-20.576333999633782
2025/04/09 10:25:19.931728664,1744187119,931479573,,75.33523559570314,-4.867085456848134,0.0,0.0,0.0,-23.129953384399442
2025/04/09 10:25:20.31651760,1744187120,31486520,,75.13166046142584,-5.059673786163337,0.0,0.0,0.0,-23.549098968505845
2025/04/09 10:25:20.133276794,1744187120,132986563,,74.93151855468753,-5.264153957366947,0.0,0.0,0.0,-23.652610778808558
2025/04/09 10:25:20.232390510,1744187120,232098638,,74.658676147461,-5.435789108276365,0.0,0.0,0.0,-22.12974357604982
2025/04/09 10:25:20.331383956,1744187120,331190389,,74.40601348876953,-5.532098293304442,0.0,0.0,0.0,-21.847032546997063
2025/04/09 10:25:20.432625767,1744187120,432393609,,74.16537475585943,-5.672517299652105,0.0,0.0,0.0,-22.382789611816392
2025/04/09 10:25:20.531423415,1744187120,531227519,,73.89578247070372,-5.238653182983416,0.0,0.0,0.0,-21.66711235046376
2025/04/09 10:25:20.633493291,1744187120,633296938,,73.78443908691492,-7.0823788642881915,0.0,0.0,0.0,-21.84816360473512
2025/04/09 10:25:20.734218512,1744187120,733992577,,73.6325683593751,-6.69087886810302,0.0,0.0,0.0,-21.57868385314938
2025/04/09 10:25:20.831828047,1744187120,831591327,,73.35486602783206,-5.425518989562965,0.0,0.0,0.0,-22.402629852294865
2025/04/09 10:25:20.932116063,1744187120,931002417,,73.09075164794925,-5.056260585784905,0.0,0.0,0.0,-22.60667419433593
2025/04/09 10:25:21.31637963,1744187121,31384158,,72.88914489746095,-4.009088516235341,0.0,0.0,0.0,-24.876131057739286
2025/04/09 10:25:21.132746504,1744187121,132566173,,72.62561035157162,-6.1057834625232985,0.0,0.0,0.0,-25.32478141783318
2025/04/09 10:25:21.232858842,1744187121,232654735,,72.45522308349723,-4.842751979827774,0.0,0.0,0.0,-25.337205886839612
2025/04/09 10:25:21.332267905,1744187121,332075004,,72.12870788574389,-6.778059482574086,0.0,0.0,0.0,-25.764181137081877
2025/04/09 10:25:21.432381415,1744187121,432193024,,71.88503265380868,-5.3612179756164124,0.0,0.0,0.0,-25.77322006225569
2025/04/09 10:25:21.532918647,1744187121,531678390,,71.58487701416034,-7.097224712371734,0.0,0.0,0.0,-25.723228454589396
2025/04/09 10:25:21.634277933,1744187121,631877211,,71.3471832275393,-5.530543804168628,0.0,0.0,0.0,-25.402162551879556
2025/04/09 10:25:21.732641047,1744187121,732286303,,71.0348205566412,-7.255424022674385,0.0,0.0,0.0,-26.05997657775763
2025/04/09 10:25:21.831109577,1744187121,830886920,,70.75486755371095,-7.426734924316401,0.0,0.0,0.0,-24.768596649169922
2025/04/09 10:25:21.932704324,1744187121,932451528,,70.41609954836451,-4.578868389128626,0.0,0.0,0.0,-24.074949264499494
2025/04/09 10:25:22.32703311,1744187122,31920207,,70.30446624756502,-6.985077857969902,0.0,0.0,0.0,-23.83905410765479
2025/04/09 10:25:22.131677005,1744187122,131478677,,70.03421020507812,-6.691275119781492,0.0,0.0,0.0,-25.02752304077149
2025/04/09 10:25:22.232970704,1744187122,232755512,,69.71336364746102,-6.308917522430409,0.0,0.0,0.0,-24.548444747924755
2025/04/09 10:25:22.331871803,1744187122,331694852,,69.56047058105494,-8.098821640014513,0.0,0.0,0.0,-24.703470230101892
2025/04/09 10:25:22.432046588,1744187122,431855664,,69.35055541992189,-7.195201873779284,0.0,0.0,0.0,-24.851434707641545
2025/04/09 10:25:22.531761430,1744187122,531527041,,68.77201843261729,-5.543113708496023,0.0,0.0,0.0,-25.12617492675762
2025/04/09 10:25:22.632426093,1744187122,631871560,,68.53118896484389,-7.130954265594401,0.0,0.0,0.0,-25.440469741820905
2025/04/09 10:25:22.731556009,1744187122,731331982,,68.23834991455077,-7.00836801528931,0.0,0.0,0.0,-25.577058792114258
2025/04/09 10:25:22.832185948,1744187122,831946681,,67.93804931640643,-5.160201072692773,0.0,0.0,0.0,-25.71837234497032
2025/04/09 10:25:22.931730322,1744187122,931527885,,67.9999465942383,-5.497620582580559,0.0,0.0,0.0,-25.746118545532205
2025/04/09 10:25:23.31917703,1744187123,31740375,,67.75157165527347,-5.899562835693359,0.0,0.0,0.0,-25.533496856689403
2025/04/09 10:25:23.131742620,1744187123,131518945,,67.37842559814453,-4.774299144744864,0.0,0.0,0.0,-27.686084747314467
2025/04/09 10:25:23.235946481,1744187123,235709984,,66.98750305175886,-6.638773918151417,0.0,0.0,0.0,-26.763217926022776
2025/04/09 10:25:23.331437311,1744187123,331225618,,66.27710723876953,-6.97676420211792,0.0,0.0,0.0,-26.290611267089815
2025/04/09 10:25:23.431832786,1744187123,431662271,,66.40538787849717,-4.304717063893619,0.0,0.0,0.0,-26.429622650026246
2025/04/09 10:25:23.532450891,1744187123,532225239,,66.19316101074622,-7.286754131315332,0.0,0.0,0.0,-26.43006706236769
2025/04/09 10:25:23.631867219,1744187123,631687825,,65.97855377197277,-5.48602724075308,0.0,0.0,0.0,-26.55846214294401
2025/04/09 10:25:23.732594315,1744187123,732207064,,65.70983123779527,-7.83690357208145,0.0,0.0,0.0,-26.690277099603193
2025/04/09 10:25:23.834724995,1744187123,831695685,,65.44934082031253,-9.117035865783652,0.0,0.0,0.0,-26.501722335815295
2025/04/09 10:25:23.931985807,1744187123,931738752,,65.14973449707031,-7.628617763519246,0.0,0.0,0.0,-27.608886718749943
2025/04/09 10:25:24.32555989,1744187124,32304020,,64.59955596923892,-6.430221080779777,0.0,0.0,0.0,-27.152097702025067
2025/04/09 10:25:24.133420707,1744187124,133217035,,64.33786773681652,-8.140922546386616,0.0,0.0,0.0,-27.412281036376548
2025/04/09 10:25:24.235115355,1744187124,234844504,,64.05041503906273,-6.049850940704163,0.0,0.0,0.0,-27.5050964355462
2025/04/09 10:25:24.335759677,1744187124,333638596,,63.75511932373057,-7.824466228484997,0.0,0.0,0.0,-27.626369476317976
2025/04/09 10:25:24.435204115,1744187124,435029172,,63.48708724975599,-5.832647800445418,0.0,0.0,0.0,-27.752275466918505
2025/04/09 10:25:24.553375313,1744187124,553113740,,63.15687179565437,-7.69575595855704,0.0,0.0,0.0,-27.868057250976264
2025/04/09 10:25:24.637027564,1744187124,636709370,,63.52568817138672,-7.739291191101076,0.0,0.0,0.0,-27.874950408935547
2025/04/09 10:25:24.734191818,1744187124,733898866,,62.88520431518555,-7.587339401245117,0.0,0.0,0.0,-27.985637664794915
2025/04/09 10:25:24.833497337,1744187124,831764636,,62.58932113647463,-7.10144567489623,0.0,0.0,0.0,-27.83424568176266
2025/04/09 10:25:24.931312832,1744187124,931087401,,62.26305389404304,-7.205572128295902,0.0,0.0,0.0,-29.489873886108263
2025/04/09 10:25:25.36161193,1744187125,35906888,,61.980514526367195,-7.343590259552004,0.0,0.0,0.0,-29.767061233520508
2025/04/09 10:25:25.131737281,1744187125,131495730,,61.7198371887207,-6.94552612304687,0.0,0.0,0.0,-29.862358093261697
2025/04/09 10:25:25.233839738,1744187125,233572075,,61.47035980224611,-6.792707443237308,0.0,0.0,0.0,-29.898874282836907
2025/04/09 10:25:25.334656180,1744187125,334492351,,61.26111602783204,-6.786615848541256,0.0,0.0,0.0,-29.641357421874986
2025/04/09 10:25:25.434866227,1744187125,434581060,,60.930309295654354,-6.303162574768045,0.0,0.0,0.0,-28.81163597106925
2025/04/09 10:25:25.532922487,1744187125,532709724,,60.66182708740236,-5.2628426551818634,0.0,0.0,0.0,-28.803169250488224
2025/04/09 10:25:25.633628183,1744187125,633379485,,60.391605377197735,-7.483635902404378,0.0,0.0,0.0,-29.1623973846418
2025/04/09 10:25:25.734200099,1744187125,733952204,,60.1366806030274,-5.773321628570468,0.0,0.0,0.0,-29.03674697875951
2025/04/09 10:25:25.833133773,1744187125,832853359,,59.832897186279396,-6.230287551879865,0.0,0.0,0.0,-29.934387207031023
2025/04/09 10:25:25.934696740,1744187125,934466576,,59.52542114257824,-8.115189552306978,0.0,0.0,0.0,-30.38712501525825
2025/04/09 10:25:26.33858751,1744187126,33617892,,59.24231719970707,-6.394364833831705,0.0,0.0,0.0,-30.42554855346657
2025/04/09 10:25:26.133174387,1744187126,132094931,,58.94934844970703,-6.477815628051756,0.0,0.0,0.0,-30.45103645324707
2025/04/09 10:25:26.232283021,1744187126,232054830,,58.66967391967775,-6.005523681640616,0.0,0.0,0.0,-30.498888015747063
2025/04/09 10:25:26.335229842,1744187126,334920500,,58.35995101928725,-6.724307060241664,0.0,0.0,0.0,-30.58753395080536
2025/04/09 10:25:26.433062192,1744187126,432845855,,58.114540100097656,-6.9103827476501465,0.0,0.0,0.0,-30.539638519287102
2025/04/09 10:25:26.532410082,1744187126,532205374,,57.817977905273665,-5.389511108398217,0.0,0.0,0.0,-30.72124671935955
2025/04/09 10:25:26.631606077,1744187126,631388716,,57.529834747314446,-6.937696933746295,0.0,0.0,0.0,-29.808151245117116
2025/04/09 10:25:26.732552326,1744187126,731675842,,57.28358078002931,-6.349175930023177,0.0,0.0,0.0,-29.78261756896969
2025/04/09 10:25:26.833767221,1744187126,833620988,,56.72048187255903,-7.841936588286984,0.0,0.0,0.0,-30.262033462522567
2025/04/09 10:25:26.931757937,1744187126,931540575,,56.464260101318374,-7.436449527740471,0.0,0.0,0.0,-30.02638816833494
2025/04/09 10:25:27.31895235,1744187127,31708187,,56.21244049072283,-5.9245910644529385,0.0,0.0,0.0,-30.093727111815717
2025/04/09 10:25:27.133374261,1744187127,132080293,,55.949764251708984,-6.073968887329102,0.0,0.0,0.0,-30.16077041625976
2025/04/09 10:25:27.233207568,1744187127,233002921,,55.68621063232428,-7.4569721221922975,0.0,0.0,0.0,-30.223970413207667
2025/04/09 10:25:27.335602684,1744187127,333646155,,55.98487472534184,-8.217932701110811,0.0,0.0,0.0,-30.228637695312372
2025/04/09 10:25:27.433855074,1744187127,433664089,,55.697700500488295,-6.474337577819741,0.0,0.0,0.0,-30.294454574584748
2025/04/09 10:25:27.531565793,1744187127,531285895,,55.404930114746186,-7.917696475982542,0.0,0.0,0.0,-30.358163833617738
2025/04/09 10:25:27.631889837,1744187127,631661164,,55.11140441894535,-9.258444786071701,0.0,0.0,0.0,-30.416534423827883
2025/04/09 10:25:27.732262345,1744187127,732014126,,54.56484985351567,-7.997432708740169,0.0,0.0,0.0,-30.38794517517072
2025/04/09 10:25:27.831276815,1744187127,831071397,,54.23068618774414,-7.642302513122557,0.0,0.0,0.0,-30.565555572509773
2025/04/09 10:25:27.931825610,1744187127,931621567,,53.959072113037124,-8.061400413513175,0.0,0.0,0.0,-30.843666076660128
2025/04/09 10:25:28.32747669,1744187128,30963182,,53.70444869995117,-7.731917381286621,0.0,0.0,0.0,-30.60308837890622
2025/04/09 10:25:28.132285881,1744187128,132086936,,53.208259582519574,-5.758815288543586,0.0,0.0,0.0,-30.69615936279272
2025/04/09 10:25:28.231567421,1744187128,231288571,,52.962215423583984,-6.1997718811035085,0.0,0.0,0.0,-30.796110153198207
2025/04/09 10:25:28.331567646,1744187128,331304841,,52.71451950073244,-4.901336193084667,0.0,0.0,0.0,-30.840274810790874
2025/04/09 10:25:28.431496563,1744187128,431282465,,52.44879913330088,-6.470814228057709,0.0,0.0,0.0,-30.889133453368608
2025/04/09 10:25:28.532353339,1744187128,532074477,,52.21432876586915,-5.254317760467503,0.0,0.0,0.0,-30.944570541381765
2025/04/09 10:25:28.633284869,1744187128,633018753,,51.92008209228518,-7.166669845580957,0.0,0.0,0.0,-30.98477745056126
2025/04/09 10:25:28.732850536,1744187128,732638372,,51.64069747924812,-5.659620761871228,0.0,0.0,0.0,-31.020620346068988
2025/04/09 10:25:28.834733483,1744187128,832145440,,51.34489059448245,-7.589555263519188,0.0,0.0,0.0,-31.060508728027102
2025/04/09 10:25:28.932860203,1744187128,932657028,,51.072635650634766,-6.593576431274396,0.0,0.0,0.0,-31.101037979125934
2025/04/09 10:25:29.33404958,1744187129,33219723,,50.78371047973633,-7.094500541687006,0.0,0.0,0.0,-31.13581085205074
2025/04/09 10:25:29.131191370,1744187129,130907140,,51.03379058837892,-7.821342468261697,0.0,0.0,0.0,-31.140956878662053
2025/04/09 10:25:29.231294686,1744187129,231060300,,50.499176025390625,-7.850625991821291,0.0,0.0,0.0,-31.13398551940916
2025/04/09 10:25:29.332275590,1744187129,332042841,,50.22486114501956,-5.675420284271093,0.0,0.0,0.0,-31.23005294799769
2025/04/09 10:25:29.431618482,1744187129,431403216,,49.95760345458985,-6.144695281982413,0.0,0.0,0.0,-31.658422470092745
2025/04/09 10:25:29.531551943,1744187129,531343618,,49.73676681518555,-6.253621101379392,0.0,0.0,0.0,-31.669353485107408
2025/04/09 10:25:29.633301129,1744187129,633046809,,49.473106384277344,-6.5873975753784215,0.0,0.0,0.0,-31.689964294433565
2025/04/09 10:25:29.732498916,1744187129,732272173,,49.22520828247074,-5.087926864623931,0.0,0.0,0.0,-31.70662117004369
2025/04/09 10:25:29.835103327,1744187129,834850447,,48.98902130127021,-8.602249145506285,0.0,0.0,0.0,-31.40853309630846
2025/04/09 10:25:29.932151699,1744187129,931979766,,48.75302505493165,-6.713154315948401,0.0,0.0,0.0,-31.505624771117986
2025/04/09 10:25:30.32607210,1744187130,32290888,,48.50711441040043,-7.605061531066863,0.0,0.0,0.0,-31.401554107665845
2025/04/09 10:25:30.131735327,1744187130,131475018,,48.22777557373047,-7.700386047363281,0.0,0.0,0.0,-31.38024330139158
2025/04/09 10:25:30.232480105,1744187130,232242785,,48.04217910766602,-8.982238769531204,0.0,0.0,0.0,-31.6470623016356
2025/04/09 10:25:30.332268051,1744187130,332024688,,47.757614135742244,-6.579397201537846,0.0,0.0,0.0,-31.70705032348573
2025/04/09 10:25:30.434761005,1744187130,432466616,,47.46499633789063,-7.183801174163813,0.0,0.0,0.0,-31.515422821044872
2025/04/09 10:25:30.532933273,1744187130,532586991,,47.20578002929689,-7.315371513366697,0.0,0.0,0.0,-31.51578521728515
2025/04/09 10:25:30.632190359,1744187130,631944022,,46.92549896240234,-5.4865899085997825,0.0,0.0,0.0,-31.610315322875806
2025/04/09 10:25:30.732714292,1744187130,731051111,,46.647544860839844,-5.515702247619626,0.0,0.0,0.0,-31.616773605346687
2025/04/09 10:25:30.832330361,1744187130,832061966,,46.40817642211914,-4.902947425842276,0.0,0.0,0.0,-31.60952949523923
2025/04/09 10:25:30.931462798,1744187130,931170617,,46.12647247314454,-5.396339416503901,0.0,0.0,0.0,-31.599187850952134
2025/04/09 10:25:31.36039604,1744187131,35383716,,45.897361755371094,-6.715943813323941,0.0,0.0,0.0,-31.557544708251903
2025/04/09 10:25:31.135867698,1744187131,134408557,,45.449249267578125,-5.8043432235717685,0.0,0.0,0.0,-31.572679519653292
2025/04/09 10:25:31.231948469,1744187131,231728775,,45.22636795043945,-4.555708885192839,0.0,0.0,0.0,-31.566743850707944
2025/04/09 10:25:31.332927244,1744187131,331867428,,45.005741119384766,-4.8170399665832555,0.0,0.0,0.0,-31.570959091186516
2025/04/09 10:25:31.431501883,1744187131,431207450,,45.225067138671875,-5.141547679901123,0.0,0.0,0.0,-31.576988220214858
2025/04/09 10:25:31.531652234,1744187131,531463442,,44.789325714111456,-7.092345237731619,0.0,0.0,0.0,-31.564828872679634
2025/04/09 10:25:31.631606945,1744187131,631405056,,44.30432128906252,-7.83337116241454,0.0,0.0,0.0,-31.564329147338803
2025/04/09 10:25:31.733461663,1744187131,733229895,,44.50674057006835,-7.860359191894531,0.0,0.0,0.0,-31.57344818115233
2025/04/09 10:25:31.832482658,1744187131,832247683,,44.02443313598633,-6.415511131286566,0.0,0.0,0.0,-31.57485961914051
2025/04/09 10:25:31.932464106,1744187131,931415437,,43.78868484497076,-8.2968626022337,0.0,0.0,0.0,-31.511680603026797
2025/04/09 10:25:32.34637077,1744187132,34087121,,43.29737854003906,-7.328032970428456,0.0,0.0,0.0,-31.540365219116183
2025/04/09 10:25:32.132606577,1744187132,132337062,,43.02942657470703,-7.042499542236326,0.0,0.0,0.0,-31.515045166015604
2025/04/09 10:25:32.232385853,1744187132,232129644,,42.79815673828125,-6.550390243530268,0.0,0.0,0.0,-31.5167007446289
2025/04/09 10:25:32.331200997,1744187132,330932134,,42.99057388305664,-6.575906276702877,0.0,0.0,0.0,-31.525842666626005
2025/04/09 10:25:32.434411655,1744187132,434163193,,42.573715209960945,-7.2584524154663,0.0,0.0,0.0,-31.53697967529294
2025/04/09 10:25:32.538369600,1744187132,536928944,,42.351619720458984,-6.519839286804192,0.0,0.0,0.0,-31.420431137084925
2025/04/09 10:25:32.631899947,1744187132,631620615,,42.132492065429744,-4.734626293182175,0.0,0.0,0.0,-31.45636940002388
2025/04/09 10:25:32.731296262,1744187132,731091582,,41.91216278076172,-4.155847072601313,0.0,0.0,0.0,-31.21467590332029
2025/04/09 10:25:32.833356686,1744187132,833095566,,41.70104598999025,-4.689756393432619,0.0,0.0,0.0,-31.175168991088853
2025/04/09 10:25:32.931183436,1744187132,930964067,,41.47443389892578,-5.084144592285157,0.0,0.0,0.0,-31.127397537231438
2025/04/09 10:25:33.36062529,1744187133,35820026,,41.2403450012207,-5.454555988311767,0.0,0.0,0.0,-31.084445953369134
2025/04/09 10:25:33.142307060,1744187133,138901846,,40.834800720214886,-7.345138072967368,0.0,0.0,0.0,-31.24648666381789
2025/04/09 10:25:33.236426882,1744187133,235404365,,40.566291809082024,-7.205847740173342,0.0,0.0,0.0,-31.329080581665053
2025/04/09 10:25:33.335879947,1744187133,335211017,,40.743125915527344,-7.229169845581053,0.0,0.0,0.0,-31.338212966918945
2025/04/09 10:25:33.432861419,1744187133,432686257,,40.502826690673835,-6.76493453979492,0.0,0.0,0.0,-31.307621002197273
2025/04/09 10:25:33.531307041,1744187133,531087308,,40.064350128173835,-7.474480628967276,0.0,0.0,0.0,-31.267436981201136
2025/04/09 10:25:33.632810351,1744187133,632159075,,39.81708908081055,-5.444718837737965,0.0,0.0,0.0,-31.3284645080565
