time,header_stamp_secs,header_stamp_nsecs,header_frame_id,wrench_force_x,wrench_force_y,wrench_force_z,wrench_torque_x,wrench_torque_y,wrench_torque_z
2025/04/09 10:24:44.641889544,1744187084,639472735,,0.0,0.0,0.0,0.0,0.0,-8.881784197001252e-16
2025/04/09 10:24:44.732053953,1744187084,731391978,,0.0,4.440892098500626e-16,0.0,0.0,0.0,-8.881784197001252e-16
2025/04/09 10:24:44.831398223,1744187084,831138881,,0.0,-4.440892098500626e-16,0.0,0.0,0.0,8.881784197001252e-16
2025/04/09 10:24:44.934389261,1744187084,934254615,,0.0,-8.881784197001252e-16,0.0,0.0,0.0,8.881784197001252e-16
2025/04/09 10:24:45.31083872,1744187085,30986374,,0.0,-4.440892098500626e-16,0.0,0.0,0.0,2.6645352591003757e-15
2025/04/09 10:24:45.135864669,1744187085,135690779,,0.0,-4.440892098500626e-16,0.0,0.0,0.0,8.881784197001252e-16
2025/04/09 10:24:45.232654575,1744187085,232541712,,0.0,-4.440892098500626e-16,0.0,0.0,0.0,1.7763568394002505e-15
2025/04/09 10:24:45.333483820,1744187085,333232683,,-8.881784197001252e-16,4.440892098500626e-16,0.0,0.0,0.0,1.7763568394002505e-15
2025/04/09 10:24:45.434603154,1744187085,434378585,,0.0,4.440892098500626e-16,0.0,0.0,0.0,0.0
2025/04/09 10:24:45.531230963,1744187085,531133661,,0.0,0.0,0.0,0.0,0.0,-8.881784197001252e-16
2025/04/09 10:24:45.631580895,1744187085,631463153,,0.0,0.0,0.0,0.0,0.0,0.0
2025/04/09 10:24:45.731368732,1744187085,731200674,,0.0,-2.220446049250313e-16,0.0,0.0,0.0,1.7763568394002505e-15
2025/04/09 10:24:45.833483517,1744187085,833220148,,0.0,8.881784197001252e-16,0.0,0.0,0.0,-8.881784197001252e-16
2025/04/09 10:24:45.935686345,1744187085,935003184,,0.0,0.0,0.0,0.0,0.0,8.881784197001252e-16
2025/04/09 10:24:46.35849016,1744187086,35010811,,0.0,-8.881784197001252e-16,0.0,0.0,0.0,1.7763568394002505e-15
2025/04/09 10:24:46.134218062,1744187086,133702190,,0.0,-2.220446049250313e-16,0.0,0.0,0.0,0.0
2025/04/09 10:24:46.234777557,1744187086,233766914,,-8.881784197001252e-16,0.0,0.0,0.0,0.0,0.0
2025/04/09 10:24:46.335225958,1744187086,334297062,,0.0,-8.881784197001252e-16,0.0,0.0,0.0,8.881784197001252e-16
2025/04/09 10:24:46.431194970,1744187086,431075471,,0.0,0.0,0.0,0.0,0.0,1.7763568394002505e-15
2025/04/09 10:24:46.531823511,1744187086,531327312,,0.0,-6.661338147750939e-16,0.0,0.0,0.0,1.7763568394002505e-15
2025/04/09 10:24:46.634793220,1744187086,631879060,,0.0,-2.220446049250313e-16,0.0,0.0,0.0,8.881784197001252e-16
2025/04/09 10:24:46.735712772,1744187086,732175597,,0.0,-4.440892098500626e-16,0.0,0.0,0.0,8.881784197001252e-16
2025/04/09 10:24:46.831426056,1744187086,831331801,,-8.881784197001252e-16,6.661338147750939e-16,0.0,0.0,0.0,-8.881784197001252e-16
2025/04/09 10:24:46.931952286,1744187086,931793332,,0.0,4.440892098500626e-16,0.0,0.0,0.0,2.6645352591003757e-15
2025/04/09 10:24:47.31550460,1744187087,31423685,,-8.881784197001252e-16,-2.220446049250313e-16,0.0,0.0,0.0,0.0
2025/04/09 10:24:47.133560429,1744187087,133385386,,0.0,2.220446049250313e-16,0.0,0.0,0.0,1.7763568394002505e-15
2025/04/09 10:24:47.233776301,1744187087,233281286,,0.0,2.220446049250313e-16,0.0,0.0,0.0,8.881784197001252e-16
2025/04/09 10:24:47.333563997,1744187087,332786128,,0.0,2.220446049250313e-16,0.0,0.0,0.0,8.881784197001252e-16
2025/04/09 10:24:47.433618082,1744187087,433434651,,8.881784197001252e-16,2.220446049250313e-16,0.0,0.0,0.0,-8.881784197001252e-16
2025/04/09 10:24:47.536928576,1744187087,536484978,,0.0,4.440892098500626e-16,0.0,0.0,0.0,-1.7763568394002505e-15
2025/04/09 10:24:47.634829213,1744187087,634619646,,0.0,2.220446049250313e-16,0.0,0.0,0.0,0.0
2025/04/09 10:24:47.735236173,1744187087,735096333,,0.0,0.0,0.0,0.0,0.0,1.7763568394002505e-15
2025/04/09 10:24:47.835127561,1744187087,835002158,,0.0,4.440892098500626e-16,0.0,0.0,0.0,0.0
2025/04/09 10:24:47.933979365,1744187087,933816789,,0.0,-4.440892098500626e-16,0.0,0.0,0.0,2.6645352591003757e-15
2025/04/09 10:24:48.31626608,1744187088,31515688,,-8.881784197001252e-16,0.0,0.0,0.0,0.0,-8.881784197001252e-16
2025/04/09 10:24:48.131457243,1744187088,131309426,,-4.440892098500626e-16,0.0,0.0,0.0,0.0,8.881784197001252e-16
2025/04/09 10:24:48.231952602,1744187088,231776514,,0.0,0.0,0.0,0.0,0.0,0.0
2025/04/09 10:24:48.336498691,1744187088,336128884,,4.440892098500626e-16,8.881784197001252e-16,0.0,0.0,0.0,-8.881784197001252e-16
2025/04/09 10:24:48.433190862,1744187088,433071686,,0.0,-2.220446049250313e-16,0.0,0.0,0.0,8.881784197001252e-16
2025/04/09 10:24:48.536458931,1744187088,536246599,,0.0,0.0,0.0,0.0,0.0,-1.7763568394002505e-15
2025/04/09 10:24:48.639470139,1744187088,638621594,,0.0,0.0,0.0,0.0,0.0,0.0
2025/04/09 10:24:48.732149650,1744187088,731976744,,0.0,4.440892098500626e-16,0.0,0.0,0.0,-8.881784197001252e-16
2025/04/09 10:24:48.832174598,1744187088,832017735,,0.0,-2.220446049250313e-16,0.0,0.0,0.0,8.881784197001252e-16
2025/04/09 10:24:48.932297073,1744187088,932108018,,-4.440892098500626e-16,-4.440892098500626e-16,0.0,0.0,0.0,-8.881784197001252e-16
2025/04/09 10:24:49.43383770,1744187089,43233525,,86.25295283817924,9.177725246445334e-11,0.0,0.0,0.0,2.2239987629291136e-12
2025/04/09 10:24:49.140634837,1744187089,140503166,,55.07868214050586,-1.0441425501994672e-11,0.0,0.0,0.0,-8.526512829121202e-14
2025/04/09 10:24:49.238443478,1744187089,238286098,,22.483615503018925,2.1727686316808104e-10,0.0,0.0,0.0,2.1671553440683056e-12
2025/04/09 10:24:49.339506003,1744187089,338729023,,-1.4210854715202004e-14,7.105427357601002e-15,0.0,0.0,0.0,-1.4210854715202004e-14
2025/04/09 10:24:49.434965062,1744187089,434731563,,3.979039320256561e-13,1.3855583347321954e-13,0.0,0.0,0.0,-4.547473508864641e-13
2025/04/09 10:24:49.534555875,1744187089,534265583,,3.552713678800501e-13,7.105427357601002e-15,0.0,0.0,0.0,-1.9895196601282805e-13
2025/04/09 10:24:49.635193757,1744187089,634951149,,-1.4210854715202004e-14,4.973799150320701e-14,0.0,0.0,0.0,1.4210854715202004e-14
2025/04/09 10:24:49.737665264,1744187089,735674202,,-3.979039320256561e-13,7.780442956573097e-13,0.0,0.0,0.0,1.1226575225009583e-12
2025/04/09 10:24:49.833797734,1744187089,833626128,,-4.263256414560601e-14,3.552713678800501e-14,0.0,0.0,0.0,1.2789769243681803e-13
2025/04/09 10:24:49.932544492,1744187089,932354555,,0.0,-1.0658141036401503e-14,0.0,0.0,0.0,4.263256414560601e-14
2025/04/09 10:24:50.36353444,1744187090,36166426,,1.4210854715202004e-12,-4.0181191707233666e-12,0.0,0.0,0.0,1.0061285138363019e-11
2025/04/09 10:24:50.134022887,1744187090,133863852,,1.4210854715202004e-14,-5.3290705182007514e-14,0.0,0.0,0.0,-1.8474111129762605e-13
2025/04/09 10:24:50.233520566,1744187090,232586701,,4.177991286269389e-11,-6.174616373755271e-12,0.0,0.0,0.0,1.2178702490928117e-11
2025/04/09 10:24:50.333764897,1744187090,333672483,,2.2737367544323206e-13,8.348877145181177e-14,0.0,0.0,0.0,-1.8474111129762605e-13
2025/04/09 10:24:50.433056091,1744187090,432128624,,0.0,1.0658141036401503e-14,0.0,0.0,0.0,-2.842170943040401e-14
2025/04/09 10:24:50.532003368,1744187090,531858415,,1.7337242752546445e-12,1.0231815394945443e-12,0.0,0.0,0.0,-1.9753088054130785e-12
2025/04/09 10:24:50.633082994,1744187090,632943733,,-1.4210854715202004e-14,1.7763568394002505e-15,0.0,0.0,0.0,0.0
2025/04/09 10:24:50.732270989,1744187090,732121430,,1.4210854715202004e-14,-1.7763568394002505e-15,0.0,0.0,0.0,0.0
2025/04/09 10:24:50.833002937,1744187090,832719614,,0.0,1.7763568394002505e-15,0.0,0.0,0.0,-2.842170943040401e-14
2025/04/09 10:24:50.933199663,1744187090,933082391,,0.0,-3.552713678800501e-15,0.0,0.0,0.0,1.4210854715202004e-14
2025/04/09 10:24:51.31498124,1744187091,31116533,,0.0,0.0,0.0,0.0,0.0,0.0
2025/04/09 10:24:51.131770230,1744187091,131624591,,0.0,-1.7763568394002505e-15,0.0,0.0,0.0,0.0
2025/04/09 10:24:51.234717768,1744187091,234147988,,1.4210854715202004e-14,1.7763568394002505e-15,0.0,0.0,0.0,1.4210854715202004e-14
2025/04/09 10:24:51.332130144,1744187091,331985625,,0.0,0.0,0.0,0.0,0.0,-1.4210854715202004e-14
2025/04/09 10:24:51.432114533,1744187091,431976045,,1.4210854715202004e-14,0.0,0.0,0.0,0.0,1.4210854715202004e-14
2025/04/09 10:24:51.531351807,1744187091,531180629,,0.0,1.7763568394002505e-15,0.0,0.0,0.0,0.0
2025/04/09 10:24:51.632886882,1744187091,632468732,,0.0,3.552713678800501e-15,0.0,0.0,0.0,0.0
2025/04/09 10:24:51.734381069,1744187091,733699748,,0.0,-1.7763568394002505e-15,0.0,0.0,0.0,1.4210854715202004e-14
2025/04/09 10:24:51.831761356,1744187091,831618831,,0.0,1.7763568394002505e-15,0.0,0.0,0.0,-1.4210854715202004e-14
2025/04/09 10:24:51.931865327,1744187091,931736729,,0.0,1.7763568394002505e-15,0.0,0.0,0.0,1.4210854715202004e-14
2025/04/09 10:24:52.31535946,1744187092,31369074,,0.0,1.7763568394002505e-15,0.0,0.0,0.0,-4.263256414560601e-14
2025/04/09 10:24:52.132584004,1744187092,132282355,,0.0,-3.552713678800501e-15,0.0,0.0,0.0,0.0
2025/04/09 10:24:52.231909126,1744187092,231659327,,2.842170943040401e-14,-5.329070518200751e-15,0.0,0.0,0.0,2.842170943040401e-14
2025/04/09 10:24:52.331245846,1744187092,331114267,,0.0,-3.552713678800501e-15,0.0,0.0,0.0,-1.4210854715202004e-14
2025/04/09 10:24:52.431803879,1744187092,431655089,,0.0,-1.0658141036401503e-14,0.0,0.0,0.0,1.4210854715202004e-14
2025/04/09 10:24:52.533278207,1744187092,533105247,,0.0,-1.7763568394002505e-15,0.0,0.0,0.0,-1.4210854715202004e-14
2025/04/09 10:24:52.631634756,1744187092,631524970,,-1.4210854715202004e-14,-1.7763568394002505e-15,0.0,0.0,0.0,0.0
2025/04/09 10:24:52.731214992,1744187092,731059515,,0.0,-5.329070518200751e-15,0.0,0.0,0.0,1.4210854715202004e-14
2025/04/09 10:24:52.831690541,1744187092,831459197,,-1.4210854715202004e-14,0.0,0.0,0.0,0.0,0.0
2025/04/09 10:24:52.935570315,1744187092,934964896,,0.0,3.552713678800501e-15,0.0,0.0,0.0,-1.4210854715202004e-14
2025/04/09 10:24:53.31371686,1744187093,31218342,,0.0,0.0,0.0,0.0,0.0,1.4210854715202004e-14
2025/04/09 10:24:53.131615049,1744187093,131464837,,0.0,-1.7763568394002505e-15,0.0,0.0,0.0,0.0
2025/04/09 10:24:53.231707201,1744187093,231568276,,0.0,0.0,0.0,0.0,0.0,0.0
2025/04/09 10:24:53.332103441,1744187093,331959862,,0.0,0.0,0.0,0.0,0.0,1.4210854715202004e-14
2025/04/09 10:24:53.433531378,1744187093,431410855,,0.0,5.329070518200751e-15,0.0,0.0,0.0,-1.4210854715202004e-14
2025/04/09 10:24:53.533794005,1744187093,532887729,,4.121147867408581e-13,-2.1316282072803006e-13,0.0,0.0,0.0,4.121147867408581e-13
2025/04/09 10:24:53.632696473,1744187093,632441552,,-1.4210854715202004e-14,0.0,0.0,0.0,0.0,-1.4210854715202004e-14
2025/04/09 10:24:53.731308477,1744187093,731185808,,-2.842170943040401e-14,3.552713678800501e-15,0.0,0.0,0.0,1.4210854715202004e-14
2025/04/09 10:24:53.831781439,1744187093,831596125,,0.0,8.881784197001252e-15,0.0,0.0,0.0,-1.4210854715202004e-14
2025/04/09 10:24:53.931751180,1744187093,931051886,,1.4210854715202004e-14,0.0,0.0,0.0,0.0,-1.4210854715202004e-14
2025/04/09 10:24:54.32297093,1744187094,32156491,,0.0,-3.552713678800501e-15,0.0,0.0,0.0,-2.842170943040401e-14
2025/04/09 10:24:54.133476248,1744187094,133249295,,1.4210854715202004e-14,-7.105427357601002e-15,0.0,0.0,0.0,0.0
2025/04/09 10:24:54.231745738,1744187094,231617710,,0.0,0.0,0.0,0.0,0.0,1.4210854715202004e-14
2025/04/09 10:24:54.331716708,1744187094,331578991,,0.0,3.552713678800501e-15,0.0,0.0,0.0,-1.4210854715202004e-14
2025/04/09 10:24:54.432274030,1744187094,432036959,,0.0,0.0,0.0,0.0,0.0,-2.842170943040401e-14
2025/04/09 10:24:54.532771087,1744187094,531940324,,2.842170943040401e-14,1.7763568394002505e-15,0.0,0.0,0.0,0.0
2025/04/09 10:24:54.631505512,1744187094,631377497,,0.0,0.0,0.0,0.0,0.0,1.4210854715202004e-14
2025/04/09 10:24:54.732067618,1744187094,731910033,,5.684341886080802e-14,-5.5067062021407764e-14,0.0,0.0,0.0,9.947598300641403e-14
2025/04/09 10:24:54.831834701,1744187094,831703113,,0.0,3.552713678800501e-15,0.0,0.0,0.0,0.0
2025/04/09 10:24:54.934354693,1744187094,932068029,,0.0,-1.7763568394002505e-15,0.0,0.0,0.0,2.842170943040401e-14
2025/04/09 10:24:55.33434885,1744187095,33329014,,2.842170943040401e-14,2.4868995751603507e-14,0.0,0.0,0.0,-2.842170943040401e-14
2025/04/09 10:24:55.133725405,1744187095,133566959,,0.0,0.0,0.0,0.0,0.0,-1.4210854715202004e-14
2025/04/09 10:24:55.234582956,1744187095,233587236,,0.0,0.0,0.0,0.0,0.0,0.0
2025/04/09 10:24:55.333590253,1744187095,333298064,,-5.684341886080802e-14,1.7763568394002505e-15,0.0,0.0,0.0,0.0
2025/04/09 10:24:55.432809660,1744187095,431840419,,0.0,5.329070518200751e-15,0.0,0.0,0.0,0.0
2025/04/09 10:24:55.531902373,1744187095,531410364,,0.0,3.552713678800501e-15,0.0,0.0,0.0,0.0
2025/04/09 10:24:55.632213595,1744187095,632103558,,4.831690603168681e-13,-2.2737367544323206e-13,0.0,0.0,0.0,4.547473508864641e-13
2025/04/09 10:24:55.731325442,1744187095,731104925,,0.0,1.7763568394002505e-15,0.0,0.0,0.0,0.0
2025/04/09 10:24:55.831988503,1744187095,831877346,,8.526512829121202e-14,5.861977570020827e-14,0.0,0.0,0.0,-9.947598300641403e-14
2025/04/09 10:24:55.933055132,1744187095,932902378,,-2.842170943040401e-14,0.0,0.0,0.0,0.0,2.842170943040401e-14
2025/04/09 10:24:56.31852743,1744187096,31672271,,0.0,-7.105427357601002e-15,0.0,0.0,0.0,0.0
2025/04/09 10:24:56.131777603,1744187096,131646785,,0.0,-1.7763568394002505e-15,0.0,0.0,0.0,0.0
2025/04/09 10:24:56.231469313,1744187096,231363245,,0.0,-5.329070518200751e-15,0.0,0.0,0.0,1.4210854715202004e-14
2025/04/09 10:24:56.331816644,1744187096,331718790,,0.0,-5.329070518200751e-15,0.0,0.0,0.0,-2.842170943040401e-14
2025/04/09 10:24:56.438240905,1744187096,438088497,,2.842170943040401e-14,-1.7763568394002505e-15,0.0,0.0,0.0,0.0
2025/04/09 10:24:56.533723973,1744187096,533490471,,0.0,1.9539925233402755e-14,0.0,0.0,0.0,-5.684341886080802e-14
2025/04/09 10:24:56.631471688,1744187096,631384168,,0.0,0.0,0.0,0.0,0.0,2.842170943040401e-14
2025/04/09 10:24:56.732089141,1744187096,731942963,,0.0,7.105427357601002e-15,0.0,0.0,0.0,-2.842170943040401e-14
2025/04/09 10:24:56.831637060,1744187096,831513762,,0.0,-1.7763568394002505e-15,0.0,0.0,0.0,-1.4210854715202004e-14
2025/04/09 10:24:56.932643211,1744187096,932443084,,2.842170943040401e-14,-3.552713678800501e-15,0.0,0.0,0.0,1.4210854715202004e-14
2025/04/09 10:24:57.33258584,1744187097,32999806,,0.0,7.105427357601002e-15,0.0,0.0,0.0,-1.4210854715202004e-14
2025/04/09 10:24:57.132721250,1744187097,132570278,,0.0,-3.552713678800501e-15,0.0,0.0,0.0,2.842170943040401e-14
2025/04/09 10:24:57.232912422,1744187097,232775244,,2.842170943040401e-14,-7.105427357601002e-15,0.0,0.0,0.0,1.4210854715202004e-14
2025/04/09 10:24:57.331621899,1744187097,331495522,,0.0,3.552713678800501e-15,0.0,0.0,0.0,1.4210854715202004e-14
2025/04/09 10:24:57.431840823,1744187097,431707925,,0.0,-8.881784197001252e-15,0.0,0.0,0.0,0.0
2025/04/09 10:24:57.532696188,1744187097,532505888,,0.0,1.7763568394002505e-15,0.0,0.0,0.0,-1.4210854715202004e-14
2025/04/09 10:24:57.634043817,1744187097,633866785,,0.0,1.7763568394002505e-15,0.0,0.0,0.0,-1.4210854715202004e-14
2025/04/09 10:24:57.731704537,1744187097,731494378,,0.0,-1.7763568394002505e-15,0.0,0.0,0.0,0.0
2025/04/09 10:24:57.833674994,1744187097,833505183,,0.0,-3.552713678800501e-15,0.0,0.0,0.0,-1.4210854715202004e-14
2025/04/09 10:24:57.931785151,1744187097,931604406,,0.0,-1.7763568394002505e-15,0.0,0.0,0.0,-1.4210854715202004e-14
2025/04/09 10:24:58.32502266,1744187098,32417326,,0.0,0.0,0.0,0.0,0.0,0.0
2025/04/09 10:24:58.132493648,1744187098,132331066,,0.0,-1.7763568394002505e-15,0.0,0.0,0.0,1.4210854715202004e-14
2025/04/09 10:24:58.233639282,1744187098,233534351,,5.684341886080802e-14,-3.552713678800501e-15,0.0,0.0,0.0,1.4210854715202004e-14
2025/04/09 10:24:58.333034394,1744187098,331561377,,0.0,-1.7763568394002505e-15,0.0,0.0,0.0,0.0
2025/04/09 10:24:58.431829127,1744187098,431697702,,2.842170943040401e-14,-3.552713678800501e-15,0.0,0.0,0.0,0.0
2025/04/09 10:24:58.531989385,1744187098,531862236,,0.0,0.0,0.0,0.0,0.0,2.842170943040401e-14
2025/04/09 10:24:58.632733081,1744187098,631607080,,2.842170943040401e-14,7.105427357601002e-15,0.0,0.0,0.0,0.0
2025/04/09 10:24:58.731961378,1744187098,731776922,,5.684341886080802e-14,-2.1316282072803006e-14,0.0,0.0,0.0,5.684341886080802e-14
2025/04/09 10:24:58.832762996,1744187098,831659846,,5.684341886080802e-14,8.881784197001252e-15,0.0,0.0,0.0,1.4210854715202004e-14
2025/04/09 10:24:58.932956330,1744187098,932809901,,1.7053025658242404e-13,1.7763568394002505e-15,0.0,0.0,0.0,-2.842170943040401e-14
2025/04/09 10:24:59.32825537,1744187099,32668114,,1.7053025658242404e-13,1.4210854715202004e-14,0.0,0.0,0.0,-2.842170943040401e-14
2025/04/09 10:24:59.131915184,1744187099,131782833,,1.7053025658242404e-13,3.552713678800501e-15,0.0,0.0,0.0,-1.4210854715202004e-14
2025/04/09 10:24:59.234020463,1744187099,233874989,,0.0,1.7763568394002505e-15,0.0,0.0,0.0,0.0
2025/04/09 10:24:59.333299075,1744187099,332972603,,3.126388037344441e-13,5.684341886080802e-14,0.0,0.0,0.0,-8.526512829121202e-14
2025/04/09 10:24:59.432063006,1744187099,431892872,,1.0516032489249483e-12,2.2737367544323206e-13,0.0,0.0,0.0,-4.405364961712621e-13
2025/04/09 10:24:59.534000144,1744187099,532565820,,1.3358203432289883e-12,-2.5579538487363607e-13,0.0,0.0,0.0,5.826450433232822e-13
2025/04/09 10:24:59.634938884,1744187099,634799156,,8.526512829121202e-14,1.4210854715202004e-14,0.0,0.0,0.0,-5.684341886080802e-14
2025/04/09 10:24:59.732998686,1744187099,732820912,,1.7053025658242404e-13,-2.4868995751603507e-14,0.0,0.0,0.0,4.263256414560601e-14
2025/04/09 10:24:59.832620512,1744187099,832513305,,1.3037038115726318e-10,3.023359340659226e-11,0.0,0.0,0.0,-6.144773578853346e-11
2025/04/09 10:24:59.934905070,1744187099,934769728,,2.7000623958883807e-13,-4.796163466380676e-14,0.0,0.0,0.0,1.0658141036401503e-13
2025/04/09 10:25:00.32208328,1744187100,32050476,,3.694822225952521e-13,-7.815970093361102e-14,0.0,0.0,0.0,1.9895196601282805e-13
2025/04/09 10:25:00.133219490,1744187100,132915700,,1.5631940186722204e-13,3.907985046680551e-14,0.0,0.0,0.0,-5.684341886080802e-14
2025/04/09 10:25:00.232500900,1744187100,232353692,,9.43600753089413e-12,2.7000623958883807e-12,0.0,0.0,0.0,-5.4924953474255744e-12
2025/04/09 10:25:00.334878278,1744187100,333883203,,7.077005648170598e-12,-1.8669510382096632e-12,0.0,0.0,0.0,4.32720526077901e-12
2025/04/09 10:25:00.431491811,1744187100,431397947,,1.2789769243681803e-13,1.4210854715202004e-14,0.0,0.0,0.0,-1.4210854715202004e-14
2025/04/09 10:25:00.532877570,1744187100,532394594,,1.8474111129762605e-13,3.552713678800501e-14,0.0,0.0,0.0,-5.684341886080802e-14
2025/04/09 10:25:00.631978612,1744187100,631864044,,1.7053025658242404e-13,-5.329070518200751e-15,0.0,0.0,0.0,2.842170943040401e-14
2025/04/09 10:25:00.733891199,1744187100,733744490,,1.5631940186722204e-13,-3.552713678800501e-15,0.0,0.0,0.0,2.1316282072803006e-14
2025/04/09 10:25:00.832707718,1744187100,832564601,,2.3163693185779266e-12,5.261568958303542e-12,0.0,0.0,0.0,-1.1411316336307209e-11
2025/04/09 10:25:00.934304814,1744187100,933421914,,1.4210854715202004e-14,-1.0658141036401503e-14,0.0,0.0,0.0,9.237055564881302e-14
2025/04/09 10:25:01.39149739,1744187101,39048714,,7.105427357601002e-14,-4.618527782440651e-14,0.0,0.0,0.0,9.947598300641403e-14
2025/04/09 10:25:01.133918763,1744187101,133779965,,5.1727511163335294e-11,-1.5910828210508043e-11,0.0,0.0,0.0,4.1524117477820255e-11
2025/04/09 10:25:01.233003708,1744187101,232873426,,2.2737367544323206e-13,-8.881784197001252e-15,0.0,0.0,0.0,3.552713678800501e-14
2025/04/09 10:25:01.331865323,1744187101,331724336,,4.973799150320701e-14,-2.842170943040401e-14,0.0,0.0,0.0,4.263256414560601e-14
2025/04/09 10:25:01.431523422,1744187101,431403825,,3.552713678800501e-14,2.842170943040401e-14,0.0,0.0,0.0,-4.973799150320701e-14
2025/04/09 10:25:01.533367602,1744187101,533044731,,8.881784197001252e-14,2.842170943040401e-14,0.0,0.0,0.0,-9.947598300641403e-14
2025/04/09 10:25:01.632159319,1744187101,631995657,,3.552713678800501e-14,1.2434497875801753e-14,0.0,0.0,0.0,-3.907985046680551e-14
2025/04/09 10:25:01.732057462,1744187101,731966231,,1.4210854715202004e-14,3.552713678800501e-15,0.0,0.0,0.0,-7.105427357601002e-15
2025/04/09 10:25:01.831614298,1744187101,831461485,,2.842170943040401e-14,3.552713678800501e-15,0.0,0.0,0.0,-3.197442310920451e-14
2025/04/09 10:25:01.931834047,1744187101,931709420,,3.552713678800501e-15,0.0,0.0,0.0,0.0,0.0
2025/04/09 10:25:02.31792026,1744187102,31568527,,3.552713678800501e-15,-5.329070518200751e-15,0.0,0.0,0.0,-3.552713678800501e-15
2025/04/09 10:25:02.134367022,1744187102,134267564,,7.105427357601002e-15,0.0,0.0,0.0,0.0,-3.552713678800501e-15
2025/04/09 10:25:02.231584309,1744187102,231460156,,1.7763568394002505e-15,0.0,0.0,0.0,0.0,-1.0658141036401503e-14
2025/04/09 10:25:02.331820780,1744187102,331541769,,0.0,8.881784197001252e-16,0.0,0.0,0.0,3.552713678800501e-15
2025/04/09 10:25:02.431718286,1744187102,431468926,,3.552713678800501e-15,0.0,0.0,0.0,0.0,-3.552713678800501e-15
2025/04/09 10:25:02.531670321,1744187102,531514719,,3.552713678800501e-15,0.0,0.0,0.0,0.0,3.552713678800501e-15
2025/04/09 10:25:02.636365355,1744187102,636183299,,0.0,-8.881784197001252e-16,0.0,0.0,0.0,1.7763568394002505e-15
2025/04/09 10:25:02.731943115,1744187102,731697115,,0.0,0.0,0.0,0.0,0.0,1.7763568394002505e-15
2025/04/09 10:25:02.832781339,1744187102,832624093,,0.0,-8.881784197001252e-16,0.0,0.0,0.0,1.7763568394002505e-15
2025/04/09 10:25:02.931338128,1744187102,931203530,,0.0,0.0,0.0,0.0,0.0,0.0
2025/04/09 10:25:03.32462220,1744187103,32293418,,0.0,-8.881784197001252e-16,0.0,0.0,0.0,0.0
2025/04/09 10:25:03.133358532,1744187103,133118219,,1.7763568394002505e-15,4.440892098500626e-16,0.0,0.0,0.0,-1.7763568394002505e-15
2025/04/09 10:25:03.236336131,1744187103,234579011,,-1.7763568394002505e-15,4.440892098500626e-16,0.0,0.0,0.0,1.7763568394002505e-15
2025/04/09 10:25:03.331093068,1744187103,330970239,,0.0,-4.440892098500626e-16,0.0,0.0,0.0,1.7763568394002505e-15
2025/04/09 10:25:03.431382138,1744187103,431229419,,-8.881784197001252e-16,0.0,0.0,0.0,0.0,-1.7763568394002505e-15
2025/04/09 10:25:03.531915343,1744187103,531725529,,-8.881784197001252e-16,-4.440892098500626e-16,0.0,0.0,0.0,0.0
2025/04/09 10:25:03.632303471,1744187103,632155684,,8.881784197001252e-16,4.440892098500626e-16,0.0,0.0,0.0,1.7763568394002505e-15
2025/04/09 10:25:03.733006186,1744187103,732900548,,0.0,0.0,0.0,0.0,0.0,-1.7763568394002505e-15
2025/04/09 10:25:03.831970671,1744187103,831678011,,0.0,-1.3322676295501878e-15,0.0,0.0,0.0,-1.7763568394002505e-15
2025/04/09 10:25:03.932065274,1744187103,931947437,,-1.7763568394002505e-15,-4.440892098500626e-16,0.0,0.0,0.0,0.0
2025/04/09 10:25:04.34150835,1744187104,34008997,,0.0,-4.440892098500626e-16,0.0,0.0,0.0,1.7763568394002505e-15
2025/04/09 10:25:04.131964911,1744187104,131558819,,0.0,8.881784197001252e-16,0.0,0.0,0.0,5.329070518200751e-15
2025/04/09 10:25:04.231626862,1744187104,231313117,,0.0,8.881784197001252e-16,0.0,0.0,0.0,1.7763568394002505e-15
2025/04/09 10:25:04.335659608,1744187104,335390611,,0.0,4.440892098500626e-16,0.0,0.0,0.0,0.0
2025/04/09 10:25:04.431633619,1744187104,431461936,,0.0,8.881784197001252e-16,0.0,0.0,0.0,1.7763568394002505e-15
2025/04/09 10:25:04.532007644,1744187104,531633616,,1.7763568394002505e-15,2.6645352591003757e-15,0.0,0.0,0.0,0.0
2025/04/09 10:25:04.632183139,1744187104,631996641,,0.0,8.881784197001252e-16,0.0,0.0,0.0,3.552713678800501e-15
2025/04/09 10:25:04.734095389,1744187104,733961817,,0.0,-1.7763568394002505e-15,0.0,0.0,0.0,5.329070518200751e-15
2025/04/09 10:25:04.833491175,1744187104,831585744,,-1.7763568394002505e-15,8.881784197001252e-16,0.0,0.0,0.0,0.0
2025/04/09 10:25:04.931594176,1744187104,931360049,,0.0,0.0,0.0,0.0,0.0,-5.329070518200751e-15
2025/04/09 10:25:05.31210154,1744187105,31051601,,3.552713678800501e-15,0.0,0.0,0.0,0.0,0.0
2025/04/09 10:25:05.131837267,1744187105,131605660,,1.7763568394002505e-15,8.881784197001252e-16,0.0,0.0,0.0,-3.552713678800501e-15
2025/04/09 10:25:05.232986954,1744187105,232506171,,0.0,8.881784197001252e-16,0.0,0.0,0.0,0.0
2025/04/09 10:25:05.331806231,1744187105,331573538,,0.0,-8.881784197001252e-16,0.0,0.0,0.0,3.552713678800501e-15
2025/04/09 10:25:05.435382200,1744187105,435282354,,3.552713678800501e-15,1.7763568394002505e-15,0.0,0.0,0.0,0.0
2025/04/09 10:25:05.531603741,1744187105,531492836,,-3.552713678800501e-15,0.0,0.0,0.0,0.0,-3.552713678800501e-15
2025/04/09 10:25:05.633743940,1744187105,633482050,,0.0,1.7763568394002505e-15,0.0,0.0,0.0,-7.105427357601002e-15
2025/04/09 10:25:05.735676558,1744187105,735546673,,3.552713678800501e-15,-1.7763568394002505e-15,0.0,0.0,0.0,3.552713678800501e-15
2025/04/09 10:25:05.831645696,1744187105,831493602,,0.0,0.0,0.0,0.0,0.0,0.0
2025/04/09 10:25:05.934114195,1744187105,933975977,,0.0,0.0,0.0,0.0,0.0,3.552713678800501e-15
2025/04/09 10:25:06.34235666,1744187106,32115566,,7.105427357601002e-15,1.7763568394002505e-15,0.0,0.0,0.0,-1.7763568394002505e-14
2025/04/09 10:25:06.132860006,1744187106,132709633,,0.0,-7.105427357601002e-15,0.0,0.0,0.0,1.4210854715202004e-14
2025/04/09 10:25:06.231531836,1744187106,231323458,,1.4210854715202004e-13,-1.0125233984581428e-13,0.0,0.0,0.0,2.7711166694643907e-13
2025/04/09 10:25:06.331892703,1744187106,331734612,,6.394884621840902e-13,3.801403636316536e-13,0.0,0.0,0.0,-9.556799795973347e-13
2025/04/09 10:25:06.434030865,1744187106,433892909,,9.947598300641403e-14,7.283063041541027e-14,0.0,0.0,0.0,-4.156675004196586e-13
2025/04/09 10:25:06.535868906,1744187106,535381910,,4.689582056016661e-13,-3.4283687000424834e-13,0.0,0.0,0.0,8.633094239485217e-13
2025/04/09 10:25:06.633915957,1744187106,633762251,,2.219735506514553e-11,1.8779644506139448e-11,0.0,0.0,0.0,-6.059153179194254e-11
2025/04/09 10:25:06.731501823,1744187106,731392194,,3.552713678800501e-15,0.0,0.0,0.0,0.0,0.0
2025/04/09 10:25:06.831876474,1744187106,831726938,,2.842170943040401e-14,-4.440892098500626e-14,0.0,0.0,0.0,8.526512829121202e-14
2025/04/09 10:25:06.931384960,1744187106,931260603,,3.552713678800501e-15,-1.7763568394002505e-15,0.0,0.0,0.0,-1.0658141036401503e-14
2025/04/09 10:25:07.32418406,1744187107,32157051,,8.810729923425242e-13,9.947598300641403e-13,0.0,0.0,0.0,-3.439026841078885e-12
2025/04/09 10:25:07.133499245,1744187107,132903422,,0.0,3.552713678800501e-15,0.0,0.0,0.0,0.0
2025/04/09 10:25:07.235742169,1744187107,234898526,,8.79509798323852e-11,-3.603695120091288e-11,0.0,0.0,0.0,9.459455441174214e-11
2025/04/09 10:25:07.333136080,1744187107,332889619,,1.4210854715202004e-14,1.7763568394002505e-15,0.0,0.0,0.0,0.0
2025/04/09 10:25:07.433020000,1744187107,432885783,,7.105427357601002e-14,-6.572520305780927e-14,0.0,0.0,0.0,1.6342482922482304e-13
2025/04/09 10:25:07.533560942,1744187107,532400923,,2.2737367544323206e-13,1.616484723854228e-13,0.0,0.0,0.0,-3.694822225952521e-13
2025/04/09 10:25:07.632109841,1744187107,631273659,,0.0,0.0,0.0,0.0,0.0,0.0
2025/04/09 10:25:07.733055883,1744187107,732842726,,-1.8047785488306545e-12,-9.755751761986176e-12,0.0,0.0,0.0,2.1394441773736617e-11
2025/04/09 10:25:07.831250283,1744187107,831076611,,2.842170943040401e-14,2.1316282072803006e-14,0.0,0.0,0.0,-6.394884621840902e-14
2025/04/09 10:25:07.934316047,1744187107,932333586,,1.4210854715202004e-14,-1.0658141036401503e-14,0.0,0.0,0.0,2.1316282072803006e-14
2025/04/09 10:25:08.31337840,1744187108,31199223,,0.0,0.0,0.0,0.0,0.0,7.105427357601002e-15
2025/04/09 10:25:08.136165246,1744187108,135895180,,2.842170943040401e-14,2.6645352591003757e-14,0.0,0.0,0.0,-2.3447910280083306e-13
2025/04/09 10:25:08.232179835,1744187108,232048736,,0.0,1.5987211554602254e-14,0.0,0.0,0.0,-7.105427357601002e-15
2025/04/09 10:25:08.331654831,1744187108,331506733,,7.105427357601002e-15,1.7763568394002505e-15,0.0,0.0,0.0,1.4210854715202004e-14
2025/04/09 10:25:08.431755481,1744187108,431629259,,1.4210854715202004e-14,-3.552713678800501e-15,0.0,0.0,0.0,-7.105427357601002e-15
2025/04/09 10:25:08.531700037,1744187108,531573807,,2.842170943040401e-14,-3.552713678800501e-15,0.0,0.0,0.0,-3.552713678800501e-14
2025/04/09 10:25:08.634910197,1744187108,634742200,,0.0,3.552713678800501e-15,0.0,0.0,0.0,7.105427357601002e-15
2025/04/09 10:25:08.735727857,1744187108,733074297,,2.0605739337042905e-12,1.0530243343964685e-11,0.0,0.0,0.0,-2.4726887204451486e-11
2025/04/09 10:25:08.831799341,1744187108,831568017,,4.263256414560601e-14,-8.881784197001252e-15,0.0,0.0,0.0,1.4210854715202004e-14
2025/04/09 10:25:08.931490205,1744187108,931389065,,0.0,0.0,0.0,0.0,0.0,-7.105427357601002e-15
2025/04/09 10:25:09.32109936,1744187109,31982899,,2.5721647034515627e-12,-1.1173284519827575e-12,0.0,0.0,0.0,2.6432189770275727e-12
2025/04/09 10:25:09.135271752,1744187109,135153678,,9.947598300641403e-14,-3.7836400679225335e-13,0.0,0.0,0.0,2.1316282072803006e-13
2025/04/09 10:25:09.233776160,1744187109,232978742,,2.1316282072803006e-14,2.1316282072803006e-14,0.0,0.0,0.0,-7.105427357601002e-15
2025/04/09 10:25:09.332078829,1744187109,331840264,,0.0,1.7763568394002505e-15,0.0,0.0,0.0,-7.105427357601002e-15
2025/04/09 10:25:09.431847545,1744187109,431671876,,5.258016244624741e-13,-2.575717417130363e-13,0.0,0.0,0.0,6.110667527536862e-13
2025/04/09 10:25:09.531324405,1744187109,531155870,,7.105427357601002e-15,0.0,0.0,0.0,0.0,-7.105427357601002e-15
2025/04/09 10:25:09.633693390,1744187109,633551287,,-1.0658141036401503e-13,-3.8191672047105385e-13,0.0,0.0,0.0,5.684341886080801e-13
2025/04/09 10:25:09.733034083,1744187109,732697103,,2.0605739337042905e-13,-1.0302869668521453e-13,0.0,0.0,0.0,1.9184653865522705e-13
2025/04/09 10:25:09.834663600,1744187109,834519753,,1.4210854715202004e-14,-3.552713678800501e-15,0.0,0.0,0.0,7.105427357601002e-15
2025/04/09 10:25:09.931482952,1744187109,931386629,,0.0,-1.7763568394002505e-15,0.0,0.0,0.0,0.0
2025/04/09 10:25:10.33786928,1744187110,31660190,,1.4210854715202004e-13,1.0835776720341528e-13,0.0,0.0,0.0,-2.1316282072803006e-13
2025/04/09 10:25:10.138276092,1744187110,138166082,,0.0,2.3092638912203256e-14,0.0,0.0,0.0,-7.105427357601002e-14
2025/04/09 10:25:10.238687436,1744187110,238440191,,-3.552713678800501e-13,1.199040866595169e-12,0.0,0.0,0.0,-2.8279600883251987e-12
2025/04/09 10:25:10.335332322,1744187110,335111354,,2.7000623958883807e-13,-1.1723955140041653e-13,0.0,0.0,0.0,2.6290081223123707e-13
2025/04/09 10:25:10.431641649,1744187110,431520824,,0.0,0.0,0.0,0.0,0.0,-7.105427357601002e-15
2025/04/09 10:25:10.535431613,1744187110,533248528,,2.1316282072803006e-13,-1.438849039914203e-13,0.0,0.0,0.0,3.126388037344441e-13
2025/04/09 10:25:10.632109396,1744187110,631821175,,0.0,1.7763568394002505e-15,0.0,0.0,0.0,0.0
2025/04/09 10:25:10.732028887,1744187110,731771212,,3.410605131648481e-13,2.575717417130363e-13,0.0,0.0,0.0,-5.186961971048731e-13
2025/04/09 10:25:10.834765948,1744187110,833834919,,3.979039320256561e-13,3.090860900556436e-13,0.0,0.0,0.0,-6.181721801112872e-13
2025/04/09 10:25:10.931114787,1744187110,930992393,,0.0,0.0,0.0,0.0,0.0,1.4210854715202004e-14
2025/04/09 10:25:11.34406050,1744187111,32981156,,-7.105427357601002e-14,-2.9665159217984183e-13,0.0,0.0,0.0,6.750155989720952e-13
2025/04/09 10:25:11.131513859,1744187111,131354792,,0.0,1.7763568394002505e-15,0.0,0.0,0.0,-7.105427357601002e-15
2025/04/09 10:25:11.234496849,1744187111,234369302,,1.4210854715202004e-14,3.552713678800501e-15,0.0,0.0,0.0,-2.1316282072803006e-14
2025/04/09 10:25:11.335938407,1744187111,335794921,,0.0,-1.0658141036401503e-14,0.0,0.0,0.0,1.4210854715202004e-14
2025/04/09 10:25:11.432225099,1744187111,432103759,,0.0,-5.329070518200751e-15,0.0,0.0,0.0,3.552713678800501e-14
2025/04/09 10:25:11.533838236,1744187111,533315768,,1.021192019834416e-10,-3.388933578207798e-11,0.0,0.0,0.0,8.15489897831867e-11
2025/04/09 10:25:11.632091450,1744187111,631813807,,1.4210854715202004e-14,1.0658141036401503e-14,0.0,0.0,0.0,-7.105427357601002e-15
2025/04/09 10:25:11.732303588,1744187111,731927601,,0.0,1.7763568394002505e-15,0.0,0.0,0.0,-7.105427357601002e-15
2025/04/09 10:25:11.831938895,1744187111,831580689,,2.842170943040401e-14,-2.1316282072803006e-14,0.0,0.0,0.0,4.973799150320701e-14
2025/04/09 10:25:11.932699118,1744187111,931781686,,0.0,-5.329070518200751e-15,0.0,0.0,0.0,0.0
2025/04/09 10:25:12.31138580,1744187112,30987225,,0.0,-3.552713678800501e-15,0.0,0.0,0.0,2.1316282072803006e-14
2025/04/09 10:25:12.131487543,1744187112,131385347,,0.0,-1.4210854715202004e-14,0.0,0.0,0.0,1.4210854715202004e-14
2025/04/09 10:25:12.231292491,1744187112,231150692,,-1.4210854715202004e-14,-3.552713678800501e-15,0.0,0.0,0.0,0.0
2025/04/09 10:25:12.332566611,1744187112,332347585,,0.0,-3.552713678800501e-15,0.0,0.0,0.0,-7.105427357601002e-15
2025/04/09 10:25:12.434716400,1744187112,434570096,,0.0,1.7763568394002505e-15,0.0,0.0,0.0,2.1316282072803006e-14
2025/04/09 10:25:12.532603524,1744187112,532420294,,4.973799150320701e-13,1.5578649481540197e-12,0.0,0.0,0.0,-3.062439191126032e-12
2025/04/09 10:25:12.631710977,1744187112,631562174,,1.4210854715202004e-14,-3.552713678800501e-15,0.0,0.0,0.0,-1.4210854715202004e-14
2025/04/09 10:25:12.731749598,1744187112,731636127,,5.684341886080802e-14,-5.5067062021407764e-14,0.0,0.0,0.0,1.2789769243681803e-13
2025/04/09 10:25:12.831648236,1744187112,831516964,,1.4210854715202004e-14,-1.7763568394002505e-14,0.0,0.0,0.0,2.1316282072803006e-14
2025/04/09 10:25:12.934195599,1744187112,933930681,,0.0,1.7763568394002505e-14,0.0,0.0,0.0,-3.552713678800501e-14
2025/04/09 10:25:13.34439128,1744187113,34296870,,0.0,1.4210854715202004e-14,0.0,0.0,0.0,-2.842170943040401e-14
2025/04/09 10:25:13.131842464,1744187113,131693298,,0.0,0.0,0.0,0.0,0.0,-7.105427357601002e-15
2025/04/09 10:25:13.233176568,1744187113,233010478,,1.4210854715202004e-14,-8.881784197001252e-15,0.0,0.0,0.0,2.1316282072803006e-14
2025/04/09 10:25:13.332934545,1744187113,332799999,,1.4210854715202004e-14,-4.973799150320701e-14,0.0,0.0,0.0,9.237055564881302e-14
2025/04/09 10:25:13.434093781,1744187113,433835694,,-2.7000623958883807e-13,-5.240252676230739e-13,0.0,0.0,0.0,1.0089706847793423e-12
2025/04/09 10:25:13.531994731,1744187113,531583982,,0.0,0.0,0.0,0.0,0.0,0.0
2025/04/09 10:25:13.633438776,1744187113,633301467,,7.048583938740194e-12,-2.170708057747106e-12,0.0,0.0,0.0,5.4782844927103724e-12
2025/04/09 10:25:13.732236352,1744187113,732090447,,0.0,0.0,0.0,0.0,0.0,-1.4210854715202004e-14
2025/04/09 10:25:13.831549201,1744187113,831443955,,0.0,1.7763568394002505e-15,0.0,0.0,0.0,0.0
2025/04/09 10:25:13.931668257,1744187113,931554292,,-9.947598300641403e-14,-1.1013412404281553e-13,0.0,0.0,0.0,2.3447910280083306e-13
2025/04/09 10:25:14.33835700,1744187114,33710348,,1.4210854715202004e-14,0.0,0.0,0.0,0.0,1.4210854715202004e-14
2025/04/09 10:25:14.131479700,1744187114,131321366,,-1.4210854715202004e-14,-3.552713678800501e-15,0.0,0.0,0.0,2.1316282072803006e-14
2025/04/09 10:25:14.232664679,1744187114,232560702,,0.0,-1.7763568394002505e-15,0.0,0.0,0.0,7.105427357601002e-15
2025/04/09 10:25:14.331426689,1744187114,331321347,,0.0,0.0,0.0,0.0,0.0,-1.4210854715202004e-14
2025/04/09 10:25:14.432284158,1744187114,431437487,,0.0,0.0,0.0,0.0,0.0,-7.105427357601002e-15
2025/04/09 10:25:14.532223532,1744187114,531552857,,0.0,-1.7763568394002505e-14,0.0,0.0,0.0,4.973799150320701e-14
2025/04/09 10:25:14.631617757,1744187114,631495330,,-1.4210854715202004e-14,-7.105427357601002e-15,0.0,0.0,0.0,7.105427357601002e-15
2025/04/09 10:25:14.732347967,1744187114,732176671,,1.4210854715202004e-13,-1.2612133559741778e-13,0.0,0.0,0.0,3.055333763768431e-13
2025/04/09 10:25:14.831763746,1744187114,831560594,,0.0,-1.7763568394002505e-15,0.0,0.0,0.0,-2.1316282072803006e-14
2025/04/09 10:25:14.932884517,1744187114,932706699,,2.842170943040401e-14,-5.1514348342607263e-14,0.0,0.0,0.0,-4.973799150320701e-14
2025/04/09 10:25:15.31905303,1744187115,31738153,,-1.7053025658242404e-13,4.085620730620576e-14,0.0,0.0,0.0,2.4868995751603507e-13
2025/04/09 10:25:15.131707290,1744187115,131485226,,-2.842170943040401e-14,-1.7763568394002505e-15,0.0,0.0,0.0,2.1316282072803006e-14
2025/04/09 10:25:15.231945698,1744187115,231797449,,-2.3021584638627246e-12,1.2789769243681803e-12,0.0,0.0,0.0,3.105071755271638e-12
2025/04/09 10:25:15.332478154,1744187115,332233023,,-2.3163693185779266e-12,9.36140054363932e-13,0.0,0.0,0.0,1.5987211554602254e-12
2025/04/09 10:25:15.437240214,1744187115,436875983,,-1.4352963262354024e-12,1.4477308241112041e-12,0.0,0.0,0.0,1.6626700016786344e-12
2025/04/09 10:25:15.535991816,1744187115,534999849,,0.0,0.0,0.0,0.0,0.0,-2.842170943040401e-14
2025/04/09 10:25:15.634732434,1744187115,633823219,,0.0,0.0,0.0,0.0,0.0,-1.4210854715202004e-14
2025/04/09 10:25:15.731402002,1744187115,731212124,,1.4210854715202004e-14,-1.7763568394002505e-15,0.0,0.0,0.0,0.0
2025/04/09 10:25:15.833332161,1744187115,833163034,,-5.684341886080802e-14,2.1316282072803006e-14,0.0,0.0,0.0,4.263256414560601e-14
2025/04/09 10:25:15.931566472,1744187115,931436460,,0.0,-7.105427357601002e-15,0.0,0.0,0.0,1.4210854715202004e-14
2025/04/09 10:25:16.35427157,1744187116,34986336,,-9.313794180343393e-11,5.546141323975462e-11,0.0,0.0,0.0,1.1372236485840403e-10
2025/04/09 10:25:16.134484127,1744187116,134147503,,0.0,-7.105427357601002e-15,0.0,0.0,0.0,-7.105427357601002e-15
2025/04/09 10:25:16.232038376,1744187116,231079813,,1.4210854715202004e-14,-1.0658141036401503e-14,0.0,0.0,0.0,2.1316282072803006e-14
2025/04/09 10:25:16.338068175,1744187116,335339266,,-3.353761712787673e-12,1.4210854715202004e-12,0.0,0.0,0.0,1.7692514120426495e-12
2025/04/09 10:25:16.434090426,1744187116,433967983,,-8.668621376273222e-13,4.121147867408581e-13,0.0,0.0,0.0,8.952838470577262e-13
2025/04/09 10:25:16.532220580,1744187116,531962002,,-2.8421709430404007e-13,9.237055564881302e-14,0.0,0.0,0.0,2.2026824808563106e-13
2025/04/09 10:25:16.634912561,1744187116,634607210,,-1.4210854715202004e-14,3.552713678800501e-15,0.0,0.0,0.0,0.0
2025/04/09 10:25:16.740102772,1744187116,736759476,,-2.7711166694643907e-12,1.5685230891904212e-12,0.0,0.0,0.0,3.481659405224491e-12
2025/04/09 10:25:16.832083549,1744187116,831975322,,-3.268496584496461e-13,1.3677947663381929e-13,0.0,0.0,0.0,4.192202140984591e-13
2025/04/09 10:25:16.938048253,1744187116,937911323,,-1.0516032489249483e-12,4.2454928461665986e-13,0.0,0.0,0.0,7.318590178329032e-13
2025/04/09 10:25:17.42890350,1744187117,41540792,,-4.803268893738277e-12,1.3837819778927951e-12,0.0,0.0,0.0,7.744915819785092e-13
2025/04/09 10:25:17.133681304,1744187117,133452195,,-1.1226575225009583e-12,3.979039320256561e-13,0.0,0.0,0.0,7.247535904753022e-13
2025/04/09 10:25:17.232087730,1744187117,231709337,,0.0,7.105427357601002e-15,0.0,0.0,0.0,0.0
2025/04/09 10:25:17.348200499,1744187117,347682285,,-6.536993168992922e-13,1.8118839761882555e-13,0.0,0.0,0.0,2.984279490192421e-13
2025/04/09 10:25:17.436894657,1744187117,436707885,,-2.842170943040401e-14,5.329070518200751e-15,0.0,0.0,0.0,2.1316282072803006e-14
2025/04/09 10:25:17.542687576,1744187117,540124984,,-1.4210854715202004e-14,0.0,0.0,0.0,0.0,2.842170943040401e-14
2025/04/09 10:25:17.642831523,1744187117,641047531,,-4.263256414560601e-13,8.526512829121202e-14,0.0,0.0,0.0,2.0605739337042905e-13
2025/04/09 10:25:17.744844127,1744187117,744633172,,0.0,-1.7763568394002505e-15,0.0,0.0,0.0,-1.4210854715202004e-14
2025/04/09 10:25:17.834169095,1744187117,833989101,,0.0,7.105427357601002e-15,0.0,0.0,0.0,-7.105427357601002e-15
2025/04/09 10:25:17.931814867,1744187117,931643064,,-8.526512829121202e-14,-1.7763568394002505e-15,0.0,0.0,0.0,5.684341886080802e-14
2025/04/09 10:25:18.32249395,1744187118,32118349,,-3.694822225952521e-13,4.085620730620576e-14,0.0,0.0,0.0,-6.394884621840902e-14
2025/04/09 10:25:18.132129239,1744187118,132016693,,-4.050093593832571e-12,1.2594369991347776e-12,0.0,0.0,0.0,1.0231815394945443e-12
2025/04/09 10:25:18.231771832,1744187118,231650010,,-1.2789769243681803e-13,3.375077994860476e-14,0.0,0.0,0.0,8.526512829121202e-14
2025/04/09 10:25:18.331458426,1744187118,331314348,,-1.4210854715202004e-14,7.105427357601002e-15,0.0,0.0,0.0,1.4210854715202004e-14
2025/04/09 10:25:18.431642673,1744187118,431495315,,-8.526512829121202e-14,1.4210854715202004e-14,0.0,0.0,0.0,7.105427357601002e-14
2025/04/09 10:25:18.531317857,1744187118,531187386,,0.0,0.0,0.0,0.0,0.0,0.0
2025/04/09 10:25:18.636773631,1744187118,636606714,,-5.684341886080802e-14,1.7763568394002505e-14,0.0,0.0,0.0,2.1316282072803006e-14
2025/04/09 10:25:18.732037542,1744187118,731918839,,-1.4495071809506044e-12,2.6645352591003757e-13,0.0,0.0,0.0,7.815970093361102e-14
2025/04/09 10:25:18.831824552,1744187118,831691068,,-4.263256414560601e-14,3.552713678800501e-15,0.0,0.0,0.0,-7.105427357601002e-15
2025/04/09 10:25:18.932181872,1744187118,932016322,,-3.126388037344441e-13,-1.0658141036401503e-14,0.0,0.0,0.0,-2.6290081223123707e-13
2025/04/09 10:25:19.31516953,1744187119,31390874,,-1.8758328224066645e-12,2.0605739337042905e-13,0.0,0.0,0.0,-3.979039320256561e-13
2025/04/09 10:25:19.134243019,1744187119,133714306,,-6.934897101018578e-12,2.092548356813495e-12,0.0,0.0,0.0,2.5934809855243657e-12
2025/04/09 10:25:19.232128333,1744187119,231971173,,-1.4210854715202004e-13,-1.0658141036401503e-14,0.0,0.0,0.0,-5.684341886080802e-14
2025/04/09 10:25:19.333330291,1744187119,333224296,,-1.8474111129762605e-13,2.4868995751603507e-14,0.0,0.0,0.0,-7.815970093361102e-14
2025/04/09 10:25:19.433259736,1744187119,432052125,,-1.9895196601282805e-13,-7.105427357601002e-15,0.0,0.0,0.0,-2.0605739337042905e-13
2025/04/09 10:25:19.532184277,1744187119,531594826,,-4.263256414560601e-14,5.329070518200751e-15,0.0,0.0,0.0,2.1316282072803006e-14
2025/04/09 10:25:19.635657371,1744187119,634740177,,-3.851141627819743e-12,3.6060043839825084e-13,0.0,0.0,0.0,-1.3926637620897964e-12
2025/04/09 10:25:19.732020398,1744187119,731755678,,-1.4210854715202004e-14,0.0,0.0,0.0,0.0,7.105427357601002e-15
2025/04/09 10:25:19.831797036,1744187119,831660259,,0.0,-3.552713678800501e-15,0.0,0.0,0.0,-7.105427357601002e-15
2025/04/09 10:25:19.931784140,1744187119,931603785,,-1.4210854715202004e-14,-1.0658141036401503e-14,0.0,0.0,0.0,2.842170943040401e-14
2025/04/09 10:25:20.31879810,1744187120,31744467,,-5.684341886080802e-14,7.105427357601002e-15,0.0,0.0,0.0,-1.4210854715202004e-14
2025/04/09 10:25:20.133342911,1744187120,133142751,,-2.842170943040401e-14,3.552713678800501e-15,0.0,0.0,0.0,-3.552713678800501e-14
2025/04/09 10:25:20.232442565,1744187120,232244904,,-5.684341886080802e-14,-1.7763568394002505e-15,0.0,0.0,0.0,1.4210854715202004e-14
2025/04/09 10:25:20.331852683,1744187120,331312837,,0.0,-1.7763568394002505e-15,0.0,0.0,0.0,-7.105427357601002e-15
2025/04/09 10:25:20.432683127,1744187120,432537359,,-5.684341886080802e-14,5.329070518200751e-15,0.0,0.0,0.0,-1.4210854715202004e-14
2025/04/09 10:25:20.531524220,1744187120,531347570,,-5.968558980384842e-13,1.7763568394002505e-14,0.0,0.0,0.0,-1.0658141036401503e-13
2025/04/09 10:25:20.633542841,1744187120,633413834,,-8.526512829121202e-13,-1.3855583347321954e-13,0.0,0.0,0.0,-1.2079226507921703e-12
2025/04/09 10:25:20.734320872,1744187120,734126642,,-9.947598300641403e-14,-7.105427357601002e-15,0.0,0.0,0.0,-3.552713678800501e-14
2025/04/09 10:25:20.831879159,1744187120,831726168,,-2.842170943040401e-14,-2.3092638912203256e-14,0.0,0.0,0.0,-5.684341886080802e-14
2025/04/09 10:25:20.932110057,1744187120,931125039,,-2.842170943040401e-14,-7.105427357601002e-15,0.0,0.0,0.0,-7.105427357601002e-15
2025/04/09 10:25:21.31629025,1744187121,31509625,,-1.4210854715202004e-14,-1.0658141036401503e-14,0.0,0.0,0.0,2.842170943040401e-14
2025/04/09 10:25:21.132837349,1744187121,132696270,,-9.123368727159686e-12,-1.1155520951433573e-12,0.0,0.0,0.0,-1.3500311979441904e-11
2025/04/09 10:25:21.232987922,1744187121,232789656,,-1.1368683772161603e-12,-1.0658141036401503e-13,0.0,0.0,0.0,-1.2079226507921703e-12
2025/04/09 10:25:21.332317906,1744187121,332201942,,-1.7053025658242404e-12,-3.765876499528531e-13,0.0,0.0,0.0,-3.083755473198835e-12
2025/04/09 10:25:21.432522269,1744187121,432317096,,-8.526512829121202e-14,-4.263256414560601e-14,0.0,0.0,0.0,-1.7053025658242404e-13
2025/04/09 10:25:21.532912644,1744187121,531806146,,-1.8474111129762605e-13,-9.237055564881302e-14,0.0,0.0,0.0,-4.476419235288631e-13
2025/04/09 10:25:21.634271426,1744187121,632051438,,-2.4158453015843406e-13,-7.283063041541027e-14,0.0,0.0,0.0,-3.268496584496461e-13
2025/04/09 10:25:21.732676906,1744187121,732422317,,-5.684341886080801e-13,-1.758593271006248e-13,0.0,0.0,0.0,-1.1581846592889633e-12
2025/04/09 10:25:21.831162383,1744187121,831009651,,-1.4210854715202004e-14,-5.329070518200751e-15,0.0,0.0,0.0,0.0
2025/04/09 10:25:21.932688908,1744187121,932569731,,-2.467004378559068e-11,-1.0125233984581428e-12,0.0,0.0,0.0,-2.687272626644699e-11
2025/04/09 10:25:22.32697869,1744187122,32041011,,-6.423306331271306e-12,-1.2896350654045818e-12,0.0,0.0,0.0,-1.1226575225009583e-11
2025/04/09 10:25:22.131734127,1744187122,131596303,,0.0,-1.7763568394002505e-15,0.0,0.0,0.0,7.105427357601002e-15
2025/04/09 10:25:22.233954709,1744187122,232886602,,-8.526512829121202e-14,-1.0658141036401503e-14,0.0,0.0,0.0,-4.973799150320701e-14
2025/04/09 10:25:22.331923739,1744187122,331810110,,-2.5579538487363607e-13,-1.3500311979441904e-13,0.0,0.0,0.0,-6.465938895416912e-13
2025/04/09 10:25:22.432184441,1744187122,431981845,,-1.4210854715202004e-14,-1.2434497875801753e-14,0.0,0.0,0.0,-5.684341886080802e-14
2025/04/09 10:25:22.531867420,1744187122,531658618,,-9.947598300641403e-14,-7.105427357601002e-14,0.0,0.0,0.0,-1.9184653865522705e-13
2025/04/09 10:25:22.632410011,1744187122,632010037,,-1.4210854715202004e-13,-8.171241461241152e-14,0.0,0.0,0.0,-3.836930773104541e-13
2025/04/09 10:25:22.731692573,1744187122,731466845,,1.4210854715202004e-14,3.552713678800501e-15,0.0,0.0,0.0,0.0
2025/04/09 10:25:22.832242017,1744187122,832068592,,-1.8474111129762605e-13,-9.769962616701378e-14,0.0,0.0,0.0,-3.836930773104541e-13
2025/04/09 10:25:22.931779130,1744187122,931652585,,-1.4210854715202004e-14,-7.105427357601002e-15,0.0,0.0,0.0,-2.1316282072803006e-14
2025/04/09 10:25:23.32045357,1744187123,31852335,,-2.842170943040401e-14,0.0,0.0,0.0,0.0,-4.973799150320701e-14
2025/04/09 10:25:23.131792317,1744187123,131647497,,0.0,-8.881784197001252e-15,0.0,0.0,0.0,1.4210854715202004e-14
2025/04/09 10:25:23.236004017,1744187123,235839640,,-1.0516032489249483e-12,-4.3876013933186186e-13,0.0,0.0,0.0,-2.6147972675971687e-12
2025/04/09 10:25:23.331488284,1744187123,331342759,,0.0,0.0,0.0,0.0,0.0,-2.842170943040401e-14
2025/04/09 10:25:23.432220742,1744187123,431780041,,-7.919709332782077e-11,-1.0189182830799837e-11,0.0,0.0,0.0,-1.2023804174532415e-10
2025/04/09 10:25:23.532501586,1744187123,532346171,,-4.035882739117369e-12,-1.8065549056700547e-12,0.0,0.0,0.0,-1.0238920822303044e-11
2025/04/09 10:25:23.632690809,1744187123,631812082,,-1.1368683772161603e-13,-9.414691248821327e-14,0.0,0.0,0.0,-3.268496584496461e-13
2025/04/09 10:25:23.732576410,1744187123,732338878,,-2.3021584638627246e-12,-1.0693668173189508e-12,0.0,0.0,0.0,-6.181721801112872e-12
2025/04/09 10:25:23.834719190,1744187123,831826073,,-2.842170943040401e-14,-3.907985046680551e-14,0.0,0.0,0.0,-1.3500311979441904e-13
2025/04/09 10:25:23.932045209,1744187123,931867140,,0.0,-4.085620730620576e-14,0.0,0.0,0.0,-5.684341886080802e-14
2025/04/09 10:25:24.32995188,1744187124,32448799,,-6.394884621840902e-13,-2.5224267119483557e-13,0.0,0.0,0.0,-1.3002932064409833e-12
2025/04/09 10:25:24.133584601,1744187124,133344156,,-1.1368683772161603e-13,-1.0302869668521453e-13,0.0,0.0,0.0,-4.050093593832571e-13
2025/04/09 10:25:24.235231193,1744187124,234991657,,-2.2737367544323206e-13,-1.829647544582258e-13,0.0,0.0,0.0,-6.750155989720952e-13
2025/04/09 10:25:24.335754414,1744187124,333770035,,-9.947598300641403e-14,-1.1013412404281553e-13,0.0,0.0,0.0,-3.836930773104541e-13
2025/04/09 10:25:24.435286817,1744187124,435161354,,-1.2789769243681803e-13,-1.3855583347321954e-13,0.0,0.0,0.0,-4.405364961712621e-13
2025/04/09 10:25:24.553442193,1744187124,553280385,,-7.105427357601002e-14,-8.881784197001252e-14,0.0,0.0,0.0,-2.984279490192421e-13
2025/04/09 10:25:24.637006733,1744187124,636849348,,0.0,1.7763568394002505e-15,0.0,0.0,0.0,0.0
2025/04/09 10:25:24.734175842,1744187124,734037703,,0.0,0.0,0.0,0.0,0.0,-7.105427357601002e-15
2025/04/09 10:25:24.833491039,1744187124,831902268,,-2.1316282072803006e-14,-1.0658141036401503e-14,0.0,0.0,0.0,-3.552713678800501e-14
2025/04/09 10:25:24.931457656,1744187124,931217685,,-7.105427357601002e-14,3.552713678800501e-15,0.0,0.0,0.0,-1.3500311979441904e-13
2025/04/09 10:25:25.36215340,1744187125,36041160,,-7.105427357601002e-15,1.7763568394002505e-15,0.0,0.0,0.0,0.0
2025/04/09 10:25:25.131801026,1744187125,131636432,,0.0,-5.329070518200751e-15,0.0,0.0,0.0,-2.1316282072803006e-14
2025/04/09 10:25:25.233905466,1744187125,233743795,,-1.4210854715202004e-14,3.552713678800501e-15,0.0,0.0,0.0,-7.105427357601002e-15
2025/04/09 10:25:25.334759949,1744187125,334627063,,-7.105427357601002e-15,-3.552713678800501e-15,0.0,0.0,0.0,-1.4210854715202004e-14
2025/04/09 10:25:25.435354214,1744187125,434824476,,-5.684341886080802e-14,-2.1316282072803006e-14,0.0,0.0,0.0,-8.526512829121202e-14
2025/04/09 10:25:25.533442510,1744187125,532845927,,-1.4210854715202004e-14,-2.1316282072803006e-14,0.0,0.0,0.0,-5.684341886080802e-14
2025/04/09 10:25:25.633695721,1744187125,633571608,,-4.689582056016661e-13,-4.0678571622265736e-13,0.0,0.0,0.0,-1.7550405573274475e-12
2025/04/09 10:25:25.734334416,1744187125,734082920,,-5.684341886080802e-14,-8.881784197001252e-14,0.0,0.0,0.0,-2.5579538487363607e-13
2025/04/09 10:25:25.833117665,1744187125,832986615,,-9.947598300641403e-14,-1.7763568394002505e-14,0.0,0.0,0.0,-2.2737367544323206e-13
2025/04/09 10:25:25.935487001,1744187125,934781122,,-1.1368683772161603e-13,-1.509903313490213e-13,0.0,0.0,0.0,-5.400124791776761e-13
2025/04/09 10:25:26.33914926,1744187126,33744251,,-3.552713678800501e-14,-8.171241461241152e-14,0.0,0.0,0.0,-2.2737367544323206e-13
2025/04/09 10:25:26.133167558,1744187126,132226119,,0.0,-1.7763568394002505e-15,0.0,0.0,0.0,0.0
2025/04/09 10:25:26.232415523,1744187126,232178720,,-1.4210854715202004e-14,-8.881784197001252e-15,0.0,0.0,0.0,-7.105427357601002e-15
2025/04/09 10:25:26.335213141,1744187126,335064608,,-1.4210854715202004e-13,-3.552713678800501e-14,0.0,0.0,0.0,-3.055333763768431e-13
2025/04/09 10:25:26.433124450,1744187126,432970092,,0.0,0.0,0.0,0.0,0.0,-7.105427357601002e-15
2025/04/09 10:25:26.533347910,1744187126,532338233,,-2.2737367544323206e-13,-2.2026824808563106e-13,0.0,0.0,0.0,-8.029132914089132e-13
2025/04/09 10:25:26.631717950,1744187126,631512795,,7.105427357601002e-15,-4.263256414560601e-14,0.0,0.0,0.0,-7.105427357601002e-14
2025/04/09 10:25:26.732683328,1744187126,731813476,,-1.4210854715202004e-14,-1.5987211554602254e-14,0.0,0.0,0.0,-3.552713678800501e-14
2025/04/09 10:25:26.834022737,1744187126,833757245,,-4.334310688136611e-13,-3.694822225952521e-13,0.0,0.0,0.0,-1.8474111129762605e-12
2025/04/09 10:25:26.931816211,1744187126,931674815,,-1.4210854715202004e-14,-7.105427357601002e-15,0.0,0.0,0.0,-2.1316282072803006e-14
2025/04/09 10:25:27.31971632,1744187127,31873287,,-1.7053025658242404e-13,-1.865174681370263e-13,0.0,0.0,0.0,-6.892264536872972e-13
2025/04/09 10:25:27.133368798,1744187127,132196054,,0.0,0.0,0.0,0.0,0.0,-7.105427357601002e-15
2025/04/09 10:25:27.233678252,1744187127,233137888,,-6.394884621840902e-14,-8.526512829121202e-14,0.0,0.0,0.0,-3.410605131648481e-13
2025/04/09 10:25:27.335596986,1744187127,333778459,,-4.263256414560601e-14,-2.842170943040401e-14,0.0,0.0,0.0,-1.2789769243681803e-13
2025/04/09 10:25:27.434910600,1744187127,433800090,,-1.4210854715202004e-14,-8.348877145181177e-14,0.0,0.0,0.0,-2.1316282072803006e-13
2025/04/09 10:25:27.531542856,1744187127,531410208,,-9.237055564881302e-14,-1.2434497875801753e-13,0.0,0.0,0.0,-4.263256414560601e-13
2025/04/09 10:25:27.631877244,1744187127,631784759,,-3.552713678800501e-14,-7.638334409421077e-14,0.0,0.0,0.0,-2.4158453015843406e-13
2025/04/09 10:25:27.732248119,1744187127,732134471,,-4.263256414560601e-14,-6.572520305780927e-14,0.0,0.0,0.0,-1.7763568394002505e-13
2025/04/09 10:25:27.831356316,1744187127,831254397,,0.0,-1.7763568394002505e-15,0.0,0.0,0.0,7.105427357601002e-15
2025/04/09 10:25:27.931871865,1744187127,931756612,,-1.4210854715202004e-14,-8.881784197001252e-15,0.0,0.0,0.0,-2.842170943040401e-14
2025/04/09 10:25:28.32742345,1744187128,31083115,,0.0,0.0,0.0,0.0,0.0,-2.842170943040401e-14
2025/04/09 10:25:28.132428619,1744187128,132210360,,-4.263256414560601e-14,-1.1546319456101628e-13,0.0,0.0,0.0,-2.4868995751603507e-13
2025/04/09 10:25:28.231693490,1744187128,231448494,,0.0,-7.105427357601002e-15,0.0,0.0,0.0,-3.552713678800501e-14
2025/04/09 10:25:28.331552375,1744187128,331429244,,-2.1316282072803006e-14,-4.973799150320701e-14,0.0,0.0,0.0,-1.4210854715202004e-13
2025/04/09 10:25:28.431554746,1744187128,431411758,,-9.947598300641403e-14,-1.5276668818842154e-13,0.0,0.0,0.0,-5.329070518200751e-13
2025/04/09 10:25:28.532336316,1744187128,532198431,,-7.105427357601002e-15,-2.6645352591003757e-14,0.0,0.0,0.0,-7.105427357601002e-14
2025/04/09 10:25:28.633269863,1744187128,633145333,,-2.1316282072803006e-14,-9.769962616701378e-14,0.0,0.0,0.0,-2.6290081223123707e-13
2025/04/09 10:25:28.732909479,1744187128,732764454,,-7.105427357601002e-14,-1.1013412404281553e-13,0.0,0.0,0.0,-3.481659405224491e-13
2025/04/09 10:25:28.834728072,1744187128,832273785,,-2.842170943040401e-14,-9.947598300641403e-14,0.0,0.0,0.0,-2.4158453015843406e-13
2025/04/09 10:25:28.932917110,1744187128,932779114,,0.0,-1.7763568394002505e-14,0.0,0.0,0.0,-4.263256414560601e-14
2025/04/09 10:25:29.33628651,1744187129,33483196,,0.0,-5.329070518200751e-15,0.0,0.0,0.0,-4.263256414560601e-14
2025/04/09 10:25:29.131257307,1744187129,131040975,,-1.4210854715202004e-14,-2.1316282072803006e-14,0.0,0.0,0.0,-5.684341886080802e-14
2025/04/09 10:25:29.231357293,1744187129,231184582,,0.0,1.7763568394002505e-15,0.0,0.0,0.0,-2.1316282072803006e-14
2025/04/09 10:25:29.332450641,1744187129,332175230,,-2.842170943040401e-14,-1.474376176702208e-13,0.0,0.0,0.0,-3.552713678800501e-13
2025/04/09 10:25:29.431674611,1744187129,431523254,,-7.105427357601002e-15,-8.881784197001252e-15,0.0,0.0,0.0,-2.842170943040401e-14
2025/04/09 10:25:29.532005473,1744187129,531468268,,0.0,-2.6645352591003757e-15,0.0,0.0,0.0,-1.4210854715202004e-14
2025/04/09 10:25:29.633359496,1744187129,633168236,,0.0,3.552713678800501e-15,0.0,0.0,0.0,-2.842170943040401e-14
2025/04/09 10:25:29.732599617,1744187129,732402947,,-3.552713678800501e-14,-9.237055564881302e-14,0.0,0.0,0.0,-2.5579538487363607e-13
2025/04/09 10:25:29.835219433,1744187129,834987401,,-6.821210263296962e-13,-1.5276668818842154e-12,0.0,0.0,0.0,-5.016431714466307e-12
2025/04/09 10:25:29.932240836,1744187129,932104316,,-7.105427357601002e-15,-8.526512829121202e-14,0.0,0.0,0.0,-1.7763568394002505e-13
2025/04/09 10:25:30.32588019,1744187130,32435793,,-4.263256414560601e-14,-3.197442310920451e-14,0.0,0.0,0.0,-1.7053025658242404e-13
2025/04/09 10:25:30.131799488,1744187130,131624081,,0.0,0.0,0.0,0.0,0.0,-2.1316282072803006e-14
2025/04/09 10:25:30.232644032,1744187130,232375516,,-7.105427357601002e-15,-4.618527782440651e-14,0.0,0.0,0.0,-1.4210854715202004e-13
2025/04/09 10:25:30.332315436,1744187130,332138485,,-5.684341886080802e-14,-2.398081733190338e-13,0.0,0.0,0.0,-5.968558980384842e-13
2025/04/09 10:25:30.434742997,1744187130,433945190,,-7.105427357601002e-15,-5.329070518200751e-15,0.0,0.0,0.0,-4.973799150320701e-14
2025/04/09 10:25:30.532914954,1744187130,532774431,,-1.4210854715202004e-14,-1.7763568394002505e-15,0.0,0.0,0.0,-7.105427357601002e-15
2025/04/09 10:25:30.632174410,1744187130,632071612,,7.105427357601002e-15,-7.105427357601002e-14,0.0,0.0,0.0,-1.7053025658242404e-13
2025/04/09 10:25:30.732708734,1744187130,731184122,,0.0,-2.6645352591003757e-15,0.0,0.0,0.0,7.105427357601002e-15
2025/04/09 10:25:30.832314078,1744187130,832182012,,0.0,-8.881784197001252e-15,0.0,0.0,0.0,-2.842170943040401e-14
2025/04/09 10:25:30.931718562,1744187130,931288877,,-7.105427357601002e-15,-5.329070518200751e-15,0.0,0.0,0.0,-1.4210854715202004e-14
2025/04/09 10:25:31.36018375,1744187131,35553675,,0.0,-3.375077994860476e-14,0.0,0.0,0.0,-4.973799150320701e-14
2025/04/09 10:25:31.135861259,1744187131,134540922,,0.0,-8.881784197001252e-15,0.0,0.0,0.0,-2.842170943040401e-14
2025/04/09 10:25:31.232010423,1744187131,231850662,,0.0,-3.197442310920451e-14,0.0,0.0,0.0,-6.394884621840902e-14
2025/04/09 10:25:31.332921666,1744187131,331981304,,0.0,3.552713678800501e-15,0.0,0.0,0.0,-7.105427357601002e-15
2025/04/09 10:25:31.431482788,1744187131,431350825,,0.0,0.0,0.0,0.0,0.0,1.4210854715202004e-14
2025/04/09 10:25:31.531798214,1744187131,531587736,,-1.2789769243681803e-13,-3.1441516057384433e-13,0.0,0.0,0.0,-1.0302869668521453e-12
2025/04/09 10:25:31.631662952,1744187131,631531951,,-2.1316282072803006e-14,-1.0658141036401503e-14,0.0,0.0,0.0,-6.394884621840902e-14
2025/04/09 10:25:31.733517218,1744187131,733374509,,7.105427357601002e-15,0.0,0.0,0.0,0.0,-1.4210854715202004e-14
2025/04/09 10:25:31.832469278,1744187131,832369344,,0.0,-5.5067062021407764e-14,0.0,0.0,0.0,-1.1368683772161603e-13
2025/04/09 10:25:31.932456856,1744187131,931547572,,-5.684341886080802e-14,-1.865174681370263e-13,0.0,0.0,0.0,-5.471179065352771e-13
2025/04/09 10:25:32.34623605,1744187132,34233614,,0.0,-1.0658141036401503e-14,0.0,0.0,0.0,-2.842170943040401e-14
2025/04/09 10:25:32.133024556,1744187132,132875647,,0.0,-1.7763568394002505e-15,0.0,0.0,0.0,-2.1316282072803006e-14
2025/04/09 10:25:32.232369885,1744187132,232252654,,0.0,-5.329070518200751e-15,0.0,0.0,0.0,-7.105427357601002e-15
2025/04/09 10:25:32.331184389,1744187132,331058707,,0.0,-3.552713678800501e-15,0.0,0.0,0.0,2.842170943040401e-14
2025/04/09 10:25:32.434475684,1744187132,434298683,,-7.105427357601002e-15,-8.881784197001252e-15,0.0,0.0,0.0,-2.842170943040401e-14
2025/04/09 10:25:32.538363556,1744187132,537067254,,0.0,-7.105427357601002e-15,0.0,0.0,0.0,-3.552713678800501e-14
2025/04/09 10:25:32.631889330,1744187132,631746174,,-5.684341886080802e-14,-1.9806378759312793e-13,0.0,0.0,0.0,-5.329070518200751e-13
2025/04/09 10:25:32.731427790,1744187132,731216945,,0.0,-5.329070518200751e-15,0.0,0.0,0.0,-2.1316282072803006e-14
2025/04/09 10:25:32.833341280,1744187132,833224623,,-1.4210854715202004e-14,1.7763568394002505e-15,0.0,0.0,0.0,-1.4210854715202004e-14
2025/04/09 10:25:32.931239765,1744187132,931092982,,0.0,8.881784197001252e-16,0.0,0.0,0.0,-7.105427357601002e-15
2025/04/09 10:25:33.37093280,1744187133,35960066,,0.0,-8.881784197001252e-16,0.0,0.0,0.0,-7.105427357601002e-15
2025/04/09 10:25:33.143213691,1744187133,142063062,,-4.263256414560601e-14,-1.616484723854228e-13,0.0,0.0,0.0,-4.689582056016661e-13
2025/04/09 10:25:33.238224499,1744187133,235569133,,7.105427357601002e-15,1.7763568394002505e-15,0.0,0.0,0.0,1.4210854715202004e-14
2025/04/09 10:25:33.335732993,1744187133,335367719,,0.0,-1.7763568394002505e-15,0.0,0.0,0.0,0.0
2025/04/09 10:25:33.432910647,1744187133,432818081,,-7.105427357601002e-15,-1.7763568394002505e-15,0.0,0.0,0.0,7.105427357601002e-15
2025/04/09 10:25:33.531358663,1744187133,531207460,,-7.105427357601002e-15,-8.881784197001252e-15,0.0,0.0,0.0,-3.552713678800501e-14
2025/04/09 10:25:33.632793143,1744187133,632296356,,0.0,-7.194245199571014e-14,0.0,0.0,0.0,-1.4210854715202004e-13
2025/04/09 10:25:33.732036613,1744187133,731899313,,-1.4210854715202004e-14,-8.526512829121202e-14,0.0,0.0,0.0,-1.9184653865522705e-13
2025/04/09 10:25:33.832495971,1744187133,832368562,,0.0,-7.105427357601002e-14,0.0,0.0,0.0,-1.5631940186722204e-13
2025/04/09 10:25:33.933701360,1744187133,932420812,,-2.842170943040401e-14,-1.580957587066223e-13,0.0,0.0,0.0,-4.050093593832571e-13
2025/04/09 10:25:34.38658478,1744187134,38417467,,-2.1316282072803006e-14,-5.3290705182007514e-14,0.0,0.0,0.0,-2.0605739337042905e-13
